index,placename,longitude,latitude,emself,emselfs,emsels,emselves,emsens,theirsel,theirself,theirselfs,theirseln,theirselns,theirsels,theirselves,theirsen,theirsens,them,themsel,themself,themselfs,themseln,themselns,themsels,themselves,themsen,themsens,theyselves,theysens
0,Dingle,-10.264013499999999,52.14094,0.01,0.01,0.01,0.01,0.01,0.01,0.01,0.01,0.01,0.01,0.01,0.01,0.01,0.01,0.01,0.01,0.01,0.01,0.01,0.01,0.01,0.1421253757614602,0.01,0.01,0.01,0.01
1,Tralee,-9.6999325,52.27131,0.01,0.01,0.01,0.01,0.01,0.01,0.01,0.01,0.01,0.01,0.01,0.01,0.01,0.01,0.01,0.01,0.01,0.01,0.01,0.01,0.01,0.21860139118878916,0.01,0.01,0.01,0.01
2,Killarney,-9.5044265,52.059940000000005,0.01,0.01,0.01,0.01,0.01,0.01,0.01,0.01,0.01,0.01,0.01,0.01,0.01,0.01,0.01,0.01,0.01,0.01,0.01,0.01,0.01,0.34097124627838427,0.01,0.01,0.01,0.01
3,Bantry,-9.4539805,51.68035,0.01,0.01,0.01,0.01,0.01,0.01,0.01,0.01,0.01,0.01,0.01,0.01,0.01,0.01,0.01,0.01,0.01,0.01,0.01,0.01,0.01,0.1515269872504485,0.01,0.01,0.01,0.01
4,Mayo,-9.4289369,54.01526,0.01,0.01,0.01,0.01,0.01,0.01,0.01,0.01,0.01,0.01,0.01,0.01,0.01,0.01,0.01,0.01,0.01,0.01,0.01,0.01,0.01,0.207827352259753,0.01,0.01,0.01,0.01
5,Ballycastle,-9.3724643,54.279669999999996,0.01,0.01,0.01,0.01,0.01,0.01,0.01,0.01,0.01,0.01,0.01,0.01,0.01,0.01,0.01,0.01,0.01,0.01,0.01,0.01,0.01,0.04358996433260108,0.01,0.01,0.01,0.01
6,Abbeyfeale,-9.2970823,52.386179999999996,0.01,0.01,0.01,0.01,0.01,0.01,0.01,0.01,0.01,0.01,0.01,0.01,0.01,0.01,0.01,0.01,0.01,0.01,0.01,0.01,0.01,0.04358996433260108,0.01,0.01,0.01,0.01
7,Ennistymon,-9.2934951,52.940369999999994,0.01,0.01,0.01,0.01,0.01,0.01,0.01,0.01,0.01,0.01,0.01,0.01,0.01,0.01,0.01,0.01,0.01,0.01,0.01,0.01,0.01,0.04358996433260108,0.01,0.01,0.01,0.01
8,Galway,-9.0567905,53.270669999999996,0.01,0.01,0.01,0.01,0.01,0.01,0.01,0.01,0.01,0.01,0.01,0.01,0.01,0.01,0.01,0.01,0.01,0.01,0.01,0.01,0.01,0.4596483904368627,0.01,0.01,0.01,0.01
9,Claremorris,-9.0017356,53.72388,0.01,0.01,0.01,0.01,0.01,0.01,0.01,0.01,0.01,0.01,0.01,0.01,0.01,0.01,0.01,0.01,0.01,0.01,0.01,0.01,0.01,0.31145787370077505,0.01,0.01,0.01,0.01
10,Clare,-8.9811351,52.90453,0.01,0.01,0.01,0.01,0.01,0.01,0.01,0.01,0.01,0.01,0.01,0.01,0.01,0.01,0.01,0.01,0.01,0.01,0.01,0.01,0.01,0.30518768445772915,0.01,0.01,0.01,0.01
11,Adare,-8.7925892,52.56363,0.01,0.01,0.01,0.01,0.01,0.01,0.01,0.01,0.01,0.01,0.01,0.01,0.01,0.01,0.01,0.01,0.01,0.01,0.01,0.01,0.01,0.1315674813048359,0.01,0.01,0.01,0.01
12,Charleville,-8.681017599999999,52.36206,0.01,0.01,0.01,0.01,0.01,0.01,0.01,0.01,0.01,0.01,0.01,0.01,0.01,0.01,0.01,0.01,0.01,0.01,0.01,0.01,0.01,0.04358996433260108,0.01,0.01,0.01,0.01
13,Mallow,-8.6539164,52.13898,0.01,0.01,0.01,0.01,0.01,0.01,0.01,0.01,0.01,0.01,0.01,0.01,0.01,0.01,0.01,0.01,0.01,0.01,0.01,0.01,0.01,0.186125673013422,0.01,0.01,0.01,0.01
14,Limerick,-8.6267343,52.66384,0.01,0.01,0.01,0.01,0.01,0.01,0.01,0.01,0.01,0.01,0.01,0.01,0.01,0.01,0.01,0.01,0.01,0.01,0.01,0.01,0.01,0.43130251081331855,0.01,0.01,0.01,0.01
15,Loughrea,-8.5660931,53.19891,0.01,0.01,0.01,0.01,0.01,0.01,0.01,0.01,0.01,0.01,0.01,0.01,0.01,0.01,0.01,0.01,0.01,0.01,0.01,0.01,0.01,0.04358996433260108,0.01,0.01,0.01,0.01
16,Sligo,-8.476088800000001,54.27661,0.01,0.01,0.01,0.01,0.01,0.01,0.01,0.01,0.01,0.01,0.01,0.01,0.01,0.01,0.01,0.01,0.01,0.01,0.01,0.01,0.01,0.3254249055478793,0.01,0.01,0.01,0.01
17,Cork,-8.4756035,51.898509999999995,0.01,0.01,0.01,0.01,0.01,0.01,0.01,0.01,0.01,0.01,0.01,0.01,0.01,0.01,0.01,0.01,0.01,0.01,0.01,0.01,0.01,0.5462892478787512,0.01,0.01,0.01,0.01
18,Nenagh,-8.19834,52.8635,0.01,0.01,0.01,0.01,0.01,0.01,0.01,0.01,0.01,0.01,0.01,0.01,0.01,0.01,0.01,0.01,0.01,0.01,0.01,0.01,0.01,0.2409245303250018,0.01,0.01,0.01,0.01
19,Roscommon,-8.1890955,53.627590000000005,0.01,0.01,0.01,0.01,0.01,0.01,0.01,0.01,0.01,0.01,0.01,0.01,0.01,0.01,0.01,0.01,0.01,0.01,0.01,0.01,0.01,0.25316628881723263,0.01,0.01,0.01,0.01
20,Tipperary,-8.161851400000002,52.47379,0.01,0.01,0.01,0.01,0.01,0.01,0.01,0.01,0.01,0.01,0.01,0.01,0.01,0.01,0.01,0.01,0.01,0.01,0.01,0.01,0.01,0.3180663248145005,0.01,0.01,0.01,0.01
21,Donegal,-8.1096143,54.653830000000006,0.01,0.01,0.01,0.01,0.01,0.01,0.01,0.01,0.01,0.01,0.01,0.01,0.01,0.01,0.01,0.01,0.01,0.01,0.01,0.01,0.205795740026373,0.31421380594891063,0.01,0.01,0.01,0.01
22,Leitrim,-8.0020132,54.12469,0.01,0.01,0.01,0.01,0.01,0.01,0.01,0.01,0.01,0.01,0.01,0.01,0.01,0.01,0.01,0.01,0.01,0.01,0.01,0.01,0.01,0.221678899520738,0.01,0.01,0.01,0.01
23,Athlone,-7.9406898,53.423930000000006,0.01,0.01,0.01,0.01,0.01,0.01,0.01,0.01,0.01,0.01,0.01,0.01,0.01,0.01,0.01,0.01,0.01,0.01,0.01,0.01,0.01,0.23076044001698903,0.01,0.01,0.01,0.01
24,Longford,-7.7932573000000005,53.727630000000005,0.01,0.01,0.01,0.01,0.01,0.01,0.01,0.01,0.01,0.01,0.01,0.01,0.01,0.01,0.01,0.01,0.01,0.01,0.01,0.01,0.01,0.24649239124296823,0.01,0.01,0.01,0.01
25,Offaly,-7.7122229,53.235690000000005,0.01,0.01,0.01,0.01,0.01,0.01,0.01,0.01,0.01,0.01,0.01,0.01,0.01,0.01,0.01,0.01,0.01,0.01,0.01,0.01,0.01,0.3081134572656904,0.01,0.01,0.01,0.01
26,Fermanagh,-7.6318728,54.343830000000004,0.01,0.01,0.01,0.01,0.01,0.01,0.01,0.01,0.01,0.01,0.01,0.01,0.01,0.01,0.01,0.01,0.01,0.01,0.01,0.01,0.01,0.18100354012906514,0.01,0.01,0.01,0.01
27,Enniskillen,-7.631533599999999,54.343819999999994,0.01,0.01,0.01,0.01,0.01,0.01,0.01,0.01,0.01,0.01,0.01,0.01,0.01,0.01,0.01,0.01,0.01,0.01,0.01,0.01,0.01,0.2323620701130227,0.01,0.01,0.01,0.01
28,Doon,-7.60964,54.185930000000006,0.01,0.01,0.01,0.01,0.01,0.01,0.01,0.01,0.01,0.01,0.01,0.01,0.01,0.01,0.01,0.01,0.01,0.01,0.01,0.01,0.01,0.1349982850357203,0.01,0.01,0.01,0.01
29,Westmeath,-7.4653217000000005,53.534530000000004,0.01,0.01,0.01,0.01,0.01,0.01,0.01,0.01,0.01,0.01,0.01,0.01,0.01,0.01,0.01,0.01,0.01,0.01,0.01,0.01,0.01,0.23334471981458463,0.01,0.01,0.01,0.01
30,Strabane,-7.4633103,54.82739,0.01,0.01,0.01,0.01,0.01,0.01,0.01,0.01,0.01,0.01,0.01,0.01,0.01,0.01,0.01,0.01,0.01,0.01,0.01,0.01,0.148670025664813,0.21402873387917468,0.01,0.01,0.01,0.01
31,Cavan,-7.3633319,53.98972,0.01,0.01,0.01,0.01,0.01,0.01,0.01,0.01,0.01,0.01,0.01,0.01,0.01,0.01,0.01,0.01,0.01,0.01,0.01,0.01,0.01,0.2736309945897539,0.01,0.01,0.01,0.01
32,Mullingar,-7.340186800000001,53.525819999999996,0.01,0.01,0.01,0.01,0.01,0.01,0.01,0.01,0.01,0.01,0.01,0.01,0.01,0.01,0.01,0.01,0.01,0.01,0.01,0.01,0.01,0.22807613186197306,0.01,0.01,0.01,0.01
33,Laois,-7.332300699999999,52.99429,0.01,0.01,0.01,0.01,0.01,0.01,0.01,0.01,0.01,0.01,0.01,0.01,0.01,0.01,0.01,0.01,0.01,0.01,0.01,0.01,0.01,0.2987735625796539,0.01,0.01,0.01,0.01
34,Omagh,-7.309959700000001,54.59771,0.01,0.01,0.01,0.01,0.01,0.01,0.01,0.01,0.01,0.01,0.01,0.01,0.01,0.01,0.01,0.01,0.01,0.01,0.01,0.01,0.01,0.25860640606031676,0.01,0.01,0.01,0.01
35,Derry,-7.308574799999999,54.99661,0.01,0.01,0.01,0.01,0.01,0.01,0.01,0.01,0.01,0.01,0.01,0.01,0.01,0.01,0.01,0.01,0.01,0.01,0.01,0.01,0.9076411019618656,0.21859464555882632,0.01,0.01,0.01,0.01
36,Derry,-7.308574799999999,54.99661,0.01,0.01,0.01,0.01,0.01,0.01,0.01,0.01,0.01,0.01,0.01,0.01,0.01,0.01,0.01,0.01,0.01,0.01,0.01,0.01,0.9076411019618656,0.21859464555882632,0.01,0.01,0.01,0.01
37,Kilkenny,-7.2447879,52.65415,0.01,0.01,0.01,0.01,0.01,0.01,0.01,0.01,0.01,0.01,0.01,0.01,0.01,0.01,0.01,0.01,0.01,0.01,0.01,0.01,0.01,0.3432818109146166,0.01,0.01,0.01,0.01
38,Tyrone,-7.131232000000001,54.491209999999995,0.01,0.01,0.01,0.01,0.01,0.01,0.01,0.01,0.01,0.01,0.01,0.01,0.01,0.01,0.01,0.01,0.01,0.01,0.01,0.01,0.01,0.18813311850368789,0.01,0.01,0.01,0.01
39,Waterford,-7.110070200000001,52.25932,0.01,0.01,0.01,0.01,0.01,0.01,0.01,0.01,0.01,0.01,0.01,0.01,0.01,0.01,0.01,0.01,0.01,0.01,0.01,0.01,0.01,0.3835279255615345,0.01,0.01,0.01,0.01
40,Monaghan,-6.9683132,54.2492,0.01,0.01,0.01,0.01,0.01,0.01,0.01,0.01,0.01,0.01,0.01,0.01,0.01,0.01,0.01,0.01,0.01,0.01,0.01,0.01,0.01,0.2635548976829293,0.01,0.01,0.01,0.01
41,Carlow,-6.934135899999999,52.83651,0.01,0.01,0.01,0.01,0.01,0.01,0.01,0.01,0.01,0.01,0.01,0.01,0.01,0.01,0.01,0.01,0.01,0.01,0.01,0.01,0.01,0.31283323083778125,0.01,0.01,0.01,0.01
42,Kildare,-6.8194707999999995,53.21204,0.01,0.01,0.01,0.01,0.01,0.01,0.01,0.01,0.01,0.01,0.01,0.01,0.01,0.01,0.01,0.01,0.01,0.01,0.01,0.01,0.01,0.3900206878551324,0.01,0.01,0.01,0.01
43,Dungannon,-6.7669352,54.508269999999996,0.01,0.01,0.01,0.01,0.01,0.01,0.01,0.01,0.01,0.01,0.01,0.01,0.01,0.01,0.01,0.01,0.01,0.01,0.01,0.01,0.12359314587748353,0.17004978259855388,0.01,0.01,0.01,0.01
44,Cookstown,-6.7443895000000005,54.641819999999996,0.01,0.01,0.01,0.01,0.01,0.01,0.01,0.01,0.01,0.01,0.01,0.01,0.01,0.01,0.01,0.01,0.01,0.01,0.01,0.01,0.2943053338525538,0.18269306779118433,0.01,0.01,0.01,0.01
45,Coleraine,-6.6646103000000005,55.132580000000004,0.01,0.01,0.01,0.01,0.01,0.01,0.01,0.01,0.01,0.01,0.01,0.01,0.01,0.01,0.01,0.01,0.01,0.01,0.01,0.01,1.0,0.14815922829001218,0.01,0.01,0.01,0.01
46,Meath,-6.656416900000001,53.60555,0.01,0.01,0.01,0.01,0.01,0.01,0.01,0.01,0.01,0.01,0.01,0.01,0.01,0.01,0.01,0.01,0.01,0.01,0.01,0.01,0.01,0.34286577012395625,0.01,0.01,0.01,0.01
47,Armagh,-6.652792,54.350280000000005,0.01,0.01,0.01,0.01,0.01,0.01,0.01,0.01,0.01,0.01,0.01,0.15554498269238046,0.01,0.01,0.01,0.01,0.01,0.01,0.01,0.01,0.01,0.23099665955221677,0.01,0.01,0.01,0.01
48,Armagh,-6.652792,54.350280000000005,0.01,0.01,0.01,0.01,0.01,0.01,0.01,0.01,0.01,0.01,0.01,0.15554498269238046,0.01,0.01,0.01,0.01,0.01,0.01,0.01,0.01,0.01,0.23099665955221677,0.01,0.01,0.01,0.01
49,Magherafelt,-6.607980499999999,54.75536999999999,0.01,0.01,0.01,0.01,0.01,0.01,0.01,0.01,0.01,0.01,0.01,0.01,0.01,0.01,0.01,0.01,0.01,0.01,0.01,0.01,0.468324452000908,0.16623412447064803,0.01,0.01,0.01,0.01
50,Louth,-6.4889423,53.925230000000006,0.01,0.01,0.01,0.01,0.01,0.01,0.01,0.01,0.01,0.01,0.01,0.01,0.01,0.01,0.01,0.01,0.01,0.01,0.01,0.01,0.01,0.345589577659279,0.01,0.01,0.01,0.01
51,Wexford,-6.4633381,52.33692,0.01,0.01,0.01,0.01,0.01,0.01,0.01,0.01,0.01,0.01,0.01,0.01,0.01,0.01,0.01,0.01,0.01,0.01,0.01,0.01,0.01,0.3629410033629669,0.01,0.01,0.01,0.01
52,Craigavon,-6.4175653,54.442930000000004,0.01,0.01,0.01,0.01,0.01,0.01,0.01,0.01,0.01,0.01,0.01,0.524243782475775,0.01,0.01,0.01,0.01,0.01,0.01,0.01,0.01,0.01,0.19595062486412002,0.01,0.01,0.01,0.01
53,Drogheda,-6.3560985,53.717859999999995,0.01,0.01,0.01,0.01,0.01,0.01,0.01,0.01,0.01,0.01,0.01,0.01,0.01,0.01,0.01,0.01,0.01,0.01,0.01,0.01,0.01,0.25915701368398814,0.01,0.01,0.01,0.01
54,Rosslare,-6.3414908,52.25131,0.01,0.01,0.01,0.01,0.01,0.01,0.01,0.01,0.01,0.01,0.01,0.01,0.01,0.01,0.01,0.01,0.01,0.01,0.01,0.01,0.01,0.04358996433260108,0.01,0.01,0.01,0.01
55,Newry,-6.34023,54.1751,0.01,0.01,0.01,0.01,0.01,0.01,0.01,0.01,0.01,0.01,0.01,0.5237399432144594,0.01,0.01,0.01,0.01,0.01,0.01,0.01,0.01,0.01,0.19571741524333383,0.01,0.01,0.01,0.01
56,Ballymena,-6.2802213,54.86529,0.01,0.01,0.01,0.01,0.01,0.34437918232651155,0.01,0.416690909643234,0.01,0.01,0.01,0.08477204481825362,0.01,0.01,0.01,0.01,0.01,0.01,0.01,0.01,0.5177888794340346,0.13827571328115554,0.01,0.01,0.01,0.01
57,Banbridge,-6.2704803,54.34873,0.01,0.01,0.01,0.01,0.01,0.01,0.01,0.01,0.01,0.01,0.01,0.44607580335109304,0.01,0.01,0.01,0.01,0.01,0.01,0.01,0.01,0.01,0.15976939372764287,0.01,0.01,0.01,0.01
58,Dublin,-6.2603097000000005,53.34981,0.01,0.01,0.01,0.01,0.01,0.01,0.01,0.01,0.01,0.01,0.01,0.01,0.01,0.01,0.01,0.01,0.01,0.01,0.01,0.01,0.01,0.7589715048110564,0.01,0.01,0.01,0.01
59,Antrim,-6.2072498,54.719530000000006,0.01,0.01,0.01,0.01,0.01,0.01,0.01,0.01,0.01,0.01,0.01,0.36597100535296484,0.01,0.01,0.01,0.01,0.01,0.01,0.01,0.01,0.18627968411572335,0.20738928357427486,0.01,0.01,0.01,0.01
60,Antrim,-6.2072498,54.719530000000006,0.01,0.01,0.01,0.01,0.01,0.01,0.01,0.01,0.01,0.01,0.01,0.36597100535296484,0.01,0.01,0.01,0.01,0.01,0.01,0.01,0.01,0.18627968411572335,0.20738928357427486,0.01,0.01,0.01,0.01
61,Wicklow,-6.044589,52.980819999999994,0.01,0.01,0.01,0.01,0.01,0.01,0.01,0.01,0.01,0.01,0.01,0.01,0.01,0.01,0.01,0.01,0.01,0.01,0.01,0.01,0.01,0.34338554423106166,0.01,0.01,0.01,0.01
62,Kilkeel,-6.007004,54.06312,0.01,0.01,0.01,0.01,0.01,0.01,0.01,0.01,0.01,0.01,0.01,0.3255354007387218,0.01,0.01,0.01,0.01,0.01,0.01,0.01,0.01,0.01,0.1039754456553034,0.01,0.01,0.01,0.01
63,Belfast,-5.93012,54.597280000000005,0.01,0.01,0.01,0.01,0.01,0.01,0.01,0.01,0.01,0.01,0.01,1.0,0.01,0.01,0.01,0.01,0.01,0.01,0.01,0.01,0.01,0.4161615841803865,0.01,0.01,0.01,0.01
64,Down,-5.7156921999999994,54.32875,0.01,0.01,0.01,0.01,0.01,0.01,0.01,0.01,0.01,0.01,0.01,0.5551916044008993,0.01,0.01,0.01,0.01,0.01,0.01,0.01,0.01,0.01,0.21027529221233734,0.01,0.01,0.01,0.01
65,Balivanich,-7.3743509000000005,57.472269999999995,0.01,0.01,0.01,0.01,0.01,0.11596939994410296,0.01,0.014770558211203485,0.01,0.01,0.046038979813823065,0.02253703790102674,0.044180175452980266,0.010365205909806921,0.01,0.04484060373635465,0.08687448496440675,0.12085232244002353,0.01,0.01,0.04588551867115684,0.010223245251554028,0.01,0.01,0.01,0.01
66,Western Isles,-7.0194034,57.759890000000006,0.01,0.01,0.01,0.01,0.01,0.20107132187328397,0.10357420538644008,0.03041145881030781,0.01,0.01,0.08294192177187792,0.058775931860901985,0.09096362959399679,0.02134117262727124,0.01,0.06154893302808686,0.17886797393735712,0.24882576362124878,0.01,0.01,0.08502732138742014,0.07295899392826483,0.01,0.01,0.01,0.01
67,Dunvegan,-6.581398200000001,57.4366,0.01,0.01,0.01,0.01,0.01,0.0850166110631294,0.043793057376232604,0.012858517770961388,0.01,0.01,0.03506935269740804,0.024851532741404003,0.03846107662711357,0.01,0.01,0.026024008057683727,0.07562863182182497,0.10520805737580732,0.01,0.01,0.03595109757466847,0.01,0.01,0.01,0.01,0.01
68,Stornoway,-6.384869200000001,58.209430000000005,0.01,0.01,0.1613702604911109,0.01,0.01,0.1991206731599519,0.1367592013808603,0.0401552375343555,0.01,0.01,0.21381767305793312,0.08577686455793751,0.12010821894857664,0.02817884736983746,0.01,0.08126910455513105,0.03373956361992256,0.01825272677007419,0.01,0.01,0.21206541883803431,0.1096781335884578,0.01,0.01,0.01,0.01
69,Scilly Isles,-6.327496599999999,49.92773,0.39915515849591027,0.01,0.01,0.3991551584959102,0.01,0.01,0.01,0.01,0.01,0.01,0.01,0.09961049956622932,0.01,0.01,0.01,0.01,0.10665912508386635,0.12364584693297569,0.01,0.01,0.01,0.11942525266559527,0.01,0.01,0.37299787391379735,0.01
70,Portree,-6.1960231,57.41246999999999,0.01,0.01,0.01,0.01,0.01,0.2600942480345942,0.13397760961030464,0.03933850654190687,0.01,0.01,0.10728887925348173,0.07602915053956803,0.11766529715589194,0.02760570823801847,0.01,0.07961614468004787,0.2313732796168068,0.21457775600866533,0.01,0.01,0.10998643174283129,0.11761046170376521,0.01,0.01,0.01,0.01
71,Islay,-6.177067,55.73625,0.01,0.01,0.01,0.01,0.01,0.279756266885029,0.01,0.09231781962696715,0.01,0.01,0.23179805007470172,0.05008329468869937,0.09204386253792819,0.021594604707076977,0.01,0.09341976801836886,0.15513606923374906,0.279756266885029,0.01,0.01,0.0955967163409366,0.05202614544900903,0.01,0.01,0.01,0.01
72,Mull,-6.0008870000000005,56.4392,0.01,0.01,0.01,0.01,0.01,0.2821224074544794,0.01,0.12413150457842058,0.01,0.01,0.2660011271528734,0.05682025452238543,0.09282235704582573,0.021777248945390536,0.01,0.09420989974824269,0.18252288959548857,0.2539101669629417,0.01,0.01,0.05784315647408547,0.05411356157287521,0.01,0.01,0.01,0.01
73,Broadford,-5.9096592,57.24139,0.01,0.01,0.01,0.01,0.01,0.10095722644645236,0.043793057376232604,0.012858517770961388,0.01,0.01,0.04007925981050257,0.024851532741404003,0.03846107662711357,0.01,0.01,0.03903601284122184,0.07562863182182497,0.07013870457820115,0.01,0.01,0.031956531023026515,0.01,0.01,0.01,0.01,0.01
74,Kyle of Lochalsh,-5.7143293,57.28261,0.01,0.01,0.01,0.01,0.01,0.10095722644645236,0.043793057376232604,0.012858517770961388,0.01,0.01,0.04007925981050257,0.024851532741404003,0.03846107662711357,0.01,0.01,0.03903601284122184,0.07562863182182497,0.07013870457820115,0.01,0.01,0.031956531023026515,0.01,0.01,0.01,0.01,0.01
75,Campbeltown,-5.605373999999999,55.424119999999995,0.01,0.01,0.01,0.01,0.01,0.2982120774929395,0.01,0.09840812178084438,0.01,0.01,0.2470900074599487,0.05338734149947081,0.01,0.01,0.01,0.09958276684867037,0.16537055636111136,0.2982120774929395,0.01,0.01,0.10190333070626033,0.06383468351660497,0.01,0.01,0.01,0.01
76,Penzance,-5.537592,50.1188,0.6528637831085239,0.01,0.01,0.6528637831085239,0.01,0.01,0.01,0.01,0.01,0.01,0.01,0.16292433205471094,0.01,0.01,0.01,0.01,0.17445316294468413,0.2022368837684634,0.01,0.01,0.01,0.2250190445999228,0.01,0.01,0.6100805610841004,0.01
77,Oban,-5.471047,56.41516,0.01,0.01,0.01,0.01,0.01,0.3760237419667797,0.01,0.12408548474309115,0.01,0.01,0.3437931367280386,0.0673175549865671,0.12371725574537902,0.029025566285475268,0.01,0.1255666267464602,0.208520244843221,0.31962017948728794,0.01,0.01,0.07709561371180702,0.09601557553405662,0.01,0.01,0.01,0.01
78,Lochgilphead,-5.4323449,56.03829,0.01,0.01,0.01,0.01,0.01,0.24195006163894772,0.01,0.07984200818027598,0.01,0.01,0.20047290853509472,0.04331504838814699,0.07960507359676354,0.018676314200651023,0.01,0.08079503948924807,0.13417101225816477,0.24195006163894772,0.01,0.01,0.04960667747227557,0.045128159272422155,0.01,0.01,0.01,0.01
79,Helston,-5.274996,50.10159,0.49327735424258673,0.01,0.01,0.4932773542425867,0.01,0.01,0.01,0.01,0.01,0.01,0.01,0.12309900707775864,0.01,0.01,0.01,0.01,0.13180972338038263,0.15280197421977457,0.01,0.01,0.01,0.15859900787100847,0.01,0.01,0.4609520895974919,0.01
80,Redruth,-5.226666000000001,50.23302,0.5512435693190322,0.01,0.01,0.5512435693190322,0.01,0.01,0.01,0.01,0.01,0.01,0.01,0.13756466916136012,0.01,0.01,0.01,0.01,0.14729900280689479,0.17075810382018802,0.01,0.01,0.01,0.18272460653108002,0.01,0.01,0.5151196846345121,0.01
81,Ullapool,-5.161313,57.895419999999994,0.01,0.01,0.12254185855972424,0.01,0.01,0.0756044409447121,0.10385263468839344,0.030493211223626786,0.01,0.01,0.18613093625597177,0.0837482222815064,0.09120815900937104,0.02139854219892576,0.01,0.06171438953721522,0.02562125648428954,0.013860813357929318,0.01,0.01,0.12314740101197293,0.07574189679990373,0.01,0.01,0.01,0.01
82,Ballachulish,-5.133719999999999,56.673930000000006,0.01,0.01,0.01,0.01,0.01,0.10095722644645236,0.043793057376232604,0.012858517770961388,0.01,0.01,0.08516842731524893,0.028775459131427164,0.03846107662711357,0.01,0.01,0.03903601284122184,0.010804089454584265,0.10520805737580732,0.01,0.01,0.019972831831470358,0.01,0.01,0.01,0.01,0.01
83,Fort William,-5.1052179,56.81981999999999,0.01,0.01,0.01,0.01,0.01,0.32467518704140397,0.14083706134978605,0.04135257880302841,0.01,0.01,0.2738989178081997,0.04206406747183281,0.12368958307650374,0.029019078904532643,0.01,0.12553855941453224,0.03474560353873976,0.33834572233291904,0.01,0.01,0.06423198357245498,0.11350665381518193,0.01,0.01,0.01,0.01
84,Achnasheen,-5.078765799999999,57.578590000000005,0.01,0.01,0.051674015387266264,0.01,0.01,0.03188122891753461,0.043793057376232604,0.012858517770961388,0.01,0.01,0.07848855058330695,0.035315336144682144,0.03846107662711357,0.01,0.01,0.026024008057683727,0.010804089454584265,0.04091424442203494,0.01,0.01,0.03595109757466847,0.01,0.01,0.01,0.01,0.01
85,Newquay,-5.0737190000000005,50.4155,0.635275206676741,0.01,0.01,0.635275206676741,0.01,0.01,0.01,0.01,0.01,0.01,0.01,0.15853504421077927,0.01,0.01,0.01,0.01,0.16975328087187383,0.19678849012262392,0.01,0.01,0.01,0.2176986608999421,0.01,0.01,0.5936445925776516,0.01
86,Falmouth,-5.066269999999999,50.152570000000004,0.6848687906059883,0.01,0.01,0.6848687906059883,0.01,0.01,0.01,0.01,0.01,0.01,0.01,0.20256152750546083,0.01,0.01,0.01,0.01,0.1830052911718259,0.21215103913860067,0.01,0.01,0.01,0.2320610671830334,0.01,0.01,0.6399882285589068,0.01
87,Rothesay,-5.055793,55.83596,0.01,0.01,0.01,0.01,0.01,0.35499931874121343,0.01,0.11714755647892647,0.01,0.01,0.2941422931407596,0.08738628727635174,0.01,0.01,0.01,0.11854588414676152,0.19686135900864013,0.3549993187412135,0.01,0.01,0.07278500608093302,0.08961170598710128,0.01,0.01,0.01,0.01
88,Truro,-5.051041000000001,50.2632,0.946928841247957,0.01,0.01,0.9469288412479568,0.01,0.01,0.01,0.01,0.01,0.01,0.01,0.2363092469750609,0.01,0.01,0.01,0.01,0.2530309318931708,0.2933290878728918,0.01,0.01,0.01,0.3474092259023658,0.01,0.01,0.8848750592728781,0.01
89,Milford Haven,-5.0426971,51.71431,0.4688227535642854,0.01,0.01,0.055155620499722585,0.01,0.01,0.12090178710411376,0.07099837309439451,0.01,0.01,0.01,0.15310624326404468,0.01,0.01,0.01,0.01,0.2744122496121124,0.1452266999237585,0.01,0.01,0.01,0.14555571623525082,0.01,0.01,0.01,0.01
90,Stranraer,-5.024055000000001,54.903369999999995,0.01,0.01,0.01,0.01,0.01,0.2880472681679868,0.01,0.11006229202675404,0.01,0.01,0.3097049571070526,0.07463730089142623,0.01,0.01,0.01,0.01,0.18495488113651154,0.23346989053442574,0.01,0.01,0.1177704756726796,0.08580889012777368,0.01,0.01,0.01,0.01
91,Fishguard,-4.975989,51.99393,0.01,0.01,0.01,0.01,0.01,0.01,0.09695051270599536,0.056933225204235924,0.01,0.01,0.01,0.15057323288066524,0.01,0.01,0.01,0.01,0.1913476091104913,0.11645653346780885,0.01,0.01,0.01,0.10608956448042275,0.01,0.01,0.01,0.01
92,Inchnadamph,-4.974295,58.15221,0.01,0.01,0.051674015387266264,0.01,0.01,0.03188122891753461,0.043793057376232604,0.012858517770961388,0.01,0.01,0.07848855058330695,0.035315336144682144,0.03846107662711357,0.01,0.01,0.026024008057683727,0.010804089454584265,0.01,0.01,0.01,0.06790762859769499,0.01,0.01,0.01,0.01,0.01
93,Haverfordwest,-4.971319,51.80048,0.01,0.01,0.01,0.01,0.01,0.01,0.13281793292777577,0.07799601132042848,0.01,0.01,0.01,0.20627869814478914,0.01,0.01,0.01,0.01,0.262137797969127,0.15954032237079865,0.01,0.01,0.01,0.16261628339929599,0.01,0.01,0.01,0.01
94,Dunoon,-4.926214,55.95097,0.01,0.01,0.01,0.01,0.01,0.32506969184635803,0.01,0.10727096666041416,0.01,0.01,0.32506969184635803,0.08001883940861525,0.01,0.01,0.01,0.10855140276292606,0.01,0.325069691846358,0.01,0.01,0.06664857719068455,0.07811910825580687,0.01,0.01,0.01,0.01
95,Pembroke,-4.908637000000001,51.674040000000005,0.652994959286104,0.01,0.01,0.07682293977584763,0.01,0.01,0.16839681296919504,0.09888935508288343,0.01,0.01,0.01,0.2132524591150079,0.01,0.01,0.01,0.01,0.3822122847083592,0.20227751806625238,0.01,0.01,0.01,0.22108279013448695,0.01,0.01,0.01,0.01
96,Girvan,-4.8542179,55.240159999999996,0.01,0.01,0.01,0.01,0.01,0.31562617962687245,0.01,0.10415466664886941,0.01,0.01,0.33366196280392385,0.09182045779760431,0.01,0.01,0.01,0.03513263364350317,0.17502737436334634,0.2209383265910014,0.01,0.01,0.12223450875765583,0.061882884403931235,0.01,0.01,0.01,0.01
97,Wadebridge,-4.836456,50.51665,0.5318529890432309,0.01,0.01,0.5318529890432309,0.01,0.01,0.01,0.01,0.01,0.01,0.01,0.13272568525487646,0.01,0.01,0.01,0.01,0.1421176033358752,0.16475150545939574,0.01,0.01,0.01,0.17465422696769234,0.01,0.01,0.496999800517061,0.01
98,Invergarry,-4.800261,57.07095,0.01,0.01,0.01,0.01,0.01,0.07970307321839218,0.043793057376232604,0.012858517770961388,0.01,0.01,0.05343901327438652,0.04316318846955303,0.03846107662711357,0.01,0.01,0.03903601284122184,0.010804089454584265,0.04091424442203494,0.01,0.01,0.031956531023026515,0.01,0.01,0.01,0.01,0.01
99,St Austell,-4.7834252,50.340379999999996,0.5749367691880797,0.01,0.01,0.5749367691880796,0.01,0.01,0.01,0.01,0.01,0.01,0.01,0.17004727297143346,0.01,0.01,0.01,0.01,0.15363011469329088,0.17809751983926134,0.01,0.01,0.01,0.18731504156893394,0.01,0.01,0.5372602307085519,0.01
100,Greenock,-4.7719830000000005,55.956480000000006,0.01,0.01,0.01,0.01,0.01,0.49940714142658926,0.01,0.16480123543250774,0.01,0.01,0.49940714142658926,0.1229335765581542,0.01,0.01,0.01,0.16676837955505827,0.01,0.4994071414265892,0.01,0.01,0.10239273684942911,0.14506248127425936,0.01,0.01,0.01,0.01
101,Helensburgh,-4.734014,56.00232,0.01,0.01,0.01,0.01,0.01,0.3433548506487217,0.01,0.11330495478501547,0.01,0.01,0.3433548506487217,0.061469015008344535,0.01,0.01,0.01,0.1656162661410679,0.01,0.34335485064872173,0.01,0.01,0.08604145879965955,0.08361615853257516,0.01,0.01,0.01,0.01
102,Bodmin,-4.7188629,50.4715,0.49527449389108674,0.01,0.01,0.49527449389108674,0.01,0.01,0.01,0.01,0.01,0.01,0.01,0.12359739993040332,0.01,0.01,0.01,0.01,0.13234338344475954,0.15342062593459324,0.01,0.01,0.01,0.15943021945803873,0.01,0.01,0.4628183534473855,0.01
103,Tenby,-4.703579,51.672740000000005,0.01,0.01,0.01,0.01,0.01,0.01,0.13281793292777577,0.07799601132042848,0.01,0.01,0.01,0.15867592197939545,0.01,0.01,0.01,0.01,0.262137797969127,0.15954032237079865,0.01,0.01,0.01,0.17205927323456072,0.01,0.01,0.01,0.01
104,Camelford,-4.682364,50.62206,0.3794606516784,0.01,0.01,0.3794606516784,0.01,0.01,0.01,0.01,0.01,0.01,0.01,0.09469566977874755,0.01,0.01,0.01,0.01,0.10139651273525153,0.11754510158734521,0.01,0.01,0.01,0.11122837856124534,0.01,0.01,0.35459398005359216,0.01
105,Irvine,-4.6696364,55.61156999999999,0.01,0.01,0.01,0.01,0.01,0.5349652895761875,0.01,0.17653520208746265,0.01,0.01,0.443256954927734,0.13168653574758019,0.01,0.01,0.01,0.1389440921594821,0.01,0.5349652895761876,0.01,0.01,0.20717932666753655,0.15634154461830607,0.01,0.01,0.01,0.01
106,Cardigan,-4.660864,52.0837,0.01,0.01,0.01,0.01,0.01,0.01,0.11390055040868775,0.06688696641521974,0.01,0.01,0.01,0.17689823006849067,0.01,0.01,0.01,0.01,0.22480126601459047,0.136816844908247,0.01,0.01,0.01,0.13280266542160993,0.01,0.01,0.01,0.01
107,Holyhead,-4.633038,53.30944,0.01,0.01,0.01,0.29021935186231257,0.01,0.01,0.01,0.01,0.01,0.01,0.01,0.20520474986032194,0.01,0.01,0.01,0.01,0.09416803765519124,0.01,0.01,0.01,0.01,0.16135252548396536,0.01,0.01,0.01,0.01
108,Ayr,-4.629179,55.45856,0.01,0.01,0.01,0.01,0.01,0.5749890553992805,0.01,0.18974279466506433,0.01,0.01,0.47641950380551185,0.1415387470433654,0.01,0.01,0.01,0.1493392821193746,0.01,0.5749890553992805,0.01,0.01,0.2226795787689332,0.17153249057293216,0.01,0.01,0.01,0.01
109,Dumbarton,-4.564554,55.94529,0.01,0.01,0.01,0.01,0.01,0.4727081175692627,0.01,0.15599072442547562,0.01,0.01,0.4727081175692626,0.11636137079430228,0.01,0.01,0.01,0.1227743211229877,0.01,0.4727081175692627,0.01,0.01,0.11845615678722832,0.13271195065592636,0.01,0.01,0.01,0.01
110,Bude,-4.543678,50.826640000000005,0.5170473301042949,0.01,0.01,0.5170473301042948,0.01,0.01,0.01,0.01,0.01,0.01,0.01,0.1290308837424222,0.01,0.01,0.01,0.01,0.1381613507481156,0.1601651730522091,0.01,0.01,0.01,0.16849209640616433,0.01,0.01,0.4831643804089366,0.01
111,Isle of Man,-4.5126330999999995,54.27697,0.01,0.01,0.01,0.23263413496265228,0.01,0.01,0.15298105108913965,0.01,0.01,0.01,0.24112446580795016,0.20713315855881598,0.01,0.01,0.01,0.36363575593411807,0.0754832479686995,0.01,0.01,0.01,0.22946753330565436,0.2288355453204661,0.01,0.01,0.01,0.01
112,Kilmarnock,-4.498792,55.61472,0.01,0.01,0.01,0.01,0.01,0.5086553628497543,0.01,0.16785309070181217,0.01,0.01,0.42145730131961007,0.12521010975530422,0.01,0.01,0.01,0.1321107350146049,0.01,0.5086553628497543,0.01,0.01,0.1969901181150098,0.14635566081271933,0.01,0.01,0.01,0.01
113,Newton Stewart,-4.483164,54.9603,0.01,0.01,0.01,0.01,0.01,0.16312020395778382,0.01,0.09109463489239614,0.01,0.01,0.232670357836502,0.06177463279072604,0.01,0.01,0.01,0.01,0.01,0.19323470413855637,0.01,0.01,0.11634044154966759,0.07400112728183719,0.01,0.01,0.01,0.01
114,Liskeard,-4.4647190000000005,50.45552,0.5297507374978887,0.01,0.01,0.5297507374978887,0.01,0.01,0.01,0.01,0.01,0.01,0.01,0.15668273990083392,0.01,0.01,0.01,0.01,0.14155585609107615,0.16410029334987553,0.01,0.01,0.01,0.1689228087569626,0.01,0.01,0.49503531292331576,0.01
115,Altnaharra,-4.442655,58.28023,0.01,0.01,0.051674015387266264,0.01,0.01,0.03188122891753461,0.043793057376232604,0.012858517770961388,0.01,0.01,0.07848855058330695,0.035315336144682144,0.03846107662711357,0.01,0.01,0.01,0.010804089454584265,0.01,0.01,0.01,0.06790762859769499,0.01,0.01,0.01,0.01,0.01
116,Pwllheli,-4.417633900000001,52.888819999999996,0.01,0.01,0.01,0.26876710991615965,0.01,0.01,0.058914073909267936,0.01,0.01,0.01,0.01,0.17595977855953837,0.01,0.01,0.033347813594129395,0.01,0.11627651934590541,0.015726072932203076,0.01,0.01,0.01,0.1431811659280693,0.01,0.01,0.01,0.01
117,Lairg,-4.402414,58.022059999999996,0.01,0.01,0.051674015387266264,0.01,0.01,0.03188122891753461,0.043793057376232604,0.012858517770961388,0.01,0.01,0.07848855058330695,0.035315336144682144,0.03846107662711357,0.01,0.01,0.01,0.010804089454584265,0.01,0.01,0.01,0.06790762859769499,0.01,0.01,0.01,0.01,0.01
118,Launceston,-4.360451599999999,50.636829999999996,0.49124733738201276,0.01,0.01,0.49124733738201276,0.01,0.01,0.01,0.01,0.01,0.01,0.01,0.14529470813678644,0.01,0.01,0.01,0.01,0.1312672781240813,0.1521731381677498,0.01,0.01,0.01,0.15325063148237789,0.01,0.01,0.4590551030325268,0.01
119,Carmarthen,-4.312131,51.857620000000004,0.01,0.01,0.01,0.01,0.01,0.01,0.16360005803142308,0.09607250841029422,0.01,0.01,0.01,0.1954509415391591,0.01,0.01,0.01,0.01,0.32289132961660544,0.19651567693353422,0.01,0.01,0.01,0.22276013904979142,0.01,0.01,0.01,0.01
120,Llangefni,-4.311401999999999,53.25578,0.01,0.01,0.01,0.3670686202082618,0.01,0.01,0.01,0.01,0.01,0.01,0.01,0.2595423906368091,0.01,0.01,0.01,0.01,0.11910346924835581,0.01,0.01,0.01,0.01,0.21644518584802347,0.01,0.01,0.01,0.01
121,Caernarfon,-4.273911,53.13955,0.01,0.01,0.01,0.34825210051690914,0.01,0.01,0.01,0.01,0.01,0.01,0.01,0.24623783602413907,0.01,0.01,0.01,0.01,0.11299803650079875,0.01,0.01,0.01,0.01,0.20295576492181958,0.01,0.01,0.01,0.01
122,Cumnock,-4.265828900000001,55.45355,0.01,0.01,0.01,0.01,0.01,0.4032913870879286,0.01,0.13308363721336594,0.01,0.01,0.3341557212633303,0.09927381588536181,0.01,0.01,0.01,0.10474503065247988,0.01,0.40329138708792867,0.01,0.01,0.15618515753402828,0.10636495957693197,0.01,0.01,0.01,0.01
123,Aberaeron,-4.2581619,52.24279,0.01,0.01,0.01,0.01,0.01,0.01,0.10654823869774942,0.06256939442176386,0.01,0.01,0.01,0.1654794008889117,0.01,0.01,0.01,0.01,0.21029028275048528,0.12798528011366797,0.01,0.01,0.01,0.12121549090729182,0.01,0.01,0.01,0.01
124,Alness,-4.256825,57.69595,0.01,0.01,0.15970629396578515,0.01,0.01,0.09853371911076558,0.1353490113468635,0.039741177528067335,0.01,0.01,0.24258063629200713,0.10914734249997879,0.11886972521907105,0.02788828169433459,0.01,0.01,0.03339165871928108,0.01806451410778507,0.01,0.01,0.16049548503913955,0.11768857033674515,0.01,0.01,0.01,0.01
125,Glasgow,-4.251806,55.86424,0.01,0.01,0.01,0.01,0.01,1.0,0.01,0.32999375011286824,0.01,0.01,1.0,0.24615902809676765,0.01,0.01,0.01,0.2597254342792165,0.01,1.0,0.01,0.01,0.25059048572372306,0.33284460493246953,0.01,0.01,0.01,0.01
126,Dalwhinnie,-4.242783,56.9366,0.01,0.01,0.01,0.01,0.01,0.03188122891753461,0.043793057376232604,0.02571703777930504,0.01,0.01,0.051769044236688336,0.06932269697774837,0.03846107662711357,0.01,0.01,0.026024008057683727,0.010804089454584265,0.046759136046463694,0.01,0.01,0.03861414163351663,0.01,0.01,0.01,0.01,0.01
127,Inverness,-4.224721,57.47776999999999,0.01,0.01,0.2569658994108886,0.01,0.01,0.15853981158076433,0.21777526465282881,0.06394317452094544,0.01,0.01,0.3903099235262177,0.17561703009540788,0.19126025089648446,0.04487197849662829,0.01,0.01,0.05372685949033266,0.02906563041355247,0.01,0.01,0.2582357002993558,0.21780179135595237,0.01,0.01,0.01,0.01
128,Saltash,-4.21643,50.409209999999995,0.49762931243111813,0.01,0.01,0.4976293124311181,0.01,0.01,0.01,0.01,0.01,0.01,0.01,0.14718228519122437,0.01,0.01,0.01,0.01,0.13297261966998447,0.1541500754395246,0.01,0.01,0.01,0.15584830971418462,0.01,0.01,0.4650188569112371,0.01
129,Bideford,-4.206666,51.01668,0.5582905033345444,0.01,0.01,0.22988432026613692,0.01,0.01,0.01,0.01,0.01,0.01,0.01,0.19092446006887814,0.01,0.01,0.01,0.01,0.14918202949619153,0.17294102468713132,0.01,0.01,0.01,0.18565754775586144,0.01,0.01,0.5217048216406366,0.01
130,Invergordon,-4.1728819999999995,57.688109999999995,0.01,0.01,0.16158701111887952,0.01,0.01,0.0996940619569248,0.13694289472474055,0.04020917357509362,0.01,0.01,0.24543728991757222,0.11043267242754165,0.12026954688953705,0.028216696864773017,0.01,0.01,0.03378488220324145,0.01827724361706856,0.01,0.01,0.16238549578456438,0.11962446809368829,0.01,0.01,0.01,0.01
131,Llanelli,-4.160248,51.680890000000005,0.01,0.01,0.01,0.01,0.01,0.01,0.18346933942595423,0.10774054647123396,0.01,0.01,0.01,0.2849450797193946,0.01,0.01,0.01,0.01,0.3621065888604278,0.22038257117802892,0.01,0.01,0.01,0.24244242646350986,0.01,0.01,0.01,0.01
132,Plymouth,-4.1426565,50.37546,1.0,0.01,0.01,1.0,0.01,0.01,0.01,0.01,0.01,0.01,0.01,0.29576691226684393,0.01,0.01,0.01,0.01,0.26721219258640544,0.30976888135154235,0.01,0.01,0.01,0.3603300554675468,0.01,0.01,0.9344683789615088,0.01
133,Tavistock,-4.141654,50.551120000000004,0.5585356902992554,0.01,0.01,0.5585356902992554,0.01,0.01,0.01,0.01,0.01,0.01,0.01,0.16519637651064098,0.01,0.01,0.01,0.01,0.14924754644262556,0.17301697597891186,0.01,0.01,0.01,0.18063925150710722,0.01,0.01,0.5219339411060925,0.01
134,Porthmadog,-4.1333839999999995,52.92784,0.01,0.01,0.01,0.31916932525737685,0.01,0.01,0.01,0.01,0.01,0.01,0.01,0.2005994150154729,0.01,0.01,0.01,0.01,0.10356149183834497,0.01,0.01,0.01,0.01,0.18708068132057043,0.01,0.01,0.01,0.01
135,Bangor,-4.129263,53.22739,0.01,0.01,0.01,0.4543189646622577,0.01,0.01,0.01,0.01,0.01,0.01,0.01,0.3212342971000396,0.01,0.01,0.01,0.01,0.14741375823925074,0.01,0.01,0.01,0.01,0.27899429915919066,0.01,0.01,0.01,0.01
136,Tywyn,-4.087249,52.58701,0.01,0.01,0.01,0.4058782754026104,0.01,0.01,0.04448451039345888,0.01,0.01,0.01,0.01,0.14880623288696782,0.01,0.01,0.02518008112478895,0.01,0.28534158536043985,0.011874355453304161,0.01,0.01,0.01,0.08402260746381476,0.01,0.01,0.01,0.01
137,Aberystwyth,-4.08292,52.4153,0.01,0.01,0.01,0.01,0.01,0.01,0.26496674911918594,0.1037327238789093,0.01,0.01,0.01,0.34820769369502075,0.01,0.01,0.04999406594560609,0.01,0.653693715817016,0.1650324645895555,0.01,0.01,0.01,0.2023823081142663,0.01,0.01,0.01,0.01
138,Lampeter,-4.0785089999999995,52.1129,0.01,0.01,0.01,0.01,0.01,0.01,0.11500966628740811,0.06753828369388407,0.01,0.01,0.01,0.1786207909795881,0.01,0.01,0.01,0.01,0.22699028663651544,0.13814911006956251,0.01,0.01,0.01,0.1345506216765405,0.01,0.01,0.01,0.01
139,Barnstaple,-4.058338,51.07816,0.01,0.01,0.01,0.01,0.01,0.01,0.178289257314678,0.01,0.01,0.01,0.01,0.2555999324854121,0.01,0.01,0.01,0.01,0.08797071352449679,0.07138676113259514,0.01,0.01,0.01,0.2617430824401916,0.01,0.01,0.6460494288160338,0.01
140,Tain,-4.05523,57.8115,0.01,0.01,0.12016389378279263,0.01,0.01,0.07413731208230377,0.10183734040297028,0.029901480503384942,0.01,0.01,0.18251900466364748,0.08212306068320242,0.01,0.01,0.01,0.01,0.02512406763652389,0.013591839748974996,0.01,0.01,0.12075768548603759,0.0818128952885705,0.01,0.01,0.01,0.01
141,Okehampton,-4.004263,50.73831,0.4378493555432152,0.01,0.01,0.4378493555432152,0.01,0.01,0.01,0.01,0.01,0.01,0.01,0.10926676534698497,0.01,0.01,0.01,0.01,0.11699868631724714,0.1356321050671155,0.01,0.01,0.01,0.13552981749194942,0.01,0.01,0.40915637750380957,0.01
142,Llandeilo,-3.9914300000000003,51.88469,0.01,0.01,0.01,0.01,0.01,0.01,0.1426198404041831,0.083752084085899,0.01,0.01,0.01,0.17038613815044087,0.01,0.01,0.01,0.01,0.2814834569861196,0.17131433092644402,0.01,0.01,0.01,0.18820387644247086,0.01,0.01,0.01,0.01
143,Motherwell,-3.9810968,55.78321,0.01,0.01,0.01,0.01,0.01,0.5414954244298447,0.01,0.20690433175707634,0.01,0.01,0.6001234978537979,0.23852608058272542,0.01,0.01,0.01,0.16284647027853574,0.01,0.6269946981914309,0.01,0.01,0.13569360142504833,0.18709615811019037,0.01,0.01,0.01,0.01
144,Golspie,-3.976086,57.97341,0.01,0.01,0.051674015387266264,0.01,0.01,0.03188122891753461,0.043793057376232604,0.012858517770961388,0.01,0.01,0.07848855058330695,0.035315336144682144,0.01,0.01,0.01,0.01,0.010804089454584265,0.01,0.01,0.01,0.06790762859769499,0.01,0.01,0.01,0.01,0.01
145,Airdrie,-3.9625660000000003,55.86626999999999,0.01,0.01,0.01,0.01,0.01,0.47425073785803606,0.15428976187195675,0.01,0.01,0.01,0.4785296888375293,0.22733793248677317,0.01,0.01,0.01,0.1426236588582257,0.01,0.3843927024817796,0.01,0.01,0.25019520449567617,0.15440558239525914,0.01,0.01,0.01,0.01
146,Swansea,-3.9436459999999998,51.62144,0.01,0.01,0.01,0.01,0.01,0.01,0.267663568560713,0.15718277090549254,0.01,0.01,0.01,0.41570660863632375,0.01,0.01,0.01,0.01,0.528277597101426,0.32151631239672873,0.01,0.01,0.01,0.3751317443866787,0.01,0.01,0.01,0.01
147,Stirling,-3.9369029,56.116519999999994,0.01,0.01,0.01,0.01,0.01,0.34760399959091764,0.3856567196969142,0.06470659992136388,0.01,0.01,0.4285842745506189,0.32251748322066853,0.01,0.01,0.01,0.15278424592468207,0.3262098369592328,0.26471381567100344,0.01,0.01,0.281420210444879,0.16089869108300273,0.01,0.01,0.01,0.01
148,Tregaron,-3.934385,52.22,0.01,0.01,0.01,0.01,0.01,0.01,0.1693713799720801,0.06630777125823686,0.01,0.01,0.01,0.18211127557830828,0.01,0.01,0.03195708128574897,0.01,0.33428196735328686,0.15070234016908035,0.01,0.01,0.01,0.12054438406613235,0.01,0.01,0.01,0.01
149,Tregaron,-3.934385,52.22,0.01,0.01,0.01,0.01,0.01,0.01,0.1693713799720801,0.06630777125823686,0.01,0.01,0.01,0.18211127557830828,0.01,0.01,0.03195708128574897,0.01,0.33428196735328686,0.15070234016908035,0.01,0.01,0.01,0.12054438406613235,0.01,0.01,0.01,0.01
150,Castle Douglas,-3.9314139999999997,54.940419999999996,0.01,0.01,0.01,0.01,0.01,0.12455487568643814,0.01,0.1004723633170359,0.01,0.01,0.18703001907305736,0.05450721215481646,0.01,0.01,0.01,0.20334329626201383,0.01,0.18268048510404583,0.01,0.01,0.16993345242556782,0.08507549116379147,0.01,0.01,0.01,0.01
151,Dolgellau,-3.8844,52.74215,0.01,0.01,0.01,0.21642575616845183,0.01,0.01,0.047440794509684615,0.01,0.01,0.01,0.01,0.14169229514076528,0.01,0.01,0.02685346076224214,0.01,0.16385620775044482,0.012663483356624488,0.01,0.01,0.01,0.1062018601838689,0.01,0.01,0.01,0.01
152,Aberfeldy,-3.866969,56.62175,0.01,0.01,0.01,0.01,0.01,0.14277242224294287,0.13074445052199946,0.038389193145783436,0.01,0.01,0.174499626868547,0.21086832419006485,0.01,0.01,0.01,0.16833882841833045,0.01,0.12214973927913188,0.01,0.01,0.13118383948234108,0.10512426099560794,0.01,0.01,0.01,0.01
153,Machynlleth,-3.853485,52.59027,0.01,0.01,0.01,0.5081943921353612,0.01,0.01,0.05569842091599937,0.01,0.01,0.01,0.01,0.1863181594407343,0.01,0.01,0.03152762039601388,0.01,0.19237730150410134,0.014867711081778683,0.01,0.01,0.01,0.12093680262649589,0.01,0.01,0.01,0.01
154,Brora,-3.8525480000000005,58.012159999999994,0.01,0.01,0.10581146084558972,0.01,0.01,0.06528231607385951,0.08967383976542653,0.02633003337282127,0.01,0.01,0.16071884746388845,0.072314243042988,0.01,0.01,0.01,0.01,0.022123236983393073,0.011968423909579924,0.01,0.01,0.13905258437207707,0.060087253815322136,0.01,0.01,0.01,0.01
155,Llandudno,-3.827609,53.324059999999996,0.01,0.01,0.01,0.3946913024214501,0.01,0.01,0.01,0.01,0.01,0.01,0.01,0.2170571652457427,0.01,0.01,0.01,0.01,0.12806625467977995,0.01,0.01,0.01,0.01,0.24854992047435218,0.01,0.01,0.01,0.01
156,Llandudno,-3.827609,53.324059999999996,0.01,0.01,0.01,0.3946913024214501,0.01,0.01,0.01,0.01,0.01,0.01,0.01,0.2170571652457427,0.01,0.01,0.01,0.01,0.12806625467977995,0.01,0.01,0.01,0.01,0.24854992047435218,0.01,0.01,0.01,0.01
157,Aviemore,-3.823812,57.19449,0.01,0.01,0.1463142036145962,0.01,0.01,0.09027122402555159,0.12399938858691381,0.036408701224831995,0.01,0.01,0.2506101177417606,0.18887915577755676,0.01,0.01,0.01,0.01,0.0305916180982115,0.016549723431259742,0.01,0.01,0.07917388653206955,0.1009648666872817,0.01,0.01,0.01,0.01
158,Dalbeattie,-3.8225269999999996,54.934219999999996,0.01,0.01,0.01,0.01,0.01,0.09897957085044147,0.01,0.07984200818027598,0.01,0.01,0.14862646622204254,0.04331504838814699,0.01,0.01,0.01,0.16159007897849614,0.01,0.108877527846404,0.01,0.01,0.135040399675402,0.061238976750135544,0.01,0.01,0.01,0.01
159,Falkirk,-3.7839131,56.00188000000001,0.01,0.01,0.01,0.01,0.01,0.24107545300097358,0.16557439558115028,0.06482128679034206,0.01,0.01,0.39566987201291265,0.2967144960435382,0.01,0.01,0.01,0.15305504282663004,0.49018202855309756,0.265182998084103,0.01,0.01,0.32219314513361325,0.16649859684995824,0.01,0.01,0.01,0.01
160,Kingsbridge,-3.777493,50.28395,0.514690896507513,0.01,0.01,0.514690896507513,0.01,0.01,0.01,0.01,0.01,0.01,0.01,0.15222853723188084,0.01,0.01,0.01,0.01,0.13753168296003523,0.15943522325295476,0.01,0.01,0.01,0.16279294757540663,0.01,0.01,0.48096236772562134,0.01
161,Pitlochry,-3.729711,56.70436,0.01,0.01,0.01,0.01,0.01,0.1126490993787025,0.10315889000930138,0.030289519222577378,0.01,0.01,0.11407956341241066,0.1848639503090885,0.01,0.01,0.01,0.1328212907986904,0.01,0.0963775629936995,0.01,0.01,0.06586718219907019,0.07675753498406722,0.01,0.01,0.01,0.01
162,Colwyn Bay,-3.72764,53.29318000000001,0.01,0.01,0.01,0.36902006960344025,0.01,0.01,0.01,0.01,0.01,0.01,0.01,0.260922197608443,0.01,0.01,0.01,0.01,0.11973665982971492,0.01,0.01,0.01,0.01,0.21784416518849342,0.01,0.01,0.01,0.01
163,Totnes,-3.685797,50.43374,0.5312557354427941,0.01,0.01,0.5312557354427941,0.01,0.19947453741658863,0.01,0.01,0.01,0.01,0.01,0.13257663862916977,0.01,0.01,0.01,0.01,0.14195800989177237,0.1645664948797053,0.01,0.01,0.01,0.164665137552972,0.01,0.01,0.49644168591323207,0.01
164,Grantown-on-Spey,-3.609628,57.33041,0.01,0.01,0.11299681726559659,0.01,0.01,0.06971545313827208,0.09576333607438929,0.028118031315789674,0.01,0.01,0.17163280889313273,0.14586925208502174,0.01,0.01,0.01,0.01,0.0236255633062659,0.012781165656918236,0.01,0.01,0.09608516247392238,0.06393485140365977,0.01,0.01,0.01,0.01
165,Dumfries,-3.60512,55.070859999999996,0.01,0.01,0.01,0.01,0.01,0.19190914875496481,0.01,0.15480378115516308,0.01,0.01,0.3685874133965607,0.13647160047457668,0.01,0.01,0.01,0.06962292864512583,0.01,0.25801118820146357,0.01,0.01,0.31526064480025134,0.139676597334877,0.01,0.01,0.01,0.01
166,Whitehaven,-3.589233,54.5497,0.01,0.01,0.01,0.17762783787931913,0.01,0.01,0.11680871057823079,0.01,0.561487595327995,0.01,0.20192778881451953,0.08838160924888337,0.01,0.01,0.01,0.2776541504219015,0.05763524830498819,0.01,0.01,0.01,0.2604472652775775,0.15537959485431416,0.01,0.01,0.01,0.01
167,Dartmouth,-3.578807,50.35252,0.4568790618159856,0.01,0.01,0.45687906181598553,0.01,0.17154777526327952,0.01,0.01,0.01,0.01,0.01,0.11401569194378025,0.01,0.01,0.01,0.01,0.12208365585466939,0.14152691589168004,0.01,0.01,0.01,0.1350731766958451,0.01,0.01,0.426939036276639,0.01
168,Bridgend,-3.576945,51.504290000000005,0.01,0.01,0.01,0.01,0.01,0.01,0.21256638008702403,0.12482749446662146,0.01,0.01,0.01,0.29204295342248904,0.01,0.01,0.01,0.01,0.4195343322244106,0.2553338096499274,0.01,0.01,0.01,0.29585555574133154,0.01,0.01,0.01,0.01
169,Paignton,-3.564235,50.43508,0.7133855377242239,0.01,0.01,0.7133855377242239,0.01,0.26786016722928546,0.01,0.01,0.01,0.01,0.01,0.17802773754397352,0.01,0.01,0.01,0.01,0.19062531369472172,0.2209846399932013,0.01,0.01,0.01,0.23712842096184034,0.01,0.01,0.6666362270117396,0.01
170,Workington,-3.5427519999999997,54.64357,0.01,0.01,0.01,0.1757434799880631,0.01,0.01,0.11556954999296785,0.01,0.5555310763851843,0.01,0.23504193717111285,0.08744401644350797,0.01,0.01,0.01,0.2747086673510387,0.057023827053372264,0.06169850972375915,0.01,0.01,0.2576843207670707,0.14228023396852787,0.01,0.01,0.01,0.01
171,Llanidloes,-3.5401949999999998,52.447790000000005,0.01,0.01,0.01,0.22837858446762094,0.01,0.01,0.05006086939097907,0.05879549091376421,0.01,0.01,0.01,0.21530551940603498,0.01,0.01,0.028336532003905554,0.01,0.32111060030109506,0.09354005572608075,0.01,0.01,0.01,0.08854580520006027,0.01,0.01,0.01,0.01
172,Exeter,-3.533899,50.71841,0.01,0.01,0.01,0.9442298485976953,0.01,0.4018085972164972,0.01,0.01,0.01,0.01,0.01,0.24727203591297853,0.01,0.01,0.01,0.01,0.01,0.33149209574731037,0.01,0.01,0.01,0.4045706821293065,0.01,0.01,1.0,0.01
173,Torquay,-3.525315,50.46192,0.7279654806135779,0.01,0.01,0.7279654806135779,0.01,0.27333460669296517,0.01,0.01,0.01,0.01,0.01,0.18166621086429402,0.01,0.01,0.01,0.01,0.1945212522019706,0.22550105259220593,0.01,0.01,0.01,0.24292928672044833,0.01,0.01,0.6802607226089059,0.01
174,Thurso,-3.5220800000000003,58.59356999999999,0.01,0.01,0.15084793951895528,0.01,0.01,0.09306839531435634,0.01,0.03753687218770655,0.01,0.01,0.22912552939013084,0.08782023354246433,0.01,0.01,0.01,0.01,0.03153953917434731,0.01706253813737779,0.01,0.01,0.2215595200615422,0.10705542397441084,0.01,0.01,0.01,0.01
175,Livingston,-3.518068,55.90071,0.01,0.01,0.01,0.01,0.01,0.23785276709513964,0.16336100444420945,0.0639547587189983,0.01,0.01,0.44021639070472324,0.33178110132417105,0.01,0.01,0.01,0.15100900983905666,0.4836292970532846,0.34885072653170174,0.01,0.01,0.2781503228345273,0.1481624489892517,0.01,0.01,0.01,0.01
176,Rhyl,-3.4916339999999995,53.319140000000004,0.01,0.01,0.01,0.36462572021771233,0.01,0.01,0.01,0.01,0.01,0.01,0.01,0.20052285094854602,0.01,0.01,0.01,0.01,0.11831081673631014,0.01,0.01,0.01,0.01,0.22605900910976306,0.01,0.01,0.01,0.01
177,Tiverton,-3.491207,50.90205,0.01,0.01,0.01,0.4895398090780296,0.01,0.20831930303771062,0.01,0.01,0.01,0.01,0.01,0.12819919369309232,0.01,0.01,0.01,0.01,0.01,0.11457561657699716,0.01,0.01,0.01,0.19234759319161193,0.01,0.01,0.5184540711195056,0.01
178,Tiverton,-3.491207,50.90205,0.01,0.01,0.01,0.4895398090780296,0.01,0.20831930303771062,0.01,0.01,0.01,0.01,0.01,0.12819919369309232,0.01,0.01,0.01,0.01,0.01,0.11457561657699716,0.01,0.01,0.01,0.19234759319161193,0.01,0.01,0.5184540711195056,0.01
179,Minehead,-3.481152,51.20428,0.01,0.01,0.01,0.01,0.01,0.01,0.11865641448361773,0.01,0.01,0.01,0.01,0.19137239995017702,0.01,0.01,0.01,0.01,0.05854693436721683,0.1425295681146729,0.01,0.01,0.01,0.15014004433964973,0.01,0.01,0.01,0.01
180,Dunfermline,-3.452151,56.071740000000005,0.01,0.01,0.01,0.01,0.01,0.22786711905083865,0.3651729846506233,0.06126977960723268,0.01,0.01,0.32624784393726086,0.28045774280382446,0.01,0.01,0.01,0.2686715211065522,0.4633253417818495,0.19495298002988565,0.01,0.01,0.2284053281736603,0.16965330319182848,0.01,0.01,0.01,0.01
181,Perth,-3.4308381000000003,56.39499,0.01,0.01,0.01,0.01,0.01,0.10810125043618982,0.2598597088590536,0.04360001358212927,0.01,0.01,0.18119828313267117,0.27940603121776586,0.01,0.01,0.01,0.14706813769711616,0.01,0.13872993556804314,0.01,0.01,0.12190114940563684,0.1283722114363423,0.01,0.01,0.01,0.01
182,Prestatyn,-3.4076129999999996,53.33651,0.01,0.01,0.01,0.32217911497749224,0.01,0.01,0.01,0.01,0.01,0.01,0.01,0.22780246828799255,0.01,0.01,0.01,0.01,0.10453808416369927,0.01,0.01,0.01,0.01,0.18426423840612433,0.01,0.01,0.01,0.01
183,Builth Wells,-3.4045919999999996,52.15002,0.01,0.01,0.01,0.01,0.01,0.01,0.12582866740199164,0.07389163459167022,0.01,0.01,0.01,0.19542371371711398,0.01,0.01,0.01,0.01,0.2483433454131843,0.15114484707210488,0.01,0.01,0.01,0.15160126627839757,0.01,0.01,0.01,0.01
184,Braemar,-3.3979439,57.00646999999999,0.01,0.01,0.01,0.01,0.01,0.03188122891753461,0.043793057376232604,0.012858517770961388,0.01,0.01,0.08850836597179454,0.07455459822421201,0.01,0.01,0.01,0.01,0.010804089454584265,0.01,0.01,0.01,0.027961964934754262,0.01,0.01,0.01,0.01,0.01
185,Brecon,-3.391463,51.94895,0.01,0.01,0.01,0.01,0.01,0.01,0.14307696465433956,0.08402052575942988,0.01,0.01,0.01,0.2478517752937867,0.01,0.01,0.01,0.01,0.28238566606054827,0.17186342658413,0.01,0.01,0.01,0.17369821683120637,0.01,0.01,0.01,0.01
186,Merthyr Tydfil,-3.381646,51.74873,0.01,0.01,0.01,0.01,0.01,0.01,0.2373813768784318,0.13939985474956243,0.01,0.01,0.01,0.3261360444802819,0.01,0.01,0.01,0.01,0.46851076539212055,0.28514147568162485,0.01,0.01,0.01,0.335845900337823,0.01,0.01,0.01,0.01
187,Llandrindod Wells,-3.377742,52.2417,0.01,0.01,0.01,0.2590669384949232,0.01,0.01,0.170363373916178,0.06669613030417273,0.01,0.01,0.01,0.2238840825071638,0.01,0.01,0.032144251226217856,0.01,0.3362398287540162,0.10610949323506283,0.01,0.01,0.01,0.10941156188660589,0.01,0.01,0.01,0.01
188,Corwen,-3.369242,52.98005,0.01,0.01,0.01,0.21965742100280009,0.01,0.01,0.04814917945445598,0.01,0.01,0.01,0.01,0.14380804150853171,0.01,0.01,0.027254436072954896,0.01,0.16630290519464655,0.01285257422348095,0.01,0.01,0.01,0.10848504035649816,0.01,0.01,0.01,0.01
189,Cockermouth,-3.367985,54.66326,0.01,0.01,0.01,0.14120881381720496,0.01,0.01,0.09285942823599268,0.01,0.4463658301307974,0.01,0.1888547623359069,0.07026073364564434,0.01,0.01,0.01,0.22072673799665352,0.04581829708886536,0.04957437609049895,0.01,0.01,0.2070477793957518,0.1051437698139238,0.01,0.01,0.01,0.01
190,Lockerbie,-3.349008,55.122240000000005,0.01,0.01,0.01,0.01,0.01,0.17448127159656945,0.01,0.14074555986071058,0.01,0.01,0.33511482386927394,0.10498923150028748,0.01,0.01,0.01,0.06330025015008306,0.01,0.06397646747926039,0.01,0.01,0.2866308278993875,0.1416842920128295,0.01,0.01,0.01,0.01
191,Blairgowrie,-3.3378318,56.58941,0.01,0.01,0.01,0.01,0.01,0.08962403248117973,0.2154431599390351,0.03614767653193079,0.01,0.01,0.15022694693622007,0.23164852502867303,0.01,0.01,0.01,0.07315830106440868,0.01,0.11501750628501338,0.01,0.01,0.08609256278378892,0.10428257641325432,0.01,0.01,0.01,0.01
192,Elgin,-3.318485,57.64945,0.01,0.01,0.23521072581965535,0.01,0.01,0.1451175593287413,0.01,0.058529635740636986,0.01,0.01,0.3572656162459109,0.20837832244653598,0.01,0.01,0.01,0.01,0.04917825145555599,0.02660488431208486,0.01,0.01,0.2363730231879347,0.20013242845767665,0.01,0.01,0.01,0.01
193,Newtown,-3.313106,52.51211,0.01,0.01,0.01,0.23854295689519758,0.01,0.01,0.05228891245256624,0.09211842722551784,0.01,0.01,0.01,0.17491293070333466,0.01,0.01,0.029597696947479657,0.01,0.3354021668221485,0.055830406706154044,0.01,0.01,0.01,0.10695731850498844,0.01,0.01,0.01,0.01
194,Ruthin,-3.3103108,53.114869999999996,0.01,0.01,0.01,0.3156417260051466,0.01,0.01,0.01,0.01,0.01,0.01,0.01,0.24797787868425505,0.01,0.01,0.01,0.01,0.10241688484682347,0.01,0.01,0.01,0.01,0.17465850004498765,0.01,0.01,0.01,0.01
195,Ruthin,-3.3103108,53.114869999999996,0.01,0.01,0.01,0.3156417260051466,0.01,0.01,0.01,0.01,0.01,0.01,0.01,0.24797787868425505,0.01,0.01,0.01,0.01,0.10241688484682347,0.01,0.01,0.01,0.01,0.17465850004498765,0.01,0.01,0.01,0.01
196,Sidmouth,-3.2375599999999998,50.67865,0.01,0.01,0.01,0.4579707201622769,0.01,0.1948853585892483,0.01,0.01,0.01,0.01,0.01,0.11993197687114038,0.01,0.01,0.01,0.01,0.01,0.05359347517599829,0.01,0.01,0.01,0.1816900460751987,0.01,0.01,0.48502038019918897,0.01
197,Barrow-in-Furness,-3.2188939999999997,54.10896999999999,0.01,0.01,0.01,0.209302342203172,0.01,0.01,0.13763797952867285,0.01,0.6616117733754102,0.01,0.2799240573205114,0.13702864613815238,0.01,0.01,0.01,0.3271652951448884,0.0679127360199655,0.01,0.01,0.01,0.13949549305307266,0.21098633853526857,0.01,0.01,0.01,0.01
198,Peebles,-3.1936419999999996,55.65306999999999,0.01,0.01,0.01,0.01,0.01,0.23761434588522493,0.09791835103125526,0.03833439036244911,0.01,0.01,0.26386507123527436,0.18327153735192672,0.01,0.01,0.01,0.1680985150492651,0.2898867048410913,0.06970020681470146,0.01,0.01,0.2143580179462275,0.06700475428388054,0.01,0.01,0.01,0.01
199,Edinburgh,-3.1882669999999997,55.95325,0.01,0.01,0.01,0.01,0.01,0.37995324758223825,0.60890163541475,0.10216327760400659,0.01,0.01,0.6236058087637302,0.5923498390176251,0.01,0.01,0.01,0.44799187088734416,0.7725641550674457,0.4643873059356586,0.01,0.01,0.3808506754557563,0.264581318484324,0.01,0.01,0.01,0.01
200,Cardiff,-3.17909,51.48158,0.01,0.01,0.01,0.01,0.01,0.01,0.3284782988388184,0.19289561695467214,0.01,0.01,0.01,0.33356457399928346,0.01,0.01,0.01,0.01,0.6483053608813205,0.3945667014487712,0.01,0.01,0.01,0.5060060815309606,0.01,0.01,0.01,0.01
201,Llangollen,-3.1716599999999997,52.96921,0.01,0.01,0.01,0.2615250664244019,0.01,0.01,0.05732660926130322,0.01,0.01,0.01,0.01,0.171218467877864,0.01,0.01,0.03244924264741254,0.01,0.19800094637654186,0.015302327243360805,0.01,0.01,0.01,0.13398886873637256,0.01,0.01,0.01,0.01
202,Kirkcaldy,-3.158137,56.11682,0.01,0.01,0.01,0.01,0.01,0.1660877874474291,0.39925092371257614,0.0669874747915908,0.01,0.01,0.27839476244118555,0.4701660872875777,0.01,0.01,0.01,0.2259568829737656,0.5065628577722684,0.2131459900625439,0.01,0.01,0.22891010256496186,0.1817335131164278,0.01,0.01,0.01,0.01
203,Welshpool,-3.146407,52.66035,0.01,0.01,0.01,0.30375202097949777,0.01,0.01,0.06658282029791834,0.11730029175205198,0.01,0.01,0.01,0.17500044048274493,0.17542834978680721,0.01,0.03768864267112074,0.01,0.22997103092554455,0.07109243169376933,0.01,0.01,0.01,0.16316424854508677,0.01,0.01,0.01,0.01
204,Mold,-3.1419029999999997,53.1672,0.01,0.01,0.01,0.42234112126687817,0.01,0.01,0.01,0.01,0.01,0.01,0.01,0.2654433717738873,0.01,0.01,0.01,0.01,0.13703784518705517,0.01,0.01,0.01,0.01,0.26265165817414693,0.01,0.01,0.01,0.01
205,Mold,-3.1419029999999997,53.1672,0.01,0.01,0.01,0.42234112126687817,0.01,0.01,0.01,0.01,0.01,0.01,0.01,0.2654433717738873,0.01,0.01,0.01,0.01,0.13703784518705517,0.01,0.01,0.01,0.01,0.26265165817414693,0.01,0.01,0.01,0.01
206,Taunton,-3.106849,51.01534,0.01,0.01,0.01,0.01,0.01,0.2839249424405475,0.3900082072250201,0.1145142221206081,0.01,0.01,0.01,0.15142982479615139,0.01,0.01,0.01,0.01,0.01,0.07807936144964824,0.01,0.01,0.01,0.2975924967913848,0.01,0.01,0.7066173904874585,0.01
207,Wick,-3.093716,58.43894,0.01,0.01,0.14466980616548564,0.01,0.01,0.0892566829430828,0.01,0.03599951077072374,0.01,0.01,0.21974145639734938,0.0842234650636346,0.01,0.01,0.01,0.01,0.0302478047327137,0.01636372424374727,0.01,0.01,0.19011844527195848,0.10511654325126142,0.01,0.01,0.01,0.01
208,John o' Groats,-3.0688997000000002,58.63734,0.01,0.01,0.051674015387266264,0.01,0.01,0.03188122891753461,0.01,0.012858517770961388,0.01,0.01,0.07848855058330695,0.030083434443043077,0.01,0.01,0.01,0.01,0.010804089454584265,0.01,0.01,0.01,0.07589676123760918,0.01,0.01,0.01,0.01,0.01
209,Dalkeith,-3.066606,55.893119999999996,0.01,0.01,0.01,0.01,0.01,0.2116550616951106,0.14536801020433004,0.05691061982453644,0.01,0.01,0.34738307085728615,0.23734810861198388,0.01,0.01,0.01,0.24955635377493587,0.4303611429688835,0.25868952170744075,0.01,0.01,0.318232468296374,0.12899616286082555,0.01,0.01,0.01,0.01
210,Oswestry,-3.056412,52.85715,0.01,0.01,0.01,0.3732182845005938,0.01,0.01,0.08180991142509234,0.01,0.01,0.01,0.01,0.24434316994243593,0.2155476830819326,0.01,0.04630780890416472,0.01,0.2825640249296183,0.02183771293136945,0.01,0.01,0.01,0.2111597352133026,0.01,0.01,0.01,0.01
211,Blackpool,-3.0356748,53.81751,0.01,0.01,0.01,0.2826070813846233,0.01,0.01,0.18584344194541585,0.01,0.8933305299652582,0.01,0.17008330648757836,0.288632292102902,0.01,0.01,0.1402601502917823,0.2944997407208255,0.21396215907421445,0.01,0.01,0.01,0.06780654740091956,0.3335363923460749,0.01,0.01,0.01,0.01
212,Birkenhead,-3.023009,53.389990000000004,0.01,0.01,0.01,0.5731053991981493,0.01,0.01,0.3768762012770467,0.01,0.01,0.01,0.01,0.22512464333947763,0.01,0.01,0.3555459847448045,0.01,0.1239710860787505,0.01,0.01,0.01,0.01,0.3790374817809185,0.01,0.01,0.01,0.01
213,Cupar,-3.010137,56.32023,0.01,0.01,0.01,0.01,0.01,0.09191665556973395,0.22095429293621455,0.037072350366843275,0.01,0.01,0.15406981985249185,0.2375741985585021,0.01,0.01,0.01,0.07502972333248042,0.28034309107171174,0.016851387851746915,0.01,0.01,0.08829484928805179,0.10365650057408572,0.01,0.01,0.01,0.01
214,Southport,-3.010113,53.64571,0.01,0.01,0.01,0.2427177640175037,0.01,0.01,0.3192241834263732,0.01,0.01,0.01,0.024346074436104363,0.2478925306689779,0.01,0.01,0.3011569146850367,0.01,0.10500680667221478,0.01,0.01,0.01,0.05823581453001586,0.3025624429850893,0.01,0.01,0.01,0.01
215,Bridgwater,-3.003632,51.12789,0.01,0.01,0.01,0.01,0.01,0.32462030640536566,0.44590863571806044,0.13092770769988932,0.01,0.01,0.01,0.2130885867311659,0.01,0.01,0.01,0.01,0.1100091543418619,0.1487843096588442,0.01,0.01,0.01,0.3363733087846982,0.01,0.01,0.01,0.01
216,Langholm,-2.998913,55.153059999999996,0.01,0.01,0.01,0.01,0.01,0.044746570693911226,0.27659381911310565,0.01,0.01,0.01,0.15469528859410686,0.027536931377355994,0.01,0.01,0.01,0.054788594610266875,0.13647572484358714,0.03691592189975046,0.01,0.01,0.17940904017288167,0.06363940783776469,0.01,0.01,0.01,0.01
217,Newport,-2.997664,51.58415,0.01,0.01,0.01,0.01,0.01,0.01,0.2407201093481276,0.14136049221591931,0.01,0.01,0.01,0.24444750539568993,0.01,0.01,0.01,0.01,0.47510029707900503,0.2891519465780118,0.01,0.01,0.01,0.35834093709025633,0.01,0.01,0.01,0.01
218,Axminster,-2.9949369999999997,50.78273,0.01,0.01,0.01,0.4829250566732164,0.01,0.20550445410166004,0.2822873645126389,0.08288522488192294,0.01,0.01,0.01,0.10117355490004619,0.01,0.01,0.01,0.01,0.01,0.056513726527129764,0.01,0.5590164310626228,0.01,0.18577251421764426,0.01,0.01,0.5114486238604119,0.01
219,Wrexham,-2.9924939999999998,53.043040000000005,0.01,0.01,0.01,0.48125298530958693,0.01,0.01,0.01,0.01,0.01,0.01,0.01,0.2646610397923378,0.01,0.01,0.01,0.01,0.1561531014477207,0.01,0.01,0.01,0.01,0.32080356636868224,0.01,0.01,0.01,0.01
220,Liverpool,-2.9915726,53.40837,0.01,0.01,0.01,0.8448658232728371,0.01,0.01,0.5555868475665544,0.01,0.01,0.01,0.01,0.3318763309508633,0.01,0.01,0.5241420714811874,0.01,0.18275684341570506,0.01,0.01,0.01,0.01,0.5809192996705907,0.01,0.01,0.01,0.01
221,Weston-super-Mare,-2.977255,51.347409999999996,0.01,0.01,0.01,0.01,0.01,0.01,0.01,0.01,0.01,0.01,0.01,0.218018522802491,0.01,0.01,0.01,0.01,0.01,0.0811874819085974,0.01,0.01,0.01,0.33532487776621456,0.01,0.01,0.01,0.01
222,Dundee,-2.9707209999999997,56.462019999999995,0.01,0.01,0.01,0.01,0.01,0.17973020958193794,0.43204532553217756,0.07248981438486711,0.01,0.01,0.3012620600771488,0.4645432346674764,0.01,0.01,0.01,0.14671016711645746,0.5481718432949388,0.03295054037342802,0.01,0.01,0.1726482721676892,0.24730456094199074,0.01,0.01,0.01,0.01
223,Kirkwall,-2.9622491,58.984669999999994,0.01,0.01,0.15098998114503043,0.01,0.01,0.09315603049352295,0.01,0.03757221770439255,0.01,0.01,0.2293412788585935,0.08790292694095854,0.01,0.01,0.01,0.01,0.03156923747479656,0.017078604585946663,0.01,0.01,0.26845617642769265,0.09810246337453028,0.01,0.01,0.01,0.01
224,Ambleside,-2.961333,54.428740000000005,0.01,0.01,0.01,0.1901292985782857,0.01,0.01,0.12502971648600317,0.09789661441064323,0.6010051348632068,0.01,0.2542817443575177,0.11451810566538188,0.01,0.01,0.01,0.2971954705823294,0.1439471191866936,0.01,0.01,0.01,0.14699180683622198,0.1775038292960502,0.01,0.01,0.01,0.01
225,Orkney Islands,-2.9605206,58.980940000000004,0.01,0.01,0.15450829154028134,0.01,0.01,0.09532671644222081,0.01,0.038447711052491076,0.01,0.01,0.23468530102052282,0.08995120709361511,0.01,0.01,0.01,0.01,0.032304851689298884,0.01747656365313404,0.01,0.01,0.2747116388698505,0.10147667703322234,0.01,0.01,0.01,0.01
226,Lyme Regis,-2.936639,50.725159999999995,0.01,0.01,0.01,0.44509263580678876,0.01,0.18940520455959198,0.13008646516648076,0.01,0.01,0.01,0.01,0.07770633651681176,0.01,0.01,0.01,0.01,0.01,0.05208643277386458,0.01,0.5152230005935129,0.01,0.1768091234681246,0.01,0.01,0.4713816624922517,0.01
227,Carlisle,-2.932931,54.892469999999996,0.01,0.01,0.01,0.01,0.01,0.11395998987026083,0.7044255757591577,0.3102501927993296,0.01,0.01,0.5014239621104589,0.04207842178492396,0.01,0.01,0.01,1.0,0.0868936519209327,0.031339000009190494,0.01,0.01,0.39266273119933726,0.18979842893939158,0.01,0.01,0.01,0.01
228,Chester,-2.893075,53.19339,0.01,0.01,0.01,0.5864468898431816,0.01,0.01,0.01,0.01,0.01,0.01,0.01,0.41465769447975,0.01,0.01,0.1455291406220268,0.01,0.31714260892526147,0.01,0.01,0.01,0.01,0.36152974556040696,0.01,0.01,0.01,0.01
229,Forfar,-2.889062,56.64356,0.01,0.01,0.01,0.01,0.01,0.10801969526943124,0.14837923738238804,0.04356712028659366,0.01,0.01,0.3508068125702334,0.23931020403928577,0.01,0.01,0.01,0.08817431182943257,0.01,0.019803611971409396,0.01,0.01,0.14436643945470432,0.12208631387181186,0.01,0.01,0.01,0.01
230,Morecambe,-2.864968,54.074169999999995,0.01,0.01,0.01,0.1831738861799971,0.01,0.01,0.12045581206041468,0.01,0.5790188413370596,0.01,0.14698768446426472,0.2350481902582515,0.01,0.01,0.01,0.286323305817295,0.13868116814718662,0.01,0.01,0.01,0.043949319086490565,0.18262363554561165,0.01,0.01,0.01,0.01
231,Selkirk,-2.838524,55.55066,0.01,0.01,0.01,0.01,0.01,0.18431638793474314,0.11393224201617602,0.04460372335031476,0.01,0.01,0.2085408259210538,0.15879899857376994,0.01,0.01,0.01,0.15045377256893527,0.3372957353283526,0.0810992091651473,0.01,0.01,0.29098397670240767,0.1108018548153543,0.01,0.01,0.01,0.01
232,Galashiels,-2.814449,55.62373,0.01,0.01,0.01,0.01,0.01,0.17612306151169901,0.10886766767524282,0.042620975808508155,0.01,0.01,0.19927066238080826,0.17775255350469965,0.01,0.01,0.01,0.1437657244574881,0.3223020926489815,0.07749414560684864,0.01,0.01,0.27804900802321253,0.09864020099045809,0.01,0.01,0.01,0.01
233,Lancaster,-2.8007399,54.046569999999996,0.01,0.01,0.01,0.23907535930033963,0.01,0.01,0.15721682358073277,0.01,0.7557252860721398,0.01,0.1918457603803162,0.3067807956187948,0.01,0.01,0.01,0.3737041815396391,0.18100424025725598,0.01,0.01,0.01,0.05736188422231231,0.25261028617482606,0.01,0.01,0.01,0.01
234,St Andrews,-2.7967214,56.339780000000005,0.01,0.01,0.01,0.01,0.01,0.11943018358590145,0.287092819096807,0.04816926358807649,0.01,0.01,0.20018773263644243,0.3086875819539507,0.01,0.01,0.01,0.09748846470158257,0.3642585408074648,0.021895534953232727,0.01,0.01,0.11472425747868238,0.14866395959175857,0.01,0.01,0.01,0.01
235,Hawick,-2.780914,55.42706,0.01,0.01,0.01,0.01,0.01,0.06420425250674713,0.09921709415937893,0.11652851227183762,0.01,0.01,0.1715170755419601,0.15409345093501903,0.01,0.01,0.01,0.052408644249412314,0.2937316262667657,0.052968509863783764,0.01,0.01,0.2212234063254355,0.10299951345551385,0.01,0.01,0.01,0.01
236,Bridport,-2.758301,50.733579999999996,0.01,0.01,0.01,0.01,0.01,0.196103486956319,0.26937390114792054,0.07909357336100893,0.01,0.01,0.01,0.09654528895928859,0.01,0.01,0.01,0.01,0.01,0.053928460486718205,0.01,0.5334437731603964,0.01,0.18950153172585074,0.01,0.01,0.4880519936975292,0.01
237,Shrewsbury,-2.7553267999999997,52.7073,0.01,0.01,0.01,0.5414495642834091,0.01,0.01,0.11868641704116184,0.20909224457062017,0.01,0.01,0.01,0.31194496070589917,0.31270772536336616,0.01,0.06718144322762806,0.01,0.4099321350716116,0.12672497137735117,0.01,0.01,0.01,0.32739379639013017,0.01,0.01,0.01,0.01
238,Penrith,-2.752708,54.6641,0.01,0.01,0.01,0.01,0.01,0.40565240644668493,0.7835862378052229,0.12270752626459164,0.01,0.01,0.43028130705636003,0.14354156722684763,0.18351508513209525,0.01,0.01,0.5794703805110477,0.07732674214607291,0.01,0.01,0.01,0.20330526942012803,0.17737801908965606,0.01,0.01,0.01,0.01
239,Kendal,-2.74629,54.32801,0.01,0.01,0.01,0.21457981614104812,0.01,0.01,0.14110846553555847,0.01,0.6782940467519372,0.01,0.3730768972537436,0.15172247046496876,0.16523729016179983,0.01,0.01,0.33541463578928815,0.16245863525550253,0.01,0.01,0.01,0.1430128155124847,0.19296016087825094,0.01,0.01,0.01,0.01
240,Street,-2.7429189999999997,51.12468,0.01,0.01,0.01,0.01,0.01,0.16607316592118582,0.22812331016908627,0.06698157353524338,0.01,0.01,0.01,0.10901442553604519,0.01,0.01,0.01,0.01,0.056279808075381056,0.07611686902170303,0.01,0.01,0.01,0.14927552931857094,0.01,0.01,0.01,0.01
241,Glastonbury,-2.718454,51.14743,0.01,0.01,0.01,0.01,0.01,0.19156730765797544,0.2631428629707493,0.07726401573467188,0.01,0.01,0.01,0.12574939412988526,0.01,0.01,0.01,0.01,0.0649194061467155,0.03512067304189374,0.01,0.01,0.01,0.18403774033730602,0.01,0.01,0.01,0.01
242,Hereford,-2.715974,52.0564,0.01,0.01,0.01,0.01,0.01,0.01,0.01,0.12172015466840277,0.01,0.01,0.02371216734494599,0.4147782203543073,0.01,0.01,0.01,0.01,0.3068181254373922,0.1659851761807678,0.01,0.01,0.018906502140126753,0.2713634167422184,0.01,0.01,0.01,0.01
243,Ludlow,-2.7139129,52.36775,0.01,0.01,0.01,0.3460401798153729,0.01,0.01,0.07585243724209319,0.1336307620913426,0.01,0.01,0.01,0.19936388800687496,0.01,0.01,0.042935630995496264,0.01,0.14970711139214277,0.08098987380394919,0.01,0.01,0.01,0.2031677036644374,0.01,0.01,0.01,0.01
244,Preston,-2.70309,53.7632,0.01,0.01,0.6545920122995156,0.3163522032495788,0.01,0.01,0.20803435650256277,0.01,1.0,0.01,0.12692823770641745,0.47221849294313617,0.01,0.01,0.01,0.01,0.1026474115983281,0.01,0.01,0.01,0.07590308975957259,0.37236587903868623,0.01,0.01,0.01,0.01
245,Whitchurch,-2.682045,52.96872,0.01,0.01,0.01,0.2984412528694668,0.01,0.01,0.06541869333154016,0.01,0.01,0.01,0.01,0.1953872179513111,0.17236117913016813,0.01,0.037029698441012546,0.01,0.22595024181825904,0.0174623663616545,0.01,0.01,0.01,0.1641460452013008,0.01,0.01,0.01,0.01
246,Wells,-2.6445979,51.20935,0.01,0.01,0.01,0.01,0.01,0.01,0.2950561149447995,0.08663438578700977,0.01,0.01,0.01,0.1409999392335815,0.01,0.01,0.01,0.01,0.07279265546450579,0.03938001291389618,0.01,0.01,0.01,0.22251028669788514,0.01,0.01,0.01,0.01
247,Yeovil,-2.633308,50.94206,0.01,0.01,0.01,0.01,0.01,0.2649279742925353,0.3639133758712427,0.1068522569145216,0.01,0.01,0.01,0.10869068973559227,0.01,0.01,0.01,0.01,0.089780281265062,0.26713570937872994,0.01,0.01,0.01,0.26593178107654275,0.01,0.01,0.01,0.01
248,Wigan,-2.6325074,53.54506,0.01,0.01,0.6881077270506268,0.01,0.01,0.01,0.437371841087855,0.01,0.01,0.01,0.01,0.5225226498320042,0.01,0.01,0.41261771834454014,0.01,0.143870742639435,0.01,0.01,0.01,0.05319293303696378,0.4059155296569537,0.01,0.01,0.01,0.01
249,Warrington,-2.5969501,53.39004,0.01,0.01,0.7103679021307535,0.01,0.01,0.01,0.45152075029929983,0.01,0.01,0.01,0.01,0.5394261741078425,0.01,0.01,0.4259658356384418,0.01,0.14852493818783935,0.01,0.01,0.01,0.05491371592586331,0.42055768418328787,0.01,0.01,0.01,0.01
250,Arbroath,-2.591543,56.55911,0.01,0.01,0.01,0.01,0.01,0.1162600445615694,0.2794722652125398,0.04689066501534579,0.01,0.01,0.23141284705781076,0.27187535995987044,0.01,0.01,0.01,0.09490074376627633,0.11819657242878533,0.021314342764375844,0.01,0.01,0.14081269297254634,0.14915522755074653,0.01,0.01,0.01,0.01
251,Bristol,-2.58791,51.45451,0.01,0.01,0.01,0.01,0.01,0.01,0.6849322730333677,0.20110983563600315,0.01,0.01,0.01,0.327312006039568,0.01,0.01,0.01,0.01,0.16897815853356038,0.09141529489142922,0.01,0.01,0.01,0.5782394039871422,0.01,0.01,0.01,0.01
252,Guernsey,-2.5852779999999997,49.46569,0.01,0.01,0.01,0.14484392879180114,0.01,0.0616370430669966,0.01,0.01,0.01,0.01,0.01,0.020230019488173996,0.01,0.01,0.01,0.01,0.01,0.06780074833523414,0.01,0.16766604883182085,0.01,0.023524743802273623,0.01,0.01,0.15339901508823653,0.01
253,Ross-on-Wye,-2.582446,51.91445,0.01,0.01,0.01,0.01,0.01,0.01,0.01,0.01,0.01,0.01,0.019318380127091358,0.2874851739293118,0.01,0.01,0.01,0.01,0.2499657281789751,0.01,0.01,0.01,0.015403189000118231,0.23843974672085566,0.01,0.01,0.01,0.01
254,Jedburgh,-2.5549369,55.47772,0.01,0.01,0.01,0.01,0.01,0.053435506901213174,0.41287888007083545,0.09698360900682589,0.01,0.01,0.14274914068714006,0.1085174691482349,0.01,0.01,0.01,0.10904583468155339,0.24446508961120436,0.044084294479960706,0.01,0.01,0.20420405335276587,0.06614853284433847,0.01,0.01,0.01,0.01
255,Sedbergh,-2.5281740000000004,54.32363,0.01,0.01,0.01,0.13063292482460317,0.01,0.01,0.08590468526781206,0.06726223242033921,0.4129350878000471,0.01,0.15723937051720796,0.0786824292747395,0.10059394630918571,0.01,0.01,0.2041953231674519,0.09890234351067623,0.01,0.01,0.01,0.04527329291004552,0.11820147958748174,0.01,0.01,0.01,0.01
256,Sedbergh,-2.5281740000000004,54.32363,0.01,0.01,0.01,0.13063292482460317,0.01,0.01,0.08590468526781206,0.06726223242033921,0.4129350878000471,0.01,0.15723937051720796,0.0786824292747395,0.10059394630918571,0.01,0.01,0.2041953231674519,0.09890234351067623,0.01,0.01,0.01,0.04527329291004552,0.11820147958748174,0.01,0.01,0.01,0.01
257,Nantwich,-2.524102,53.06718000000001,0.01,0.01,0.01,0.01,0.01,0.01,0.01,0.01,0.01,0.01,0.01,0.28825218658794016,0.2119018123279826,0.01,0.01,0.01,0.01,0.01,0.01,0.01,0.05868828386241635,0.22204624444645016,0.01,0.01,0.01,0.01
258,Banff,-2.524038,57.666509999999995,0.01,0.01,0.1453365155527684,0.01,0.01,0.08966802149376701,0.01,0.036165414164144864,0.01,0.01,0.24893551258220425,0.12875679540367288,0.01,0.01,0.01,0.01,0.030387201445092847,0.016439136306937108,0.01,0.01,0.1460546981481973,0.10143764208298138,0.01,0.01,0.01,0.01
259,Dunbar,-2.516737,56.00209,0.01,0.01,0.01,0.01,0.01,0.12532357375255798,0.12911128633900074,0.050546219361244774,0.01,0.01,0.2100661769256644,0.33420322619114157,0.01,0.01,0.01,0.17049853287511632,0.38223320716114517,0.02297598988106304,0.01,0.01,0.2355367094339133,0.13382599104173737,0.01,0.01,0.01,0.01
260,Cinderford,-2.5009579,51.8253,0.01,0.01,0.01,0.01,0.01,0.01,0.01,0.01,0.01,0.01,0.01810880983186081,0.26948503497271076,0.01,0.01,0.01,0.01,0.01,0.01,0.01,0.01,0.014438758248482012,0.23184053378316632,0.01,0.01,0.01,0.01
261,Banchory,-2.4909599,57.05386,0.01,0.01,0.1621998556012597,0.01,0.01,0.10007215536053157,0.13746224758893189,0.01,0.01,0.01,0.2673356104418637,0.20117492258757083,0.01,0.01,0.01,0.01,0.01,0.01,0.01,0.01,0.13792421284874348,0.12514185098356223,0.01,0.01,0.01,0.01
262,Blackburn,-2.487529,53.748580000000004,0.01,0.01,0.5432844283366411,0.01,0.01,0.3351893144120942,0.01,0.01,0.8299588417343161,0.01,0.1053452131501962,0.3300395059317082,0.01,0.01,0.01,0.01,0.01,0.01,0.01,0.01,0.06299644046091071,0.31338249072447644,0.01,0.01,0.01,0.01
263,Market Drayton,-2.483485,52.90355,0.01,0.01,0.01,0.2605410987648711,0.01,0.01,0.05711093247492997,0.01,0.01,0.01,0.01,0.1501053619353146,0.15047239804553564,0.01,0.03232716062538784,0.01,0.11271770612255078,0.01524475612924107,0.01,0.01,0.01,0.14549033981876197,0.01,0.01,0.01,0.01
264,Telford,-2.4672611,52.67759,0.01,0.01,0.01,0.48401222141044614,0.01,0.01,0.10609608013881563,0.18691159518848502,0.01,0.01,0.01,0.2788536243239582,0.01,0.01,0.0600547894376806,0.01,0.20939785542971528,0.11328189909193798,0.01,0.01,0.01,0.30279557127288304,0.01,0.01,0.01,0.01
265,Montrose,-2.4661150000000003,56.70692,0.01,0.01,0.01,0.01,0.01,0.10676574195768307,0.14665676783045842,0.04306136867684842,0.01,0.01,0.24606960954396168,0.2628135080126924,0.01,0.01,0.01,0.08715073487845293,0.01,0.019573720517316838,0.01,0.01,0.11593607357981321,0.1357672615089464,0.01,0.01,0.01,0.01
266,Turriff,-2.4623,57.53893000000001,0.01,0.01,0.15155286714749014,0.01,0.01,0.09350331330799755,0.01,0.03771228577557707,0.01,0.01,0.259583013416648,0.18029736659293663,0.01,0.01,0.01,0.01,0.03168692662044803,0.017142273098188807,0.01,0.01,0.12887072588095766,0.10320813863461924,0.01,0.01,0.01,0.01
267,Weymouth,-2.457621,50.61443,0.01,0.01,0.01,0.01,0.01,0.25264369696464245,0.17351965359738306,0.01,0.01,0.01,0.01,0.10365088003170028,0.01,0.01,0.01,0.01,0.01,0.20843105190960604,0.01,0.6872453369685886,0.01,0.2576037587834975,0.01,0.01,0.6287662800517837,0.01
268,Crewe,-2.4438209,53.1004,0.01,0.01,0.01,0.01,0.01,0.01,0.01,0.01,0.01,0.01,0.01,0.18044008898540212,0.26529257283103186,0.01,0.01,0.01,0.01,0.01,0.01,0.01,0.07347537828888276,0.32555448136259507,0.01,0.01,0.01,0.01
269,Fortuneswell,-2.4422189999999997,50.55919,0.01,0.01,0.01,0.01,0.01,0.1532450718344651,0.10525111886699429,0.01,0.01,0.01,0.01,0.04400976816646302,0.01,0.01,0.01,0.01,0.01,0.12642718542426512,0.01,0.4168596418472758,0.01,0.1416204600905442,0.01,0.01,0.3813882353340877,0.01
270,Dorchester,-2.4411810000000003,50.71116,0.01,0.01,0.01,0.01,0.01,0.31011359288361595,0.42598175897129753,0.1250767775202785,0.01,0.01,0.01,0.11450589208080031,0.01,0.01,0.01,0.01,0.01,0.2558437164780937,0.01,0.8435758469354063,0.01,0.3268257850242401,0.01,0.01,0.01,0.01
271,Alston,-2.438685,54.812169999999995,0.01,0.01,0.01,0.01,0.01,0.21694038747747055,0.2681965043652242,0.11812180030196089,0.01,0.01,0.12954440237763637,0.04272146718012586,0.01,0.01,0.01,0.2744803360168853,0.033083088545738014,0.011931722160582489,0.01,0.01,0.057081356141795596,0.06346744059706674,0.01,0.01,0.01,0.01
272,Kelso,-2.432207,55.600030000000004,0.01,0.01,0.01,0.01,0.01,0.15509410897060988,0.09586895531383141,0.15012824816506723,0.01,0.01,0.14623158677159256,0.1565290409242109,0.01,0.01,0.01,0.1266002120555191,0.28381948082043945,0.017060353201153948,0.01,0.01,0.24485017907014747,0.08583030154226763,0.01,0.01,0.01,0.01
273,Wincanton,-2.416007,51.055690000000006,0.01,0.01,0.01,0.01,0.01,0.17603236192765254,0.2418035742082275,0.07099837309439451,0.01,0.01,0.01,0.07221992650944098,0.01,0.01,0.01,0.01,0.05965483640533442,0.17749929958408991,0.01,0.01,0.01,0.1610281440449385,0.01,0.01,0.01,0.01
274,Clitheroe,-2.3930830000000003,53.8711,0.01,0.01,0.3884715696849848,0.01,0.01,0.23967467558377314,0.12345924102413017,0.01,0.5934560189946764,0.01,0.2259789822015713,0.24090885011695945,0.01,0.01,0.01,0.01,0.14213902568025652,0.01,0.01,0.01,0.015015047892101908,0.1824899239867247,0.01,0.01,0.01,0.01
275,Sark,-2.3666256000000003,49.43007,0.01,0.01,0.01,0.14484392879180114,0.01,0.0616370430669966,0.01,0.01,0.01,0.01,0.01,0.020230019488173996,0.01,0.01,0.01,0.01,0.01,0.03390037365911146,0.01,0.16766604883182085,0.01,0.026534524173017684,0.01,0.01,0.15339901508823653,0.01
276,Bath,-2.3590167,51.38106,0.01,0.01,0.01,0.01,0.01,0.01,0.5032468557184646,0.14776335766696352,0.01,0.01,0.01,0.24048908828434076,0.01,0.01,0.01,0.01,0.12415494248869734,0.06716643605498028,0.01,0.01,0.01,0.4124667816174549,0.01,0.01,0.01,0.01
277,Kidderminster,-2.2496839,52.3886,0.01,0.01,0.01,0.01,0.01,0.01,0.01,0.15880953570951756,0.01,0.01,0.01,0.32308381404175207,0.01,0.01,0.01,0.01,0.01,0.07218752127435744,0.01,0.01,0.01,0.26093030433184206,0.01,0.01,0.01,0.01
278,Manchester,-2.2426305,53.48076,0.01,0.01,1.0,0.01,0.01,0.205656127146471,0.01,0.01,0.01,0.01,0.01,0.45561701598085524,0.3721511430124544,0.01,0.01,0.01,0.01,0.01,0.01,0.01,0.12883867430333087,0.6914087817749076,0.01,0.01,0.01,0.01
279,Burnley,-2.2405035,53.78929,0.01,0.01,0.5061464028668482,0.01,0.01,0.4163684359308539,0.01,0.05397817340441227,0.7732242272385926,0.01,0.19628797997492176,0.3331017632425475,0.26909004309887574,0.01,0.01,0.01,0.15117994156360665,0.02453599856943882,0.01,0.01,0.04564786067557245,0.24265849737929784,0.08659603762258952,0.031364413707948215,0.01,0.01
280,Gloucester,-2.238156,51.86424,0.01,0.01,0.01,0.01,0.01,0.01,0.01,0.01,0.01,0.01,0.028801892146474772,0.2932618133316092,0.01,0.01,0.01,0.01,0.01,0.01,0.01,0.01,0.022964709534368608,0.4231679963269555,0.01,0.01,0.01,0.01
281,Newcastle-under-Lyme,-2.2273002,53.01321,0.01,0.01,0.01,0.41739465254705543,0.01,0.01,0.01,0.01,0.01,0.01,0.01,0.19675087459149765,0.24106129358431494,0.01,0.01,0.01,0.01,0.07326766490326582,0.01,0.01,0.06676428800061433,0.2655334369505421,0.01,0.01,0.01,0.01
282,Worcester,-2.221575,52.19364,0.01,0.01,0.01,0.01,0.01,0.01,0.01,0.22398513228315575,0.01,0.01,0.08726858763955406,0.3873260818349491,0.01,0.01,0.01,0.01,0.01,0.10181335415151055,0.01,0.01,0.02319405123641424,0.3826639097630398,0.01,0.01,0.01,0.01
283,Trowbridge,-2.208853,51.31966,0.01,0.01,0.01,0.01,0.01,0.01,0.486809708871466,0.14293708209071587,0.01,0.01,0.01,0.18901527598094706,0.01,0.01,0.01,0.01,0.12009976956853297,0.25989053133916434,0.01,0.01,0.01,0.38881653730917193,0.01,0.01,0.01,0.01
284,Shaftesbury,-2.198083,51.0046,0.01,0.01,0.01,0.01,0.01,0.19287060684744367,0.2649331156198936,0.07778966977404402,0.01,0.01,0.01,0.0712152624071534,0.01,0.01,0.01,0.01,0.06536107550275633,0.19447786333656994,0.01,0.5246496421114276,0.01,0.17932888168185257,0.01,0.01,0.01,0.01
285,Alderney,-2.1973557,49.715,0.01,0.01,0.01,0.14484392879180114,0.01,0.0616370430669966,0.01,0.01,0.01,0.01,0.01,0.01,0.01,0.01,0.01,0.01,0.01,0.01695018733806134,0.01,0.16766604883182085,0.01,0.03104919924380888,0.01,0.01,0.15339901508823653,0.01
286,Stoke-on-Trent,-2.179404,53.002669999999995,0.01,0.01,0.01,0.5685794309443915,0.01,0.01,0.01,0.01,0.01,0.01,0.01,0.2233467758130087,0.3283762556431812,0.01,0.01,0.01,0.01,0.09980599167505344,0.01,0.01,0.09094702255323506,0.3874900987519429,0.01,0.01,0.01,0.01
287,Colne,-2.176991,53.85564,0.01,0.01,0.01,0.01,0.01,0.30721690147194003,0.01,0.2721561047649696,0.5705224765758303,0.01,0.12672697245953982,0.26941126407882426,0.5460060795157781,0.03260718000281951,0.01,0.01,0.18963146353414076,0.01810385419387256,0.01,0.01,0.019246408140597655,0.14336178757503468,0.43661426093233197,0.023142191300591492,0.01,0.01
288,Blandford Forum,-2.165353,50.85691,0.01,0.01,0.01,0.01,0.01,0.1721597329333508,0.2069235056898901,0.052077330199794776,0.01,0.01,0.01,0.04944178526133159,0.01,0.01,0.01,0.01,0.01,0.16570374352293324,0.01,0.4683115988789589,0.01,0.1627631623398391,0.01,0.01,0.01,0.01
289,Rochdale,-2.1561,53.60971,0.01,0.01,0.5933135483514436,0.01,0.01,0.48807426614995336,0.01,0.01,0.01,0.01,0.05752304026311526,0.3153777074154597,0.22080231518376486,0.01,0.01,0.01,0.01,0.01,0.01,0.01,0.07644173101580519,0.35547893128205055,0.01,0.01,0.01,0.01
290,Jersey,-2.13125,49.21444,0.01,0.01,0.01,0.14484392879180114,0.01,0.0616370430669966,0.01,0.01,0.01,0.01,0.01,0.01,0.01,0.01,0.01,0.01,0.01,0.01695018733806134,0.01,0.16766604883182085,0.01,0.03104919924380888,0.01,0.01,0.15339901508823653,0.01
291,Wolverhampton,-2.12882,52.586969999999994,0.01,0.01,0.01,0.01,0.01,0.01,0.01,0.20731969548884385,0.01,0.01,0.01,0.4217734007297147,0.01,0.01,0.01,0.01,0.01,0.18847601830524674,0.01,0.01,0.01,0.3465337550354848,0.01,0.01,0.01,0.01
292,Stafford,-2.12066,52.80669,0.01,0.01,0.01,0.5370009214433616,0.01,0.01,0.01,0.2073743066903864,0.01,0.01,0.01,0.3375076003539099,0.01,0.01,0.01,0.01,0.01,0.1885256657919331,0.01,0.01,0.01,0.34663733979603206,0.01,0.01,0.01,0.01
293,Macclesfield,-2.119287,53.25866,0.01,0.01,0.01,0.01,0.01,0.01,0.01,0.01,0.01,0.01,0.01,0.1459299976290229,0.4876226887544308,0.01,0.01,0.01,0.01,0.088924222171644,0.01,0.01,0.08103113955026049,0.361203553363661,0.01,0.01,0.01,0.01
294,Hexham,-2.1121439,54.97266,0.01,0.01,0.01,0.01,0.01,0.37994375921799595,0.5871404991522378,0.43099053751052435,0.01,0.01,0.373159053436542,0.07014493987540063,0.01,0.01,0.01,0.484594492524857,0.16899418644356426,0.07836340262549817,0.01,0.01,0.1249635076963599,0.180569969346763,0.01,0.01,0.01,0.01
295,Aberdeen,-2.094278,57.149719999999995,0.01,0.01,0.3167271708536901,0.01,0.01,0.19541059719862008,0.26842211798919596,0.01,0.01,0.01,0.5220254435481638,0.3928336670934532,0.01,0.01,0.01,0.01,0.01,0.01,0.01,0.01,0.2693241961644843,0.28885843604485056,0.01,0.01,0.01,0.01
296,Dudley,-2.081112,52.51225,0.01,0.01,0.01,0.01,0.01,0.01,0.01,0.2002411088981481,0.01,0.01,0.01,0.488847177386442,0.01,0.01,0.01,0.01,0.01,0.09102041161448783,0.01,0.01,0.01,0.3250262708595148,0.01,0.01,0.01,0.01
297,Cheltenham,-2.0782533,51.899390000000004,0.01,0.01,0.01,0.01,0.01,0.01,0.01,0.01,0.01,0.01,0.02736756489497355,0.23578707133591895,0.01,0.01,0.01,0.01,0.01,0.01,0.01,0.01,0.021821072562865456,0.4082727542263554,0.01,0.01,0.01,0.01
298,Bromsgrove,-2.061906,52.33559,0.01,0.01,0.01,0.01,0.01,0.01,0.01,0.17520885257134777,0.01,0.01,0.0455096557996045,0.35644675925614194,0.01,0.01,0.01,0.01,0.01,0.07964189754691114,0.01,0.01,0.01,0.2856269468967239,0.01,0.01,0.01,0.01
299,Skipton,-2.0162787,53.96285,0.01,0.01,0.01,0.01,0.01,0.24376551707308694,0.027903658656450562,0.2883181924686735,0.13413005008192874,0.4625427551102238,0.13690851437225648,0.2772457029899108,0.4311939830387325,0.28268232553174866,0.01,0.011054492839424621,0.1894753452130411,0.02553733932028455,0.06282411953382971,0.1105157767344578,0.01,0.11669855259583421,0.46254275511022375,0.032644429497127134,0.01,0.01
300,Fraserburgh,-2.007631,57.69335,0.01,0.01,0.15749376306186882,0.01,0.01,0.09716865770212076,0.01,0.03919061323122308,0.01,0.01,0.26975870783190614,0.13952716666410617,0.01,0.01,0.01,0.01,0.03292905906202984,0.01781425286425343,0.01,0.01,0.15827202088021158,0.11382949676976609,0.01,0.01,0.01,0.01
301,Berwick,-2.005395,55.77024,0.01,0.01,0.01,0.01,0.01,0.17383497193089184,0.10745332151321023,0.16826905921200316,0.01,0.01,0.16390154307322308,0.14976866554860258,0.01,0.01,0.01,0.17027760029609423,0.3888071348821895,0.05736554137864534,0.01,0.01,0.25701219942454645,0.10184508459086888,0.01,0.01,0.01,0.01
302,Poole,-1.987248,50.71505,0.01,0.01,0.01,0.01,0.01,0.3074917668050761,0.36958278962198976,0.09301449299892667,0.01,0.01,0.01,0.08830718801062282,0.01,0.01,0.01,0.01,0.01,0.29596082657613954,0.01,0.8364439146193932,0.01,0.32742161050491997,0.01,0.01,0.01,0.01
303,Walsall,-1.9829189999999999,52.586209999999994,0.01,0.01,0.01,0.01,0.01,0.01,0.01,0.20298145212134372,0.01,0.01,0.05272345480365812,0.4129476321311779,0.01,0.01,0.01,0.01,0.01,0.18453208603958524,0.01,0.01,0.01,0.3301134743097006,0.01,0.01,0.01,0.01
304,Cirencester,-1.968243,51.71849,0.01,0.01,0.01,0.01,0.01,0.01,0.01,0.01,0.01,0.01,0.02545786072912673,0.17945499892784272,0.01,0.01,0.01,0.01,0.10980204090906219,0.05940167674030578,0.01,0.01,0.02029840171741499,0.3738876273094287,0.01,0.01,0.01,0.01
305,Evesham,-1.9467700000000001,52.09215,0.01,0.01,0.01,0.01,0.01,0.01,0.01,0.01,0.01,0.01,0.05654549321415198,0.13286493480597608,0.01,0.01,0.01,0.01,0.12194289542034667,0.01,0.01,0.01,0.015028535493370531,0.2607891837200256,0.01,0.01,0.01,0.01
306,Buxton,-1.91483,53.259080000000004,0.01,0.01,0.01,0.01,0.01,0.01,0.01,0.01,0.01,0.01,0.01,0.12222548868437426,0.16336575527158226,0.01,0.01,0.01,0.01,0.07447959081337945,0.01,0.01,0.06786864106830198,0.3015566803410046,0.01,0.01,0.01,0.01
307,Keighley,-1.9123580000000002,53.8678,0.01,0.01,0.01,0.01,0.01,0.2926475881483723,0.033499153220581876,0.34613436985821744,0.1610270235347843,0.5552960210443765,0.1354075724079472,0.31016294376879255,0.5176609090388324,0.45670926658483324,0.01,0.013271239946095874,0.22747065891830623,0.030658318081827556,0.07542218144663969,0.13267740204610678,0.01,0.14496665779432227,0.5552960210443764,0.039190586402544844,0.01,0.01
308,Birmingham,-1.8904009999999998,52.48624,0.01,0.01,0.01,0.01,0.01,0.01,0.01,0.33478030330909114,0.01,0.01,0.08695757176926722,0.6810806213614132,0.01,0.01,0.01,0.01,0.2812918571962158,0.30435149167058134,0.01,0.01,0.01,0.5612756430373983,0.01,0.01,0.01,0.01
309,Bournemouth,-1.880769,50.719159999999995,0.01,0.01,0.01,0.01,0.01,0.36761791368282476,0.1893643060102614,0.11120230702049047,0.01,0.01,0.01,0.07541039164332501,0.01,0.01,0.01,0.01,0.01,0.35383224314664363,0.01,1.0,0.01,0.4125444384500888,0.01,0.01,0.01,0.01
310,Halifax,-1.8575400000000002,53.727019999999996,0.01,0.01,0.01,0.01,0.01,0.37981197291906277,0.0330668590515629,0.341667633973836,0.15894902941743447,0.5481301314949821,0.13366018782161068,0.18303783398644605,0.6755454771700579,0.4508156025993133,0.01,0.01309997950835967,0.27076308031189944,0.030262683838435396,0.07444888612065391,0.1309652492974254,0.02681049667273749,0.1513746410924162,0.5481301314949821,0.03868484639560505,0.01,0.01
311,Salisbury,-1.794472,51.06878,0.01,0.01,0.01,0.01,0.01,0.01,0.34716963365239145,0.08737367746974486,0.01,0.01,0.01,0.059251317835491805,0.01,0.01,0.01,0.01,0.01,0.2780124362473395,0.01,0.01,0.01,0.3282404205458848,0.01,0.01,0.01,0.01
312,Ringwood,-1.7888169999999999,50.84495,0.01,0.01,0.01,0.01,0.01,0.2517641501180705,0.12968667138050594,0.07615720909165953,0.01,0.01,0.01,0.05164501634850441,0.01,0.01,0.01,0.01,0.01,0.24232299532890572,0.01,0.6848527798764693,0.01,0.26781371561340644,0.01,0.01,0.01,0.01
313,Huddersfield,-1.7850351000000002,53.645790000000005,0.01,0.01,0.01,0.01,0.01,0.5046269585816345,0.04393339258052728,0.45394750895528313,0.2111833512460528,0.7282583511979164,0.12062310461692069,0.24318829330225827,0.8975453219863351,0.5220190189923142,0.01,0.017404935305170025,0.7282583511979163,0.0402077006328643,0.098914509419275,0.17400345472239417,0.03562104503985614,0.21646770484985908,0.7282583511979162,0.05139758030737978,0.01,0.01
314,Peterhead,-1.784066,57.50812,0.01,0.01,0.18397186709840102,0.01,0.01,0.11350480827537386,0.01,0.01,0.01,0.01,0.3032199931356975,0.2095517537216538,0.01,0.01,0.01,0.01,0.01,0.01,0.01,0.01,0.1564377401819326,0.14451360009352426,0.01,0.01,0.01,0.01
315,Swindon,-1.7797176,51.55577,0.01,0.01,0.01,0.01,0.01,0.01,0.23357005272090306,0.13716169251059668,0.01,0.01,0.02672031608066616,0.2162584941789131,0.01,0.01,0.01,0.01,0.11524712428156252,0.06234740597848229,0.01,0.01,0.02130499948886594,0.37813855525441803,0.01,0.01,0.01,0.01
316,Bradford,-1.759398,53.79598000000001,0.01,0.01,0.01,0.01,0.01,0.41235501667865154,0.04720197413002523,0.4877205541279759,0.226895090424373,0.7824397305582793,0.17039643737269186,0.4849678991919417,0.7294099846548862,0.6435260868932985,0.01,0.018699837589449785,0.7824397305582792,0.25739461412541753,0.10627360739635189,0.18694906279516124,0.01,0.17582686435517714,0.7824397305582791,0.05522148674423443,0.01,0.01
317,Ashbourne,-1.7321790000000001,53.016630000000006,0.01,0.01,0.01,0.01,0.6675876986740782,0.01,0.3244248234474124,0.01,0.01,0.01,0.04948541981877914,0.2325517586934895,0.18994989162339607,0.044564544670961624,0.01,0.01,0.01,0.08659948457152129,0.01,0.01,0.01,0.29928249216304453,0.20375971188765513,0.2214005655262096,0.01,0.01
318,Marlborough,-1.7270619999999999,51.42007,0.01,0.01,0.01,0.01,0.01,0.01,0.3136772922881247,0.09210193646655347,0.01,0.01,0.01,0.08431792540995117,0.01,0.01,0.01,0.01,0.07738664582105109,0.20932655548861287,0.01,0.01,0.01,0.23764205795223775,0.01,0.01,0.01,0.01
319,Stratford-upon-Avon,-1.7082979999999999,52.19173,0.01,0.01,0.01,0.01,0.01,0.01,0.01,0.01,0.01,0.01,0.044195872481212185,0.2076940624155071,0.01,0.01,0.01,0.01,0.2859311368692764,0.01,0.01,0.01,0.01,0.3035001205360595,0.01,0.01,0.01,0.01
320,Alnwick,-1.7062990000000002,55.41274,0.01,0.01,0.01,0.01,0.01,0.13779190623098558,0.42586939061778517,0.22924694281505226,0.01,0.01,0.27066267600342214,0.05087808257613053,0.01,0.01,0.01,0.2952515246366804,0.12257619990885411,0.05683916297895163,0.01,0.01,0.12516886202044927,0.12487278657159184,0.01,0.01,0.01,0.01
321,Otley,-1.691786,53.90583,0.01,0.01,0.01,0.01,0.01,0.013079798439291487,0.026950232144050856,0.2784667886763881,0.12954702577561442,0.44673835715402443,0.09728880260523153,0.2677726296938981,0.4164607259960644,0.4146255045146267,0.01,0.010676777261549902,0.29603144328519515,0.14696090007167434,0.060677512813930114,0.1067396170245654,0.01,0.0948285845792243,0.4467383571540243,0.03152901789652224,0.01,0.01
322,Bishop Auckland,-1.6787880000000002,54.663819999999994,0.01,0.01,0.01,0.01,0.01,0.4102695594285781,0.01,0.09928334906024408,0.01,0.01,0.16762441821671184,0.0706940888410699,0.14848308665030732,0.01,0.01,0.06697896217128553,0.25026201395156417,0.01,0.01,0.01,0.020561929264858322,0.2257557807296095,0.01,0.01,0.01,0.01
323,Burton upon Trent,-1.6371358999999999,52.81403,0.01,0.01,0.01,0.01,0.6395549560449162,0.01,0.31080186784730834,0.01,0.01,0.01,0.01,0.2351636915926465,0.01,0.10673307783319333,0.01,0.01,0.01,0.08296307684916043,0.01,0.01,0.01,0.2945751167037361,0.19520361720094423,0.10605185916592115,0.01,0.01
324,Newcastle,-1.61778,54.97825,0.01,0.01,0.01,0.01,0.01,0.6471087580682823,1.0,0.5383034044369716,0.01,0.01,0.6355532516924656,0.11946874721924604,0.01,0.01,0.01,0.8253467325530343,0.2878258043646659,0.13346618524636908,0.01,0.01,0.17229425503757748,0.35618130844633805,0.01,0.01,0.01,0.01
325,Durham,-1.5848520000000001,54.77525,0.01,0.01,0.01,0.01,0.01,0.5767482101409029,0.71301547700404,0.3140334434493075,0.01,0.01,0.45315930491697204,0.1135774210474744,0.01,0.01,0.01,0.5884849942050275,0.08795324986072013,0.03172115381571888,0.01,0.01,0.15175399274427395,0.23774326566581408,0.01,0.01,0.01,0.01
326,Ashington,-1.5659829,55.18298000000001,0.01,0.01,0.01,0.01,0.01,0.38743197551107234,0.4789698346149293,0.25783109259582976,0.01,0.01,0.3044108358521208,0.05722192609725507,0.01,0.01,0.01,0.33206559814005737,0.13785987791445303,0.06392627667413892,0.01,0.01,0.14077581169640835,0.1349149706065588,0.01,0.01,0.01,0.01
327,Darlington,-1.559458,54.52361,0.01,0.01,0.01,0.01,0.01,0.44866048185940755,0.01,0.20652620372397312,0.01,0.01,0.049046115529744444,0.1524577423386662,0.2823954973883763,0.01,0.01,0.07961577269440222,0.29747853610895436,0.20116570706358014,0.01,0.01,0.024441314607456795,0.2645390470151268,0.01,0.01,0.01,0.01
328,Leeds,-1.5490774,53.80076,0.01,0.01,0.01,0.01,0.01,0.029278431614014944,0.060326658126557686,0.6233330633402039,0.2899841119551545,1.0,0.2177757988479345,0.6810758108131065,0.9322251365411165,0.9281170910777068,0.01,0.02389939679584937,1.0,0.3289641413553523,0.1358233781412461,0.2389309431689659,0.01,0.23770226792315394,1.0,0.07057602597050294,0.01,0.01
329,Harrogate,-1.5418120000000002,53.99211999999999,0.01,0.01,0.01,0.01,0.01,0.02067345427120513,0.04259655792207896,0.44013449048703324,0.2047573229643644,0.7060984189231365,0.15377114724624955,0.4232316912795647,0.976229875888951,0.6553420105855094,0.01,0.016875326290765914,0.28924513507505295,0.23228106009342145,0.09590467255833317,0.1687087612034206,0.01,0.1769969930645288,0.7060984189231364,0.049833620351650336,0.01,0.01
330,Leamington Spa,-1.5200789,52.28519,0.01,0.01,0.01,0.01,0.01,0.01,0.01,0.01,0.01,0.01,0.05418470514994935,0.2546355779753749,0.01,0.01,0.01,0.01,0.5258328537116901,0.01,0.01,0.01,0.01,0.3742319020707917,0.01,0.01,0.01,0.01
331,Coventry,-1.519693,52.40682,0.01,0.01,0.01,0.01,0.01,0.01,0.01,0.01,0.01,0.01,0.0609771229950382,0.382074483327127,0.01,0.01,0.01,0.01,0.5917495445786258,0.01,0.01,0.01,0.01,0.39857684222524675,0.01,0.13640755165575613,0.01,0.01
332,Blyth,-1.510277,55.12696,0.01,0.01,0.01,0.01,0.01,0.4047098699027887,0.5003299461761345,0.26932931336837995,0.01,0.01,0.343425229873527,0.05977379186593559,0.01,0.01,0.01,0.4129456862749081,0.14400786920587588,0.06677712928064984,0.01,0.01,0.08620397534940832,0.146966872986535,0.01,0.01,0.01,0.01
333,Wakefield,-1.505924,53.6833,0.01,0.01,0.01,0.01,0.01,0.01966114726003501,0.040510752924493486,0.41858263830341463,0.1947310704133355,0.6715232400161644,0.04119479000690725,0.45735823517385343,0.6260108441146016,0.6232521961148791,0.01,0.016049000370780706,0.8414267134522446,0.22090706605208166,0.09120855495935026,0.16044768109694202,0.01,0.11979981569049838,0.6715232400161643,0.5173784120672723,0.01,0.01
334,Andover,-1.4919233,51.2112,0.01,0.01,0.01,0.01,0.01,0.01,0.3168140519256402,0.0797339574533728,0.01,0.01,0.01,0.10814108103866767,0.01,0.01,0.01,0.01,0.13398944964954,0.2295415080655623,0.01,0.01,0.01,0.27400431091683336,0.01,0.01,0.01,0.01
335,Witney,-1.4850543999999999,51.785940000000004,0.01,0.01,0.01,0.01,0.01,0.01,0.01,0.01,0.01,0.01,0.01,0.24666354996054715,0.01,0.01,0.01,0.01,0.01,0.04792410959894574,0.01,0.01,0.01,0.28304775369817703,0.01,0.01,0.01,0.01
336,Barnsley,-1.479726,53.55263000000001,0.01,0.01,0.01,0.01,0.01,0.01,0.09673431035510359,0.25562816345522754,0.01,0.01,0.014755153159783757,0.3216622162836075,0.4955798399770396,0.7906292796889746,0.01,0.01,0.6682231150242546,0.2065721331263428,0.01,0.01,0.011764775894802754,0.15083500004939,0.3189657737664147,0.4621077181671572,0.01,0.6931615737849278
337,Derby,-1.4746186000000001,52.92253,0.01,0.01,0.01,0.01,0.8059690359132782,0.01,0.3916734276254263,0.01,0.01,0.01,0.059743036281704784,0.2963539755314189,0.3439857652913534,0.13450533848295945,0.01,0.01,0.01,0.2091006204441044,0.01,0.01,0.01,0.3555298950144794,0.24599617229950824,0.13364686471566536,0.01,0.01
338,Sheffield,-1.470085,53.381130000000006,0.01,0.01,0.01,0.01,0.01,0.01,0.139555211964358,0.081952411487354,0.01,0.01,0.09579034251508542,0.21118481531903718,0.2859822410908442,0.6709489731199666,0.01,0.01,0.9640221562997214,0.16763309918587121,0.01,0.01,0.01697263140332862,0.3540350472539415,0.01,1.0,0.01,1.0
339,Nuneaton,-1.465382,52.52049,0.01,0.01,0.01,0.01,0.01,0.01,0.01,0.01,0.01,0.01,0.052053531882984214,0.20385028528782406,0.01,0.07031592411364726,0.01,0.01,0.5051509856896881,0.09109368067810193,0.01,0.01,0.01,0.34150066249214506,0.01,0.11644522552778516,0.01,0.01
340,Northallerton,-1.429959,54.337959999999995,0.01,0.01,0.01,0.01,0.01,0.11314359136783896,0.01,0.14973562723500186,0.01,0.01,0.01333478091749829,0.13664551945560688,0.20474238216426646,0.04503284316256008,0.01,0.01,0.2156778868252346,0.14584915997195252,0.01,0.01,0.017720441799660803,0.18585966149776112,0.01,0.01,0.01,0.01
341,South Shields,-1.427406,54.99941999999999,0.01,0.01,0.01,0.01,0.01,0.52348131471731,0.6471633075804042,0.34837021169722254,0.01,0.01,0.41130674450877713,0.10308771947052599,0.01,0.01,0.01,0.5341341213397008,0.18627029955962754,0.08637441789417916,0.01,0.01,0.11150251996722035,0.20380392128321015,0.01,0.01,0.01,0.01
342,Chesterfield,-1.421629,53.23505,0.01,0.01,0.01,0.01,0.6834612147887063,0.01,0.09489680576085403,0.05572720620807228,0.01,0.01,0.06513692609159843,0.13037782279057863,0.48616611459426257,0.43342966645594555,0.01,0.01,0.01,0.2026482177929912,0.01,0.01,0.011541299553495733,0.24678698761892362,0.01,0.45332980832262254,0.01,0.6799947090839603
343,Southampton,-1.4043508999999998,50.9097,0.01,0.01,0.01,0.01,0.01,0.01,0.2321897959459156,0.13635115043488494,0.01,0.01,0.01,0.055478851406232835,0.01,0.01,0.01,0.01,0.22913218166557556,0.4338528103118485,0.01,0.01,0.01,0.5420844242997441,0.01,0.01,0.01,0.01
344,Wetherby,-1.384816,53.92706,0.01,0.01,0.01,0.01,0.01,0.012309151524824518,0.025362354980470778,0.2620598407810497,0.12191426169628064,0.4204170389691365,0.025790606495230795,0.2519957695373675,0.7074771823201196,0.3901962392475378,0.01,0.01004771363405946,0.4204170389691364,0.13830213023564164,0.057102462460928025,0.10045063964519968,0.01,0.08138060730211813,0.42041703896913646,0.029671363860727717,0.01,0.01
345,Sunderland,-1.383801,54.90687,0.01,0.01,0.01,0.01,0.01,0.5785361967879451,0.7152259080545432,0.1750038812396496,0.01,0.01,0.45456415155876134,0.07120595396006044,0.01,0.01,0.01,0.5903093662500941,0.2058604722882475,0.0954584735374102,0.01,0.01,0.12322931501183239,0.24710020856641327,0.01,0.01,0.01,0.01
346,Rotherham,-1.3635008999999998,53.4326,0.01,0.01,0.01,0.01,0.01,0.01,0.09795574744591247,0.05752353931638897,0.01,0.01,0.06723657588339736,0.14823356392512674,0.2007349190904126,0.47094843134070336,0.01,0.01,0.67666058146848,0.20918046169561463,0.01,0.01,0.011913326430700673,0.22645536786348824,0.01,0.701913931175355,0.01,0.701913931175355
347,Castleford,-1.345968,53.72346999999999,0.01,0.01,0.01,0.01,0.01,0.01679384921627987,0.03460283712104707,0.30818932758188566,0.16633231982824337,0.5735911485177034,0.03518711714644271,0.37894617387108875,0.6331211049372049,0.7141701083745392,0.01,0.013708482457011562,0.6772522000840976,0.16625913536919323,0.07790708746359169,0.13704867410870528,0.01,0.09817309360550193,0.49442159530318625,0.21252936943598827,0.01,0.01
348,Thirsk,-1.341377,54.23385,0.01,0.01,0.01,0.01,0.01,0.050182893617247454,0.02349981328872098,0.07245018123479936,0.11296121315630615,0.38954276630774654,0.03608388993998698,0.16746699891618064,0.5001426868179941,0.16947248372907062,0.01,0.01,0.19711802397323502,0.1395711725042963,0.052909014450404114,0.09307382055855795,0.01,0.13326668623208446,0.022139098102410278,0.01,0.01,0.01
349,Banbury,-1.339775,52.0629,0.01,0.01,0.01,0.01,0.01,0.01,0.01,0.01,0.01,0.01,0.01,0.16526371315749963,0.01,0.01,0.01,0.01,0.4095315710859849,0.01,0.01,0.01,0.01,0.29424476729267435,0.01,0.01,0.01,0.01
350,Stockton,-1.3289821000000002,54.57046,0.01,0.01,0.01,0.01,0.01,0.5531735319079565,0.01,0.2091647716975499,0.01,0.01,0.17385453868092612,0.15440553447838068,0.28600336748842003,0.01,0.01,0.08063293964094514,0.3012791063225658,0.20373578961227842,0.01,0.01,0.0247535755641417,0.24439773892578617,0.01,0.01,0.01,0.01
351,Newbury,-1.3231138999999998,51.40141,0.01,0.01,0.01,0.01,0.01,0.01,0.23005886689526836,0.01,0.01,0.01,0.01,0.24736359914073142,0.01,0.01,0.01,0.01,0.01,0.15352538945596467,0.01,0.01,0.027979638265879174,0.35403240701876143,0.01,0.01,0.01,0.01
352,Isle of Wight,-1.304734,50.69385,0.01,0.01,0.01,0.01,0.01,0.01,0.15780390014230988,0.09266877228544354,0.01,0.01,0.01,0.06284211720413081,0.01,0.01,0.01,0.01,0.1557258438840544,0.2948607852295922,0.01,0.8333349798972077,0.01,0.34348345876308595,0.01,0.01,0.01,0.01
353,Isle of Wight,-1.304734,50.69385,0.01,0.01,0.01,0.01,0.01,0.01,0.15780390014230988,0.09266877228544354,0.01,0.01,0.01,0.06284211720413081,0.01,0.01,0.01,0.01,0.1557258438840544,0.2948607852295922,0.01,0.8333349798972077,0.01,0.34348345876308595,0.01,0.01,0.01,0.01
354,Abingdon,-1.2879528999999998,51.67078,0.01,0.01,0.01,0.01,0.01,0.01,0.01,0.01,0.01,0.01,0.01,0.19229781740690474,0.01,0.01,0.01,0.01,0.01,0.05054781037286608,0.01,0.01,0.01,0.3145640188728191,0.01,0.01,0.01,0.01
355,Shetland Islands,-1.2659409,60.52965,0.01,0.01,0.10581146084558972,0.01,0.01,0.06528231607385951,0.01,0.02633003337282127,0.01,0.01,0.16071884746388845,0.061601021747873096,0.01,0.01,0.01,0.01,0.022123236983393073,0.011968423909579924,0.01,0.01,0.18812996720326067,0.05477428503084595,0.01,0.01,0.01,0.01
356,Rugby,-1.265032,52.37088,0.01,0.01,0.01,0.2435318048151528,0.01,0.01,0.01,0.01,0.01,0.01,0.04885545828425272,0.07653043848586707,0.01,0.06599584260632937,0.01,0.01,0.4741154349351488,0.01,0.01,0.01,0.01,0.34042221075861057,0.01,0.1092910442842166,0.01,0.01
357,Oxford,-1.2577263,51.75202,0.01,0.01,0.01,0.01,0.01,0.01,0.01,0.01,0.01,0.01,0.01,0.2999012494245265,0.01,0.01,0.01,0.01,0.01,0.07883267574701165,0.01,0.01,0.01,0.5167172696048916,0.01,0.01,0.01,0.01
358,Middlesbrough,-1.234956,54.57423000000001,0.01,0.01,0.01,0.01,0.01,0.5422786269242375,0.01,0.24962026010217278,0.01,0.01,0.17043042568444208,0.18426979536229365,0.3413205503161361,0.01,0.01,0.09622851497708156,0.3595508377115016,0.24314123445546834,0.01,0.01,0.02954127466414182,0.3122139084544447,0.01,0.01,0.01,0.01
359,Hartlepool,-1.212926,54.69174,0.01,0.01,0.01,0.01,0.01,0.5294298413269707,0.01,0.20018685910202186,0.01,0.01,0.16639223592341312,0.11286983735982684,0.27372733642210545,0.01,0.01,0.07717195776267902,0.2883473996041228,0.19499090347837048,0.01,0.01,0.023691085757478594,0.2388276300608562,0.01,0.01,0.01,0.01
360,Loughborough,-1.206166,52.7721,0.01,0.01,0.01,0.5390249775401639,0.01,0.01,0.35446481257829027,0.01,0.01,0.01,0.01,0.1835056864973972,0.3113074342643609,0.12172745515362768,0.01,0.01,0.01,0.09461812983924325,0.01,0.01,0.01,0.3509201033772105,0.22262676239684073,0.12095053560390961,0.01,0.01
361,Mansfield,-1.198674,53.1472,0.01,0.01,0.01,0.4684143965708526,0.6338532515924856,0.01,0.0880088695535614,0.1421264106754695,0.01,0.01,0.06040906419929496,0.17611467399822767,0.270527137043655,0.40196985209275016,0.01,0.01,0.01,0.22905103726120266,0.01,0.01,0.010703592378461118,0.20723427168754885,0.1934633549720217,0.2102127834918601,0.01,0.6306383567819638
362,Nottingham,-1.1581086,52.95478000000001,0.01,0.01,0.01,0.7389950203679063,1.0,0.01,0.48596585001755593,0.14268929966602611,0.01,0.01,0.07412572148507836,0.39672782295420683,0.42679774279612154,0.16688648383438906,0.01,0.01,0.01,0.32430002718866036,0.01,0.01,0.01,0.40053825494457956,0.305217894656163,0.3316426680209084,0.01,0.01
363,Bicester,-1.1535898999999998,51.8996,0.01,0.01,0.01,0.01,0.01,0.01,0.01,0.01,0.01,0.01,0.01,0.16935449554771345,0.01,0.01,0.01,0.01,0.01,0.06306558207384812,0.01,0.01,0.01,0.25005211766603436,0.01,0.01,0.01,0.01
364,Leicester,-1.1397591999999999,52.636880000000005,0.01,0.01,0.01,0.6560164710149512,0.01,0.01,0.4313988500268699,0.01,0.01,0.01,0.01,0.05153868016453355,0.01,0.0888885151981581,0.01,0.01,0.42571789331103865,0.01,0.01,0.01,0.01,0.48493238148633927,0.01,0.14720197920389094,0.01,0.01
365,Doncaster,-1.128462,53.522819999999996,0.01,0.01,0.01,0.01,0.01,0.01,0.10146183353153786,0.05958245353073334,0.01,0.01,0.015476255406532084,0.16768099291155464,0.2079197339182576,1.0,0.01,0.01,0.7008799898364044,0.21666756403782939,0.01,0.01,0.041132447520707806,0.17732081437986102,0.01,0.7270372213504352,0.01,0.7270372213504352
366,Worksop,-1.122745,53.3093,0.01,0.01,0.01,0.01,0.5275789573819172,0.01,0.0732529611905828,0.11829694550309901,0.01,0.01,0.050280646232562703,0.10574655622640733,0.01,0.4050106643196944,0.01,0.01,0.12650455269198957,0.19064745210647516,0.01,0.01,0.01,0.15655661020444722,0.01,0.5249030843025154,0.01,0.5249030843025153
367,Basingstoke,-1.0923964,51.26654,0.01,0.01,0.01,0.01,0.01,0.01,0.3827405172838486,0.09632595979798078,0.01,0.01,0.01,0.2351598723283287,0.01,0.01,0.01,0.01,0.161871578823235,0.18973654520428243,0.01,0.01,0.026599256606958638,0.3070501905133346,0.01,0.01,0.01,0.01
368,Portsmouth,-1.0879769,50.81977,0.01,0.01,0.01,0.01,0.01,0.01,0.5000639918761619,0.12585326358706722,0.01,0.01,0.01,0.18776062618936015,0.01,0.01,0.01,0.01,0.21149091416312626,0.17162133402307234,0.01,0.01,0.01,0.46289244469553326,0.01,0.01,0.01,0.01
