index,placename,longitude,latitude,aint,amnt,arent,ent,int
0,Dingle,-10.264013499999999,52.14094,0.04007434413609735,0.14355896696934545,0.09178233567728743,0.01,0.01
1,Tralee,-9.6999325,52.27131,0.06544997770797001,0.2017005810224299,0.15714644178487572,0.01,0.01
2,Killarney,-9.5044265,52.059940000000005,0.09856950165725796,0.29741281478239817,0.26474830191317456,0.01,0.01
3,Bantry,-9.4539805,51.68035,0.03476832028923914,0.13630237193717482,0.10727375973874897,0.01,0.01
4,Mayo,-9.4289369,54.01526,0.07927608408029177,0.2174017640558126,0.1339059867418316,0.01,0.01
5,Ballycastle,-9.3724643,54.279669999999996,0.01662893958668125,0.0776394781548089,0.01,0.01,0.01
6,Abbeyfeale,-9.2970823,52.386179999999996,0.01,0.06864648846420444,0.01,0.01,0.01
7,Ennistymon,-9.2934951,52.940369999999994,0.01,0.06864648846420444,0.01,0.01,0.01
8,Galway,-9.0567905,53.270669999999996,0.10366144175949817,0.4621659697843763,0.3654558790559514,0.01,0.01
9,Claremorris,-9.0017356,53.72388,0.11175145980149141,0.32084598965441113,0.21765412397545789,0.01,0.01
10,Clare,-8.9811351,52.90453,0.09418031934595959,0.2675286294294979,0.2311518097302257,0.01,0.01
11,Adare,-8.7925892,52.56363,0.03312951652455192,0.13676433868916935,0.0841436718694724,0.01,0.01
12,Charleville,-8.681017599999999,52.36206,0.01,0.06566932623730878,0.01,0.01,0.01
13,Mallow,-8.6539164,52.13898,0.04602154329439405,0.16304781392333334,0.13685261570087026,0.01,0.01
14,Limerick,-8.6267343,52.66384,0.126798586310685,0.3667123328352116,0.3426563787558827,0.01,0.01
15,Loughrea,-8.5660931,53.19891,0.01,0.07055333530184851,0.01070547896795538,0.01,0.01
16,Sligo,-8.476088800000001,54.27661,0.11382811332511618,0.2931531980864147,0.23977402018177324,0.01,0.01
17,Cork,-8.4756035,51.898509999999995,0.13577935550376044,0.4077390371822723,0.46593897441000376,0.01,0.01
18,Nenagh,-8.19834,52.8635,0.0551703111374963,0.2091882704454209,0.18703482354984094,0.01,0.01
19,Roscommon,-8.1890955,53.627590000000005,0.09883852486703804,0.33721418201806735,0.15054817068783463,0.01,0.01
20,Tipperary,-8.161851400000002,52.47379,0.07483168379037591,0.2508140335852915,0.2598242852225232,0.01,0.01
21,Donegal,-8.1096143,54.653830000000006,0.0776435555392759,0.1501626551726859,0.3252010177291055,0.01,0.01
22,Leitrim,-8.0020132,54.12469,0.07050444650265499,0.23697952437201247,0.15013088619187503,0.01,0.01
23,Athlone,-7.9406898,53.423930000000006,0.06676779276291456,0.36756548493935903,0.13231493055995236,0.01,0.01
24,Longford,-7.7932573000000005,53.727630000000005,0.06658250498028585,0.4161574575485905,0.1398408768724698,0.01,0.01
25,Offaly,-7.7122229,53.235690000000005,0.07737869308728147,0.4797018340240453,0.19330289231179268,0.01,0.01
26,Fermanagh,-7.6318728,54.343830000000004,0.02833796310696913,0.08526547692524764,0.15748341331391813,0.01,0.01
27,Enniskillen,-7.631533599999999,54.343819999999994,0.03982262163390335,0.10449680520398705,0.20870350508196464,0.01,0.01
28,Doon,-7.60964,54.185930000000006,0.01783388120553657,0.07757997071955823,0.1094811307647414,0.01,0.01
29,Westmeath,-7.4653217000000005,53.534530000000004,0.05234231867007883,0.34506965411209795,0.14765877809596611,0.01,0.01
30,Strabane,-7.4633103,54.82739,0.05060685248917926,0.0775606380470385,0.22244084430511646,0.01,0.01
31,Balivanich,-7.3743509000000005,57.472269999999995,0.0466357382140498,0.010984774724075452,0.017961641044120485,0.01,0.01
32,Cavan,-7.3633319,53.98972,0.05848657911043952,0.42616999995192084,0.17382535648138947,0.01,0.01
33,Mullingar,-7.340186800000001,53.525819999999996,0.041597079894147286,0.34105520793984384,0.14753045598726505,0.01,0.01
34,Laois,-7.332300699999999,52.9943,0.07442009637092077,0.39419249502779924,0.20354682535612056,0.01,0.01
35,Omagh,-7.309959700000001,54.59771,0.05454978700951203,0.08173913614306598,0.23817477068735934,0.01,0.01
36,Derry,-7.308574799999999,54.99661,0.08912341684480787,0.1183783056992855,0.37613773806363543,0.01,0.01
37,Derry,-7.308574799999999,54.99661,0.08912341684480787,0.1183783056992855,0.37613773806363543,0.01,0.01
38,Kilkenny,-7.2447879,52.65415,0.07450855868400101,0.4183440833752318,0.2509827155918365,0.01,0.01
39,Tyrone,-7.131232000000001,54.491209999999995,0.03108218951115998,0.06356004430783295,0.16972231707210905,0.01,0.01
40,Waterford,-7.110070200000001,52.25932,0.08082762524290166,0.45824216416699515,0.2866301418440513,0.01,0.01
41,Western Isles,-7.0194034,57.759890000000006,0.12613023568263051,0.022734512608037997,0.10765303070818853,0.01,0.01
42,Monaghan,-6.9683132,54.2492,0.03963553509248835,0.10079544511078092,0.2468821873689658,0.01,0.01
43,Carlow,-6.934135899999999,52.83651,0.08116555257747562,0.3981821068376581,0.2161157099215649,0.01,0.01
44,Kildare,-6.8194707999999995,53.21204,0.08746453105922306,0.4915479210397446,0.2833814764492836,0.01,0.01
45,Dungannon,-6.7669352,54.508269999999996,0.02651625917741838,0.05227001917087458,0.18173626334248016,0.01,0.01
46,Cookstown,-6.7443895000000005,54.641819999999996,0.035875311839566694,0.062233812940617944,0.22964826173449743,0.01,0.01
47,Coleraine,-6.6646103000000005,55.132580000000004,0.05731119775252373,0.08505479306891431,0.3367968746340943,0.01,0.01
48,Meath,-6.656416900000001,53.60555,0.06840769502702915,0.48353155670707537,0.23824116975415502,0.01,0.01
49,Armagh,-6.652792,54.350280000000005,0.03872979131258431,0.10034162384313063,0.24539640429884058,0.01,0.01
50,Armagh,-6.652792,54.350280000000005,0.03872979131258431,0.10034162384313063,0.24539640429884058,0.01,0.01
51,Magherafelt,-6.607980499999999,54.75536999999999,0.03943289027125753,0.06602126655292809,0.2478606490616909,0.01,0.01
52,Dunvegan,-6.581398200000001,57.4366,0.040296646718130325,0.01,0.01,0.01,0.01
53,Louth,-6.4889423,53.925230000000006,0.06651583588532721,0.41034749640852136,0.25948710722022816,0.01,0.01
54,Wexford,-6.4633381,52.33692,0.08094652405537917,0.42071447797958295,0.2707611203839621,0.01,0.01
55,Craigavon,-6.4175653,54.442930000000004,0.048349007757384675,0.07879670323923367,0.29120694661797364,0.01,0.01
56,Stornoway,-6.384869200000001,58.209430000000005,0.20422585968540324,0.024864552551118267,0.14505027481863406,0.07555629688409149,0.01
57,Drogheda,-6.3560985,53.717859999999995,0.05549420570330732,0.3852707583049106,0.16755008144467967,0.01,0.01
58,Rosslare,-6.3414908,52.25131,0.01,0.09434137739407282,0.01,0.01,0.01
59,Newry,-6.34023,54.1751,0.04896881879110259,0.3324623662520544,0.23132052605039022,0.01,0.01
60,Scilly Isles,-6.327496599999999,49.92773,0.10954133190108155,0.01,0.12104759185167453,0.09291850198235882,0.01
61,Ballymena,-6.2802213,54.86529,0.04636444607826252,0.07340070998941138,0.28111161765513376,0.01,0.01
62,Banbridge,-6.2704803,54.34873,0.03636928130122316,0.070166124345571,0.2373614572256456,0.01,0.01
63,Dublin,-6.2603097000000005,53.34981,0.15111954594400473,1.0,0.5740972860889348,0.01,0.01
64,Antrim,-6.2072498,54.719530000000006,0.05047503957662718,0.07101370448729959,0.3114902278439447,0.01,0.01
65,Antrim,-6.2072498,54.719530000000006,0.05047503957662718,0.07101370448729959,0.3114902278439447,0.01,0.01
66,Portree,-6.1960231,57.41246999999999,0.16272409889618894,0.029408052357397414,0.16311804845584477,0.01,0.01
67,Islay,-6.177067,55.73625,0.11908122328542574,0.03807419768127501,0.11941809450107348,0.01,0.01
68,Wicklow,-6.044589,52.980819999999994,0.08155393506124431,0.43607507522981176,0.2435452211284874,0.01,0.01
69,Kilkeel,-6.007004,54.06312,0.021795601151027702,0.20857029701086502,0.1170335168847934,0.01,0.01
70,Mull,-6.0008870000000005,56.4392,0.1396132690826953,0.03861052811902204,0.11157039332945598,0.01,0.01
71,Belfast,-5.93012,54.597280000000005,0.10805340836454265,0.11661630815721043,0.6287798444653298,0.01,0.01
72,Broadford,-5.9096592,57.24139,0.03767563280439951,0.01,0.01,0.01,0.01
73,Down,-5.7156921999999994,54.32875,0.04246895890915778,0.15485257281105458,0.30073927083639335,0.01,0.01
74,Kyle of Lochalsh,-5.7143293,57.28261,0.03830604620564583,0.01,0.01,0.01,0.01
75,Campbeltown,-5.605373999999999,55.424119999999995,0.07369915459937489,0.030853345561167,0.16075768224235182,0.01,0.01
76,Penzance,-5.537592,50.1188,0.1836446171684577,0.01,0.24713683415984622,0.15061168071661335,0.01
77,Oban,-5.471047,56.41516,0.18536254236829344,0.05146161694005392,0.1758767511608937,0.01,0.01
78,Lochgilphead,-5.4323449,56.03829,0.11651784746848297,0.03311264689181774,0.08577153386152155,0.01,0.01
79,Helston,-5.274996,50.10159,0.1332346280776777,0.01,0.16971107204426142,0.11379606788445584,0.01
80,Redruth,-5.226666000000001,50.23302,0.15154493359928417,0.01,0.19783425526944637,0.12716851908074608,0.01
81,Ullapool,-5.161313,57.895419999999994,0.13561364382901944,0.03876601498199313,0.09546580765481066,0.058899440880869444,0.01
82,Ballachulish,-5.133719999999999,56.673930000000006,0.046561993052052275,0.010196216787952917,0.01,0.01,0.01
83,Fort William,-5.1052179,56.81981999999999,0.1859675563083391,0.030753662516714946,0.16838509240326519,0.01,0.01
84,Achnasheen,-5.078765799999999,57.578590000000005,0.04805109847891293,0.01,0.01,0.02483698754165751,0.01
85,Newquay,-5.0737190000000005,50.4155,0.1780887566084513,0.01,0.23860347111365005,0.1465541037360212,0.01
86,Falmouth,-5.066269999999999,50.152570000000004,0.19375432443030044,0.01,0.2626645461001132,0.1579950401481774,0.01
87,Rothesay,-5.055793,55.83596,0.18037801978229973,0.0483146075295096,0.1589857171637202,0.01,0.01
88,Truro,-5.051041000000001,50.2632,0.2765335706849335,0.01,0.3898069308579564,0.21845069061777442,0.01
89,Milford Haven,-5.0426971,51.71431,0.19000425760277673,0.01,0.1348062669335903,0.01,0.01
90,Stranraer,-5.024055000000001,54.903369999999995,0.06025151237122006,0.03450721208477047,0.20011671587447644,0.01,0.01
91,Fishguard,-4.975989,51.99393,0.15861494390963005,0.01,0.08909791352485297,0.01,0.01
92,Inchnadamph,-4.974295,58.15221,0.04184644893123981,0.01578815883886593,0.01,0.02398785983082094,0.01
93,Haverfordwest,-4.971319,51.800470000000004,0.22371780803510588,0.01,0.1487516480074099,0.01,0.01
94,Dunoon,-4.926214,55.95097,0.16928173941417196,0.043997050039124026,0.13684670370857072,0.01,0.01
95,Pembroke,-4.908637000000001,51.674040000000005,0.2755784427663743,0.01,0.21410683639887462,0.01,0.01
96,Girvan,-4.8542179,55.240159999999996,0.15099346238869776,0.042956011996820975,0.13697305819919492,0.01,0.01
97,Wadebridge,-4.836456,50.51665,0.14318315468684165,0.01,0.18963914555053268,0.12106171450107024,0.01
98,Invergarry,-4.800261,57.07095,0.039014513851574756,0.014124835381029497,0.01,0.01,0.01
99,St Austell,-4.7834252,50.340379999999996,0.1566112242288793,0.01,0.21064011382357195,0.13086855285485188,0.01
100,Greenock,-4.7719830000000005,55.956480000000006,0.28299630920830393,0.06759301633579134,0.24231383982985494,0.01,0.01
101,Helensburgh,-4.734014,56.00232,0.1811988492235349,0.0467298216550647,0.1478529995624863,0.01,0.01
102,Bodmin,-4.7188629,50.4715,0.13178260963265365,0.01,0.17180914517491455,0.11273562547230723,0.01
103,Tenby,-4.703579,51.672740000000005,0.2608080307060227,0.01,0.1307253748836097,0.01,0.01
104,Camelford,-4.682364,50.62206,0.09568651217012697,0.01,0.11535628013590714,0.08637378753952345,0.01
105,Irvine,-4.6696364,55.61156999999999,0.2949191068263186,0.07280757072839786,0.2692089568773857,0.01,0.01
106,Cardigan,-4.660864,52.0837,0.19413129603249868,0.01,0.11498001060721288,0.01,0.01
107,Holyhead,-4.633038,53.30944,0.059545356732104496,0.013416876707974578,0.20039997249393945,0.01,0.01
108,Ayr,-4.629179,55.45856,0.31867309948513506,0.07825471509039982,0.2945579015590868,0.01,0.01
109,Dumbarton,-4.564554,55.94529,0.25796965001239,0.06433450987273896,0.22977854405171091,0.01,0.01
110,Bude,-4.543678,50.826640000000005,0.15173838078281376,0.01,0.17900702523164208,0.07881082770215052,0.01
111,Isle of Man,-4.5126330999999995,54.27697,0.08063158823414336,0.021498660982035702,0.39439463246594625,0.01,0.01
112,Kilmarnock,-4.498792,55.61472,0.27930423917303304,0.06922684897257832,0.2525456353869537,0.01,0.01
113,Newton Stewart,-4.483164,54.9603,0.08476409904658982,0.02032676315246469,0.13670311098513002,0.01,0.01
114,Liskeard,-4.4647190000000005,50.45552,0.14252793873664407,0.01,0.1886144137870419,0.1205831947190352,0.01
115,Altnaharra,-4.442655,58.28023,0.04023575482952589,0.015393454798623736,0.01,0.023388163373640886,0.01
116,Pwllheli,-4.417633900000001,52.888819999999996,0.0671206870080508,0.01,0.17670865059862406,0.01,0.01
117,Lairg,-4.402414,58.022059999999996,0.04023575482952589,0.015393454798623736,0.01,0.023388163373640886,0.01
118,Launceston,-4.360451599999999,50.636829999999996,0.14304005473986192,0.01,0.16660136367997264,0.0748782693796032,0.01
119,Carmarthen,-4.312131,51.857620000000004,0.3054884993081324,0.01,0.18736088673846768,0.01,0.01
120,Llangefni,-4.311401999999999,53.255790000000005,0.052853386015817086,0.01,0.28967894825446155,0.01,0.01
121,Caernarfon,-4.273911,53.13955,0.0915428994105302,0.01,0.25057833198484974,0.01,0.01
122,Cumnock,-4.265828900000001,55.45355,0.22693953064085895,0.05519339488775029,0.1808001580742068,0.01,0.01
123,Aberaeron,-4.2581619,52.24279,0.18640417362594497,0.01,0.09792719379499104,0.02727356274171614,0.01
124,Alness,-4.256825,57.69595,0.1715642091138735,0.047575780569664154,0.1524065041408855,0.07228462636543925,0.01
125,Glasgow,-4.251806,55.86424,0.5892994266245302,0.09023101159930587,0.565504941976192,0.01,0.01
126,Dalwhinnie,-4.242783,56.9366,0.04805109847891293,0.01634703176715892,0.01,0.01,0.01
127,Inverness,-4.224721,57.47776999999999,0.2897969615419123,0.07654897587741868,0.2876123546834596,0.11630527242435726,0.01
128,Saltash,-4.21643,50.409209999999995,0.145191702624908,0.01,0.1696700708436775,0.07585104054910717,0.01
129,Bideford,-4.206666,51.01668,0.19544821724848963,0.01,0.18607048603844106,0.06272780856556971,0.01
130,Invergordon,-4.1728819999999995,57.688109999999995,0.16229567987282995,0.04813603767893243,0.16063673989461533,0.07313585729275401,0.01
131,Llanelli,-4.160248,51.680890000000005,0.3822076835785509,0.01,0.2006483814954083,0.01,0.01
132,Plymouth,-4.1426565,50.37546,0.31456322462235614,0.01,0.4112298569468941,0.15242478418030586,0.01
133,Tavistock,-4.141654,50.551120000000004,0.16229719240569213,0.01,0.20050401172664462,0.08668024342759297,0.01
134,Porthmadog,-4.1333839999999995,52.92784,0.0916741766052733,0.01,0.21914341626842898,0.01,0.01
135,Bangor,-4.129263,53.22739,0.07078382509235129,0.01,0.37508007422798867,0.01,0.01
136,Tywyn,-4.087249,52.58701,0.07501573700648728,0.01,0.10941250527011774,0.01,0.01
137,Aberystwyth,-4.08292,52.4153,0.31089210582405086,0.01,0.21445164245061119,0.0453916284987327,0.01
138,Lampeter,-4.0785089999999995,52.1129,0.21413079684471667,0.01,0.10580498441914367,0.02966856804724529,0.01
139,Barnstaple,-4.058338,51.07816,0.26674462853903275,0.01,0.24357970833892975,0.01,0.01
140,Tain,-4.05523,57.8115,0.12349485092708712,0.03579627891328652,0.09743646982120069,0.05438735036057094,0.01
141,Okehampton,-4.004263,50.73831,0.11633354094383916,0.01,0.14465398777862432,0.07327146797967989,0.01
142,Llandeilo,-3.9914300000000003,51.88469,0.3011936515508945,0.01,0.13604659804231828,0.01,0.01
143,Motherwell,-3.9810968,55.78321,0.3495383024888216,0.08533256591482428,0.327495535866199,0.01,0.01
144,Golspie,-3.976086,57.97341,0.04023575482952589,0.015393454798623736,0.01,0.023388163373640886,0.01
145,Airdrie,-3.9625660000000003,55.86626999999999,0.3090785228253425,0.07536313205132976,0.2752401096707305,0.01,0.01
146,Swansea,-3.9436459999999998,51.62144,0.553263250936641,0.01,0.33181564807939257,0.01,0.01
147,Stirling,-3.9369029,56.116519999999994,0.31228950424782254,0.07896418579822376,0.31014262474398485,0.01,0.01
148,Tregaron,-3.934385,52.22,0.20123746815359395,0.01,0.10672579529285027,0.02982430944754258,0.01
149,Tregaron,-3.934385,52.22,0.20123746815359395,0.01,0.10672579529285027,0.02982430944754258,0.01
150,Castle Douglas,-3.9314139999999997,54.940419999999996,0.10413183538838541,0.01885259286879116,0.15473200547518973,0.01,0.01
151,Dolgellau,-3.8844,52.74215,0.0528448848989677,0.01,0.1312121699432881,0.01,0.01
152,Aberfeldy,-3.866969,56.62175,0.1582623479807566,0.1159037256955601,0.14824232028323978,0.01,0.01
153,Machynlleth,-3.853485,52.59027,0.08761756869381038,0.01,0.1556484226254353,0.01,0.01
154,Brora,-3.8525480000000005,58.012159999999994,0.10604744670990524,0.031520754241682325,0.07748437466567308,0.047891299224834254,0.01
155,Llandudno,-3.827609,53.324059999999996,0.04486915513521025,0.01,0.3233554973234566,0.01,0.01
156,Llandudno,-3.827609,53.324059999999996,0.04486915513521025,0.01,0.3233554973234566,0.01,0.01
157,Aviemore,-3.823812,57.19449,0.1552842366038085,0.04358633759846992,0.13378943327997697,0.0662232356509613,0.01
158,Dalbeattie,-3.8225269999999996,54.934219999999996,0.08146328934380205,0.013544937272306377,0.10737416660221549,0.01,0.01
159,Falkirk,-3.7839131,56.00188000000001,0.2841294648828666,0.12465584753046027,0.31416172651563734,0.01,0.01
160,Kingsbridge,-3.777493,50.28395,0.14147447669301644,0.01,0.18236683134422932,0.07987588434202657,0.01
161,Pitlochry,-3.729711,56.70436,0.11585334815012338,0.08872355590913687,0.10060489624202393,0.01,0.01
162,Colwyn Bay,-3.72764,53.29318000000001,0.040482090891933324,0.01,0.2977965213149596,0.01,0.01
163,Totnes,-3.685797,50.43374,0.14433447358880033,0.01,0.19122306424055016,0.08804073011843477,0.01
164,Grantown-on-Spey,-3.609628,57.33041,0.11364702752911586,0.03338304735879582,0.08812222653341527,0.050720788224989106,0.01
165,Dumfries,-3.60512,55.070859999999996,0.21813640547060825,0.02949419910198903,0.25383742718367897,0.01,0.01
166,Whitehaven,-3.589233,54.5497,0.12401287549165331,0.01,0.2555662709000867,0.01,0.01
167,Dartmouth,-3.578807,50.35252,0.14209261820968314,0.01,0.14749228287459917,0.03594134438368572,0.01
168,Bridgend,-3.576945,51.504290000000005,0.5254798836994476,0.01,0.20507805959149877,0.01,0.01
169,Paignton,-3.564235,50.43508,0.23979054777795347,0.01,0.2668900242598659,0.05535584667340502,0.01
170,Workington,-3.5427519999999997,54.64357,0.11983259955308476,0.01,0.25339249586171037,0.01,0.01
171,Llanidloes,-3.5401949999999998,52.447790000000005,0.12168595211705172,0.01,0.11242086360970152,0.03512059820219706,0.01
172,Exeter,-3.533899,50.71841,0.3639049639116743,0.01,0.43911475894378776,0.07644544363627187,0.01
173,Torquay,-3.525315,50.46192,0.2427444228772045,0.01,0.27497679990209656,0.05597906075219037,0.01
174,Thurso,-3.5220800000000003,58.59356999999999,0.1607956313118279,0.0449369169600623,0.14009202536102613,0.0682752487416688,0.01
175,Livingston,-3.518068,55.90071,0.270188368861407,0.1434876956097738,0.3090314848766486,0.01,0.01
176,Rhyl,-3.4916339999999995,53.319140000000004,0.03669160753745543,0.01,0.29489864276011196,0.01,0.01
177,Tiverton,-3.491207,50.90205,0.16828333967355885,0.01,0.20180607365425546,0.01,0.01
178,Tiverton,-3.491207,50.90205,0.16828333967355885,0.01,0.20180607365425546,0.01,0.01
179,Minehead,-3.481152,51.20428,0.17829350992217993,0.01,0.13478261912103515,0.01,0.01
180,Dunfermline,-3.452151,56.071740000000005,0.2741926352278099,0.15575769790309676,0.2809469067055738,0.01,0.01
181,Perth,-3.4308381000000003,56.39499,0.19630694365203719,0.1334434708594456,0.17083121591295608,0.01,0.01
182,Prestatyn,-3.4076129999999996,53.33651,0.029693242777707626,0.01,0.25251346666481267,0.01,0.01
183,Builth Wells,-3.4045919999999996,52.15002,0.24101386770734154,0.01,0.11401486573120412,0.11122788986187648,0.01
184,Braemar,-3.3979439,57.00646999999999,0.0327885493715498,0.028477100746517364,0.01,0.017306760188347082,0.01
185,Brecon,-3.391463,51.94895,0.4020336074901952,0.01,0.07606147387724194,0.15809343330816508,0.01
186,Merthyr Tydfil,-3.381646,51.74873,0.6878244060091311,0.01,0.17015774809831982,0.24980519066655668,0.01
187,Llandrindod Wells,-3.377742,52.2417,0.2153451962356489,0.01,0.09613364538360232,0.10039661291404386,0.01
188,Corwen,-3.369242,52.98005,0.03668038662190364,0.01,0.14261433519549732,0.01,0.01
189,Cockermouth,-3.367985,54.66326,0.09504075954703058,0.01,0.1883685691828949,0.01,0.01
190,Lockerbie,-3.349008,55.122240000000005,0.19327366269960092,0.024636367923217967,0.2264318817274181,0.01,0.01
191,Blairgowrie,-3.3378318,56.58941,0.15004102025789842,0.1106346311300805,0.13403618517850543,0.01,0.01
192,Elgin,-3.318485,57.64945,0.2633504831558458,0.07006820834265139,0.2573693083987996,0.10645866866499346,0.01
193,Newtown,-3.313106,52.51211,0.1260389920848685,0.01,0.1243442020606174,0.01,0.01
194,Ruthin,-3.3103108,53.114869999999996,0.052097108599539727,0.01,0.23457315069280807,0.01,0.01
195,Ruthin,-3.3103108,53.114869999999996,0.052097108599539727,0.01,0.23457315069280807,0.01,0.01
196,Sidmouth,-3.2375599999999998,50.67865,0.1742508787132767,0.01,0.17542091014859865,0.01,0.01
197,Barrow-in-Furness,-3.2188939999999997,54.10896999999999,0.18704438865896691,0.01,0.2956221013702894,0.01,0.01
198,Peebles,-3.1936419999999996,55.65306999999999,0.179259508747358,0.09777279285378575,0.14179287210310854,0.01,0.01
199,Edinburgh,-3.1882669999999997,55.95325,0.582091662672507,0.3084489027577995,0.4501743707347733,0.01,0.01
200,Cardiff,-3.17909,51.48158,0.635369781090195,0.01,0.4467046074042751,0.01,0.01
201,Llangollen,-3.1716599999999997,52.96921,0.05684798913334322,0.01,0.17388941709483913,0.01,0.01
202,Kirkcaldy,-3.158137,56.11682,0.3603070742613167,0.20362592555673814,0.2774907601267558,0.01,0.01
203,Welshpool,-3.146407,52.66035,0.17667954444570805,0.01,0.17249778481035594,0.01,0.01
204,Mold,-3.1419029999999997,53.1672,0.05196273461511706,0.01,0.3497333577990359,0.01,0.01
205,Mold,-3.1419029999999997,53.1672,0.05196273461511706,0.01,0.3497333577990359,0.01,0.01
206,Taunton,-3.106849,51.01534,0.269210825261536,0.01,0.2849259582482182,0.01,0.01
207,Wick,-3.093716,58.43894,0.16519513660995142,0.04345863428898013,0.12558835211231206,0.06602920864361202,0.01
208,John o' Groats,-3.0688997000000002,58.63734,0.044489802064689485,0.015522811542233866,0.01,0.023584702529815323,0.01
209,Dalkeith,-3.066606,55.893119999999996,0.28467751744508846,0.17066741019150955,0.23458356276769105,0.01,0.01
210,Oswestry,-3.056412,52.85715,0.15466542311340645,0.01,0.2537717786692961,0.01,0.01
211,Blackpool,-3.0356748,53.81751,0.22041966193718923,0.01,0.44299987607319435,0.01,0.01
212,Birkenhead,-3.023009,53.389990000000004,0.06875806780583485,0.01,0.5041976215013424,0.01,0.01
213,Cupar,-3.010137,56.32023,0.17261453124017312,0.11346471478845378,0.13042065177342885,0.01,0.01
214,Southport,-3.010113,53.64571,0.14852125841754535,0.01,0.37989186016416004,0.01,0.01
215,Bridgwater,-3.003632,51.12789,0.32999846896934415,0.01,0.3209750116860679,0.01,0.1202371840472101
216,Langholm,-2.998913,55.153059999999996,0.03973925927546464,0.01,0.1347759830502955,0.01,0.01
217,Newport,-2.997664,51.58415,0.5043894403881385,0.01,0.28208714981838606,0.06383630295735004,0.01
218,Axminster,-2.9949369999999997,50.78273,0.19717952023695356,0.01,0.1828413580656538,0.01,0.01
219,Wrexham,-2.9924939999999998,53.043040000000005,0.10050904804088392,0.01,0.39863692072202694,0.01,0.01
220,Liverpool,-2.9915726,53.40837,0.11933032903944574,0.01,0.7727624340574585,0.01,0.01
221,Weston-super-Mare,-2.977255,51.347409999999996,0.32353723827555864,0.01,0.27345755096281854,0.01,0.10449584050272227
222,Dundee,-2.9707209999999997,56.462019999999995,0.32359197636381914,0.22186443624041705,0.3387777856238157,0.01,0.01
223,Kirkwall,-2.9622491,58.984669999999994,0.17339850612707178,0.04535720718652182,0.1341159569776714,0.06891381990735518,0.01
224,Ambleside,-2.961333,54.428740000000005,0.1446894311630334,0.01,0.27341747464444266,0.01,0.01
225,Orkney Islands,-2.9605206,58.980940000000004,0.17796515188317516,0.04641410336157735,0.13886309783081074,0.0705196232005128,0.01
226,Lyme Regis,-2.936639,50.725159999999995,0.17259816378080992,0.01,0.16664388993570922,0.01,0.01
227,Carlisle,-2.932931,54.892469999999996,0.1341621947686619,0.01,0.45187664698911,0.01,0.01
228,Chester,-2.893075,53.19339,0.08156042625407108,0.01,0.5123667575774864,0.01,0.01
229,Forfar,-2.889062,56.64356,0.17336581464321837,0.1255836250333711,0.1786459418597408,0.0636021465510804,0.01
230,Morecambe,-2.864968,54.074169999999995,0.18347925159744816,0.01,0.2390423792137345,0.01,0.01
231,Selkirk,-2.838524,55.55066,0.17234274558112464,0.09022573092632162,0.20126302139944574,0.01,0.01
232,Galashiels,-2.814449,55.62373,0.16782465647761916,0.08813441313877711,0.1867588047291264,0.01,0.01
233,Lancaster,-2.8007399,54.046569999999996,0.24636533273814676,0.01,0.3332376598865062,0.01,0.01
234,St Andrews,-2.7967214,56.339780000000005,0.20744980385635908,0.147428250448323,0.2017624973654213,0.01,0.01
235,Hawick,-2.780914,55.42706,0.11757888146624013,0.056965022436304746,0.18569966245572497,0.01,0.01
236,Bridport,-2.758301,50.733579999999996,0.17187491852644757,0.01,0.17870515441372575,0.01,0.01
237,Shrewsbury,-2.7553267999999997,52.7073,0.33148472879021273,0.01,0.3625025739679363,0.01,0.01
238,Penrith,-2.752708,54.6641,0.18007477926635396,0.01,0.3637601437003699,0.01,0.01
239,Kendal,-2.74629,54.32801,0.18507470068500956,0.01,0.3083574446954456,0.01,0.01
240,Street,-2.7429189999999997,51.12468,0.14490334921909895,0.01,0.13388880603062353,0.02355754345242118,0.07837559511479009
241,Glastonbury,-2.718454,51.14743,0.17061416846199573,0.01,0.16512819474171106,0.02717389741553902,0.09040715072149148
242,Hereford,-2.715974,52.0564,0.24277221085882786,0.01,0.2762504780963706,0.6870877205173443,0.01
243,Ludlow,-2.7139129,52.36775,0.21577059472505564,0.01,0.18413877887094876,0.2155202487772084,0.01
244,Preston,-2.70309,53.7632,0.2754797102225786,0.01,0.49155103662581007,0.01,0.01
245,Whitchurch,-2.682045,52.96872,0.0928433722634353,0.01,0.20731695736748548,0.01,0.01
246,Wells,-2.6445979,51.20935,0.20024662755172898,0.01,0.19053822889673133,0.030660505190372583,0.1020070443354017
247,Yeovil,-2.633308,50.94206,0.2727745898482014,0.01,0.24998393778891795,0.01,0.01
248,Wigan,-2.6325074,53.54506,0.36052908408590173,0.01,0.4863650363315804,0.01,0.01
249,Warrington,-2.5969501,53.39004,0.3254553037047575,0.01,0.5274204188122735,0.01,0.01
250,Arbroath,-2.591543,56.55911,0.18831376082277526,0.13516384957544808,0.19758429036221176,0.06845407565533682,0.01
251,Bristol,-2.58791,51.45451,0.49852007856025926,0.01,0.5311494586284207,0.0767045788746693,0.2551949995936803
252,Guernsey,-2.5852779999999997,49.46569,0.03383528016068488,0.01,0.01,0.016705830941078068,0.01
253,Ross-on-Wye,-2.582446,51.91445,0.21572755420726367,0.01,0.21350774349363585,0.4022318142818061,0.01
254,Jedburgh,-2.5549369,55.47772,0.056648852674518774,0.027505320153376155,0.16570925565740136,0.01,0.01
255,Sedbergh,-2.5281740000000004,54.32363,0.13210085278347722,0.01,0.14675409184989,0.01,0.01
256,Sedbergh,-2.5281740000000004,54.32363,0.13210085278347722,0.01,0.14675409184989,0.01,0.01
257,Nantwich,-2.524102,53.067190000000004,0.08057127836624434,0.01,0.2896790513092594,0.01,0.01
258,Banff,-2.524038,57.666509999999995,0.14185439659877427,0.08059065231972917,0.1309677273828715,0.048978409197452576,0.01
259,Dunbar,-2.516737,56.00209,0.22807148933031668,0.14570110251400764,0.2127484704498406,0.01,0.01
260,Cinderford,-2.5009579,51.8253,0.17823643229334316,0.01,0.21067655302655683,0.32591546409665173,0.01
261,Banchory,-2.4909599,57.05386,0.16568250409086402,0.08812199289025262,0.16410508895502782,0.0535555291195626,0.01
262,Blackburn,-2.487529,53.748580000000004,0.31388456926566066,0.01,0.3528330274067777,0.01,0.01
263,Market Drayton,-2.483485,52.90355,0.10442859469476809,0.01,0.15939438815961063,0.01,0.01
264,Telford,-2.4672611,52.67759,0.43022100556405674,0.01,0.2504224283015211,0.01,0.01
265,Montrose,-2.4661150000000003,56.70692,0.17235149718564835,0.12493353908034843,0.17493161182546185,0.06327290918958069,0.01
266,Turriff,-2.4623,57.53893000000001,0.14888766035488527,0.0840376857659488,0.1395468575877617,0.05107331983270151,0.01
267,Weymouth,-2.457621,50.61443,0.20630273769734425,0.01,0.25916696489121854,0.021462447609611537,0.01
268,Crewe,-2.4438209,53.10041,0.14047575257597164,0.01,0.3637227697919293,0.01,0.01
269,Fortuneswell,-2.4422189999999997,50.55919,0.119431364346289,0.01,0.12824685163504482,0.013316521631481368,0.01
270,Dorchester,-2.4411810000000003,50.71116,0.28885535936223616,0.01,0.31918223047177563,0.02576770903405657,0.01
271,Alston,-2.438685,54.812169999999995,0.02507695538454194,0.01,0.1347773694354327,0.01,0.01
272,Kelso,-2.432207,55.600030000000004,0.0726906981749972,0.03968923667552484,0.2001839409411945,0.01,0.01
273,Wincanton,-2.416007,51.055690000000006,0.14666625154757906,0.01,0.15006273091477476,0.025205827855440906,0.08385941137736191
274,Clitheroe,-2.3930830000000003,53.8711,0.1424148927364678,0.01,0.269193072088175,0.01,0.01
275,Sark,-2.3666256000000003,49.43007,0.03020614355351015,0.01,0.011243205896782522,0.016199593584552165,0.01
276,Bath,-2.3590167,51.38106,0.34062810536033217,0.01,0.37622630693507125,0.11789353710477593,0.19611502700247993
277,Kidderminster,-2.2496839,52.3886,0.323941538630341,0.01,0.18562235574551963,0.4590642049764912,0.01
278,Manchester,-2.2426305,53.48076,0.3230092588486178,0.01,0.8378962902694141,0.01,0.06717661675221875
279,Burnley,-2.2405035,53.78929,0.22858058820136906,0.01,0.35423586716733707,0.01,0.01
280,Gloucester,-2.238156,51.86424,0.24548621606322635,0.01,0.3837357210400059,0.7449040584212268,0.01
281,Newcastle-under-Lyme,-2.2273002,53.01321,0.15544946000339777,0.01,0.30962734220698895,0.01,0.01
282,Worcester,-2.221575,52.19364,0.3529243662762687,0.01,0.3292973968284485,0.8571895145114596,0.01
283,Trowbridge,-2.208853,51.31966,0.3369652801363033,0.01,0.355335221117308,0.15516410450096074,0.1720762246167699
284,Shaftesbury,-2.198083,51.0046,0.1621867645195314,0.01,0.16985522885244567,0.10297346447005724,0.01
285,Alderney,-2.1973557,49.715,0.034619172603639954,0.01,0.01,0.01,0.01
286,Stoke-on-Trent,-2.179404,53.002669999999995,0.26589006613905547,0.01,0.4246559754137103,0.01,0.01
287,Colne,-2.176991,53.85564,0.13718541973594162,0.01,0.2555430792789859,0.01,0.01
288,Blandford Forum,-2.165353,50.85691,0.18055017616908092,0.01,0.12879709906769016,0.0499306817354959,0.01
289,Rochdale,-2.1561,53.60971,0.17146541140079027,0.01,0.4760101837218465,0.01,0.01
290,Jersey,-2.13125,49.21444,0.03329983283103814,0.01,0.010541921797134037,0.01,0.01
291,Wolverhampton,-2.12882,52.586969999999994,0.5086780610869033,0.01,0.2331052576891585,0.49693470614481344,0.01
292,Stafford,-2.12066,52.80669,0.3996203113001138,0.01,0.3244237015487562,0.01,0.01
293,Macclesfield,-2.119287,53.25866,0.20958345014258148,0.01,0.37614320643832955,0.01,0.14521602825528881
294,Hexham,-2.1121439,54.97266,0.06620493137857619,0.01,0.38539479543942523,0.01,0.01
295,Aberdeen,-2.094278,57.149719999999995,0.352477537786369,0.17360586763619248,0.38272179413314356,0.10550775937043168,0.01
296,Dudley,-2.081112,52.51226,0.517197613947382,0.01,0.21094199720134882,0.46526650649995943,0.01
297,Cheltenham,-2.0782533,51.899390000000004,0.22469770552797066,0.01,0.3590337440923553,0.7825728257614455,0.01
298,Bromsgrove,-2.061906,52.33559,0.39381954726428303,0.01,0.18267130302962964,0.6723463494592419,0.01
299,Skipton,-2.0162787,53.96285,0.09012899402058303,0.01,0.2780814222654342,0.01,0.01
300,Fraserburgh,-2.007631,57.69335,0.1545104573752794,0.0867934439398371,0.1484306691916099,0.05274811272250772,0.01
301,Berwick,-2.005395,55.77024,0.07893491027501538,0.03677435194674093,0.23714406935698054,0.01,0.01
302,Poole,-1.987248,50.71505,0.314466949720335,0.01,0.2977683704924169,0.08284806210859992,0.01
303,Walsall,-1.9829189999999999,52.586209999999994,0.5117912085944821,0.01,0.2215602874429041,0.46432598631460403,0.01
304,Cirencester,-1.968243,51.71849,0.23761319251160523,0.01,0.3282044361350042,0.5489646318159478,0.01
305,Evesham,-1.9467700000000001,52.09215,0.1399341262303365,0.01,0.21435771644736426,0.7347406225077021,0.01
306,Buxton,-1.91483,53.259080000000004,0.19821210568679123,0.01,0.2916335680480843,0.01,0.10647666220814399
307,Keighley,-1.9123580000000002,53.8678,0.10853591305460074,0.01,0.3450025122312887,0.06303058785380826,0.01
308,Birmingham,-1.8904009999999998,52.48624,0.8774889091521962,0.01,0.3835407090284546,1.0,0.01
309,Bournemouth,-1.880769,50.719159999999995,0.3739147595186318,0.01,0.37264042645514633,0.10038443789712477,0.01
310,Halifax,-1.8575400000000002,53.727019999999996,0.12504728783760669,0.01,0.33558244655525865,0.01,0.01
311,Salisbury,-1.794472,51.06878,0.27446930909550804,0.01,0.2812990612331221,0.12594464751134724,0.01
312,Ringwood,-1.7888169999999999,50.84495,0.21054105456059397,0.016008155427151977,0.24850210393192448,0.06485896830707552,0.01
313,Huddersfield,-1.7850351000000002,53.645790000000005,0.1601761539505701,0.01,0.4706292049557367,0.060091338803234015,0.01
314,Peterhead,-1.784066,57.50812,0.18383528721328088,0.09661889706988065,0.18664036735741873,0.05871946361869417,0.01
315,Swindon,-1.7797176,51.55577,0.2546603492949099,0.01,0.3407894464609143,0.6429777223001699,0.01
316,Bradford,-1.759398,53.79598000000001,0.16621711818733997,0.01,0.5132485939478728,0.08078834901210305,0.01
317,Ashbourne,-1.7321790000000001,53.016630000000006,0.2786098662318186,0.01,0.33452029686347784,0.01,0.01
318,Marlborough,-1.7270619999999999,51.42007,0.20368919778919234,0.01,0.20154920843468901,0.2354256755622703,0.01
319,Stratford-upon-Avon,-1.7082979999999999,52.19173,0.4117943105662845,0.01,0.1698350537947107,0.5354033383960782,0.01
320,Alnwick,-1.7062990000000002,55.41274,0.05424726834066508,0.01,0.2543768774994527,0.01,0.01
321,Otley,-1.691786,53.90583,0.07730606064864996,0.01,0.2664006235650493,0.05419150882432524,0.01
322,Bishop Auckland,-1.6787880000000002,54.663819999999994,0.08960100703911655,0.01,0.30620176143567546,0.01,0.01
323,Burton upon Trent,-1.6371358999999999,52.81403,0.33072370221193903,0.01,0.2656340449684071,0.26621836386144443,0.01
324,Newcastle,-1.61778,54.97825,0.14204531437537934,0.01,0.6988236350598706,0.01,0.01
325,Durham,-1.5848520000000001,54.77525,0.0800265745249948,0.01,0.4854751854543223,0.01,0.01
326,Ashington,-1.5659829,55.18298000000001,0.06328899902221913,0.01,0.2950352477597696,0.01,0.01
327,Darlington,-1.559458,54.52361,0.12777487224427767,0.01,0.3688391453776879,0.01,0.01
328,Leeds,-1.5490774,53.80076,0.20438389411996868,0.01,0.6814984411665287,0.11341341593515264,0.01
329,Harrogate,-1.5418120000000002,53.99211999999999,0.12850523304181277,0.011950811649222575,0.46298850346509185,0.07263022614313844,0.01
330,Leamington Spa,-1.5200789,52.28519,0.5359987803312778,0.01,0.211314617350244,0.6562445019970619,0.01
331,Coventry,-1.519693,52.40682,0.6425234676074436,0.01,0.23197554647787144,0.697017163821705,0.01
332,Blyth,-1.510277,55.12696,0.06391471382759135,0.01,0.31285401398862167,0.01,0.01
333,Wakefield,-1.505924,53.6833,0.13577999792516465,0.01,0.42965558202123727,0.10520222763865365,0.01
334,Andover,-1.4919233,51.2112,0.28572165522678733,0.01,0.2207027790991278,0.16887072888337948,0.01
335,Witney,-1.4850543999999999,51.785940000000004,0.16642484813429753,0.01,0.26617784096260955,0.38201470496591955,0.01
336,Barnsley,-1.479726,53.55263000000001,0.14351159468453953,0.012467102977606608,0.41836466495950203,0.03788397696430079,0.01
337,Derby,-1.4746186000000001,52.92253,0.3870781616973581,0.01,0.3959168406455614,0.01,0.01
338,Sheffield,-1.470085,53.381130000000006,0.2023037193595813,0.01801626104905082,0.641519410762798,0.054746289753557456,0.01
339,Nuneaton,-1.465382,52.52049,0.5068692184560625,0.01,0.21376102192482607,0.4642790676482245,0.05940959929311895
340,Northallerton,-1.429959,54.337959999999995,0.08681581503506089,0.01,0.24808688557504444,0.01,0.01
341,South Shields,-1.427406,54.99941999999999,0.08522987578303697,0.01,0.4270744902550224,0.01,0.01
342,Chesterfield,-1.421629,53.23505,0.16729632325651597,0.013406927088232259,0.3985815163388991,0.01,0.01
343,Southampton,-1.4043508999999998,50.9097,0.5621416191519562,0.023052585528718937,0.41807168663539196,0.07005023960107838,0.11652805899737183
344,Wetherby,-1.384816,53.92706,0.06640047807568035,0.01,0.24762743830464948,0.04629104294656501,0.01
345,Sunderland,-1.383801,54.90687,0.08683750075051541,0.01,0.48404044171477595,0.01,0.01
346,Rotherham,-1.3635008999999998,53.4326,0.1314518213124717,0.012582049995108141,0.4314264372762982,0.03823327050427298,0.01
347,Castleford,-1.345968,53.72346999999999,0.08878264506922365,0.01,0.3673762021374666,0.10399795299296162,0.01
348,Thirsk,-1.341377,54.23385,0.06874659001417052,0.011529141289384722,0.2222643611342232,0.01,0.01
349,Banbury,-1.339775,52.0629,0.15444748914454004,0.01,0.27890651380092274,0.4546951790920001,0.01
350,Stockton,-1.3289821000000002,54.57046,0.1283482323533791,0.01,0.3750956773344025,0.01,0.01
351,Newbury,-1.3231138999999998,51.40141,0.35908526717939576,0.01,0.2894114736503151,0.28053848230650075,0.01
352,Isle of Wight,-1.304734,50.69385,0.3591715721773158,0.014635026070298648,0.26902234980402273,0.059295564985511355,0.07397830404850933
353,Isle of Wight,-1.304734,50.69385,0.3591715721773158,0.014635026070298648,0.26902234980402273,0.059295564985511355,0.07397830404850933
354,Abingdon,-1.2879528999999998,51.67078,0.1805467095707952,0.01,0.27882268011514544,0.45377403657760723,0.01
355,Shetland Islands,-1.2659409,60.52965,0.09713521839682956,0.0586735867446433,0.07641955945488377,0.035658464821209254,0.01
356,Rugby,-1.265032,52.37088,0.46764978777191957,0.01,0.20248761553775618,0.3777448600993729,0.08976796396942005
357,Oxford,-1.2577263,51.75202,0.24795257577847454,0.01,0.5081166024111001,0.5534825752600571,0.01
358,Middlesbrough,-1.234956,54.57423000000001,0.15440762942236064,0.01,0.46263061816048795,0.01,0.01
359,Hartlepool,-1.212926,54.69174,0.1175302010212687,0.01,0.35811685316448433,0.01,0.01
360,Loughborough,-1.206166,52.7721,0.35651615200232223,0.01,0.34189617255528815,0.03734610040449833,0.06212495352790323
361,Mansfield,-1.198674,53.1472,0.21451676307362924,0.01,0.3378518471286056,0.01,0.01
362,Nottingham,-1.1581086,52.95478000000001,0.41281556393431307,0.01,0.5382818994829129,0.06680806065320388,0.01
363,Bicester,-1.1535898999999998,51.8996,0.1366589717527319,0.01,0.23159376153314482,0.2905677482665805,0.01
364,Leicester,-1.1397591999999999,52.636880000000005,0.5799027439165048,0.01,0.34618628719141603,0.22880437313007293,0.12687145721124546
365,Doncaster,-1.128462,53.522819999999996,0.15575665338496777,0.013266709123992733,0.4401175388611806,0.04031375397905246,0.01
366,Worksop,-1.122745,53.3093,0.10836333421480004,0.01,0.29964941659266364,0.01,0.01
367,Basingstoke,-1.0923964,51.26654,0.29836731058572397,0.01,0.2904370791885878,0.16696729515594724,0.01
368,Portsmouth,-1.0879769,50.81977,0.47958759262792494,0.02078124861969845,0.3748700230221317,0.06314829480569319,0.10504672294474053
369,York,-1.0872979,53.95997,0.1443905316117733,0.014747402703038133,0.5328517363911783,0.08962631021076695,0.01
370,Selby,-1.067189,53.783519999999996,0.07783275216952769,0.01,0.2824334171957288,0.0452629981081346,0.01
371,Helmsley,-1.0562636,54.24651,0.025751709802113443,0.01,0.12701344738982095,0.01,0.01
372,Towcester,-0.9896879999999999,52.13511,0.22157306452643222,0.01,0.20272876208453203,0.32089615224188694,0.01
373,Reading,-0.9781303,51.45426,0.4223514925761553,0.01,0.3763901941885845,0.2640178041670226,0.01
374,Retford,-0.9455030000000001,53.32136,0.08994915433270974,0.01,0.23146736112856514,0.02158358735567602,0.01
375,Petersfield,-0.93899,51.00759,0.278003096038413,0.013913340257607272,0.16791756700721117,0.01,0.07033026869672203
376,Northampton,-0.9026559999999999,52.24048,0.4677556160635497,0.01,0.3253961429228563,0.4251471251909628,0.01
377,Melton Mowbray,-0.887126,52.7664,0.2230994274709496,0.01,0.21375960372875405,0.05952265567886856,0.04950775133071402
378,Aylesbury,-0.8084,51.81561,0.19541451727180098,0.01,0.37007632029894044,0.4139395483276324,0.01
379,Newark-on-Trent,-0.80657,53.070040000000006,0.23041588645196648,0.01,0.3227343111091505,0.14668751328231028,0.01
380,Malton,-0.7978970000000001,54.13684,0.03742572086405475,0.013512564709722263,0.2559245247066792,0.01,0.01
381,Chichester,-0.774936,50.83761,0.31375487337719676,0.017298007749640316,0.23309987139514876,0.01,0.17487870465944083
382,Gainsborough,-0.774465,53.400580000000005,0.07893241801124416,0.01,0.2295848581536671,0.04508970281377641,0.01
383,Milton Keynes,-0.7594171,52.040620000000004,0.3058225577710531,0.01,0.3900613754865215,0.41572463370659435,0.01
384,Aldershot,-0.7557509,51.24837,0.33691872493546926,0.01,0.3309703511695905,0.08324800688845631,0.01
385,High Wycombe,-0.748229,51.628609999999995,0.26970151478035825,0.01,0.32421134326136725,0.09024370731831179,0.01
386,Midhurst,-0.737274,50.9869,0.24412440029996454,0.01388832266351438,0.17181120528555996,0.01,0.14040762375848442
387,Kettering,-0.7302489999999999,52.39632,0.34515895539312424,0.01,0.22735026955316967,0.28647407286434295,0.01
388,Wellingborough,-0.693964,52.30242,0.29688258384701527,0.01,0.20041295462871947,0.3516587595867318,0.01
389,Corby,-0.6842333,52.4923,0.3379406710704571,0.01,0.20800089633935856,0.29950119542914355,0.07117400281249757
390,Bognor Regis,-0.673061,50.783,0.2531500127414017,0.01262269819393326,0.2440586102139817,0.01,0.12761245527242285
391,Scunthorpe,-0.654413,53.58865,0.13069370719559975,0.01,0.3445094279867765,0.041726877318304045,0.01
392,Grantham,-0.643582,52.912519999999994,0.21090303288997675,0.01,0.2576952653640924,0.12063940036704264,0.01
393,Whitby,-0.613347,54.48633,0.07417613305620772,0.012214560457696885,0.2586167146227705,0.01,0.01
394,Slough,-0.5950406,51.51054,0.32826129988312197,0.01,0.3584501644105281,0.01,0.01
395,Guildford,-0.570409,51.23622,0.29383066193014307,0.01,0.3503771533835754,0.01,0.01
396,Woking,-0.5600349,51.31677,0.36609195030311037,0.01,0.4163381863634839,0.01,0.01
397,Lincoln,-0.540579,53.23069,0.2202580674609904,0.01,0.4246103318420616,0.19213063897564453,0.01
398,Bedford,-0.46677820000000003,52.13864,0.270353459668457,0.01,0.33080483767286945,0.5407857312710367,0.01
399,Heathrow,-0.4542955,51.47002,0.3263085783675508,0.01,0.4861849263658776,0.01,0.01
400,Driffield,-0.443377,54.006,0.05701606079748332,0.01,0.2165938666040516,0.01,0.01
401,Beverley,-0.435093,53.84196,0.1113417274155274,0.013775512159386915,0.3581504125246217,0.01,0.01
402,Luton,-0.4200255,51.87867,0.36784971779829484,0.01,0.33954711568037893,0.23167709694457045,0.01
403,Scarborough,-0.399752,54.28311,0.1051083985744499,0.01182090714860358,0.3445742465846016,0.01,0.01
404,Worthing,-0.372882,50.81787,0.22074924466151544,0.01,0.39555183975937347,0.01,0.11386820014906456
405,Dorking,-0.332378,51.2322,0.2658124438046368,0.01,0.3474386118460879,0.01,0.01
406,Hull,-0.3274198,53.767619999999994,0.17021293609701021,0.019831087904341245,0.5230536593986848,0.01,0.01
407,Horsham,-0.325858,51.06288,0.14303171683645716,0.01,0.3039454937178299,0.01,0.08942278904811518
408,Biggleswade,-0.26421999999999995,52.086940000000006,0.22309941707636569,0.01,0.19271636083799198,0.14136629982338159,0.01
409,Peterborough,-0.2405299,52.5695,0.48734131718656837,0.01,0.2355197651878581,0.5596892215890586,0.37241553953782963
410,Welwyn Garden City,-0.208661,51.80317,0.4767474823247996,0.01,0.4338596235393698,0.09434292096192942,0.01
411,Bridlington,-0.198802,54.08535,0.07939022743047464,0.010488934519160064,0.25691071128344545,0.01,0.01
412,Stevenage,-0.19661199999999998,51.90376,0.3671404523167113,0.01,0.27299808036281814,0.21765292496807082,0.01
413,Crawley,-0.18722750000000002,51.109140000000004,0.1465647227050854,0.01,0.3750548005544264,0.01,0.16190396404075827
414,Huntingdon,-0.182552,52.33146,0.25408583282340386,0.01,0.18259988078086653,0.22717712510082952,0.01
415,Hove,-0.168749,50.82793,0.16174217381773218,0.01,0.32679638594176086,0.01,0.0970373702966092
416,Spalding,-0.1537024,52.7901,0.3111838142553898,0.01,0.1520538741808543,0.3318152477975011,0.4415777559186484
417,Brighton,-0.137163,50.82253,0.2749055665903836,0.01,0.5629365657691301,0.01,0.15661241178295074
418,London,-0.12775830000000002,51.50735,0.7408353851287042,0.012562114279210437,1.0,0.012724225729091721,0.09524995910943689
419,Grimsby,-0.08078400000000001,53.56746999999999,0.16087586780122384,0.01,0.3647495915361458,0.04261236886932822,0.01
420,Boston,-0.026576999999999996,52.97894,0.30667837046046353,0.01,0.24384887245556416,0.44132611993867404,0.48942847246005283
421,Royston,-0.024066,52.048140000000004,0.21601521695017087,0.01,0.16231143490373093,0.08275014068074939,0.01
422,Louth_Lincs,-0.007711,53.36596,0.12570347318834424,0.01,0.2347554256240925,0.03644910133305265,0.01
423,Lewes,0.00878,50.873870000000004,0.14100871733982723,0.01,0.30858386939868915,0.01,0.09310509824426048
424,Chatteris,0.054012,52.4561,0.15740559587445646,0.01,0.11337985749904061,0.1108432295628979,0.2458491839510566
425,Uckfield,0.095913,50.966409999999996,0.1268095355931797,0.01,0.33848402065078714,0.01,0.01
426,Cambridge,0.12181700000000001,52.20534,0.33028358724111057,0.01,0.4945230433726484,0.2350998521042792,0.01
427,Bishop's Stortford,0.15365020000000001,51.87216,0.3680612936341933,0.023248185330328977,0.2341610233143492,0.14128922962858576,0.01
428,Wisbech,0.158797,52.66631999999999,0.22679266872779927,0.01,0.13448405006987776,0.13401557330157124,0.2972452110475613
429,Sevenoaks,0.190898,51.27241,0.43839014971592083,0.01,0.27671875187101425,0.07644644973995217,0.2543361977037883
430,Tunbridge Wells,0.26369499999999996,51.13238,0.2916845498880081,0.01,0.3066689322756952,0.01,0.2629601117975517
431,Eastbourne,0.29047199999999995,50.768029999999996,0.1781180736043011,0.01,0.34097475528476695,0.01,0.01
432,Brentwood,0.30717490000000003,51.620470000000005,1.0,0.02379865111915231,0.22839680931680117,0.07231732250999957,0.01
433,Skegness,0.337881,53.1464,0.18617963739301044,0.01,0.1553671311184208,0.22979940923163938,0.4778370094693901
434,Downham Market,0.385472,52.606609999999996,0.17381742558149058,0.01,0.11508982561742133,0.1491720363962114,0.2481465748335231
435,King's Lynn,0.4022963,52.75168000000001,0.3215948645727918,0.01,0.16134173944016703,0.2970618518004897,0.6177002229557822
436,Bexhill,0.4662071,50.849909999999994,0.15107749826513023,0.01,0.22301108548436838,0.01,0.13138625984918392
437,Chelmsford,0.4685497,51.73559,0.5729706175172393,0.015409951145141994,0.14792339273294197,0.04682645388606367,0.01
438,Mildenhall,0.5156095,52.347570000000005,0.20488618673157857,0.01,0.23303554730197906,0.0612659216455613,0.3057462176470947
439,Medway,0.5417860999999999,51.404740000000004,0.5375736420655879,0.01,0.14851154183295845,0.01,0.1421177913878193
440,Braintree,0.5509269,51.88009,0.45218651140691646,0.013830972928537423,0.13208824210415468,0.042028389240844934,0.06991391171284489
441,Gillingham,0.551438,51.38632,0.783055490022472,0.01,0.2436291431820581,0.01,0.2056381721256864
442,Hastings,0.573453,50.85426,0.19721493077329663,0.01,0.2969162767719447,0.01,0.16629277786247718
443,Maldon,0.6714479999999999,51.731809999999996,0.5012133857667918,0.013898531972357298,0.12334465394131419,0.01,0.07025541458827032
444,Southend,0.7077123000000001,51.54593,0.6653757828936768,0.019321021663735196,0.17608477105757214,0.01,0.01
445,Bury St Edmunds,0.7104931999999999,52.24292,0.355722241799922,0.01,0.3261996205069363,0.01,0.22128719077624645
446,Thetford,0.751657,52.412859999999995,0.19381412986503463,0.01,0.1822462199372809,0.03604391842097548,0.2398351568112005
447,Ashford,0.8750190000000001,51.14647,0.28497807817831444,0.01,0.2293449171954973,0.01,0.33499675952390107
448,Faversham,0.889358,51.31599,0.2928780446987406,0.01,0.20588138165677364,0.01,0.31138883672927775
449,Colchester,0.891874,51.89593,0.46387203313151376,0.02814596796904507,0.2718884864446124,0.01,0.14227449723368554
450,New Romney,0.939473,50.98512,0.1555324534387058,0.01,0.14917512332090752,0.01,0.23120939319891837
451,Canterbury,1.0789089,51.280229999999996,0.3433551009908348,0.01,0.3011607115674805,0.01,0.39182598232577803
452,Ipswich,1.14822,52.056740000000005,0.40120458484519994,0.01,0.3143923827084771,0.01,0.3025121658071055
453,Clacton,1.153035,51.78953,0.291955385969775,0.017017199630218936,0.15075893892793713,0.01,0.08601990609729247
454,Folkestone,1.169456,51.0814,0.29431055571818254,0.01,0.21109141579511584,0.01,0.3228932805528676
455,Sheringham,1.2109589,52.944419999999994,0.152408086385407,0.01,0.09723067734890273,0.07262888418886869,0.5436792343563884
456,Harwich,1.260297,51.93473,0.2255355234580407,0.017821149891145596,0.11335068730852924,0.01,0.180167549918952
457,Norwich,1.297355,52.63089,0.4433016203893936,0.01,0.37728052401860035,0.07759981868037766,0.903607051660045
458,Cromer,1.301866,52.93145,0.200657752655317,0.01,0.14323347500975667,0.09265478222362064,0.69358742904268
459,Cromer,1.301866,52.93145,0.200657752655317,0.01,0.14323347500975667,0.09265478222362064,0.69358742904268
460,Dover,1.3134027,51.12788,0.273751261614967,0.01,0.1871232786661781,0.01,0.2713125633425586
461,Felixstowe,1.3512549999999999,51.961729999999996,0.2816046545227197,0.01,0.1597937487954478,0.01,0.22088159020788253
462,Margate,1.3868339,51.38965,0.35614685475013663,0.01,0.18985701752119344,0.01,0.1441315722859573
463,Ramsgate,1.4198950000000001,51.33555,0.32064223136768766,0.01,0.20214776555826627,0.01,0.14359513235501795
464,Great Yarmouth,1.728047,52.59823000000001,0.2736667747367567,0.01,0.20618277864672255,0.05281955031923676,0.6150544986771428
465,Lowestoft,1.7534490000000003,52.48114,0.3031737942890608,0.01,0.2149666267951765,0.0521989346450917,0.5209952375275406
466,Swaffham,0.687481,52.64747,0.17041462609027594,0.01,0.11302375812923957,0.07755951687467383,0.38705903640763534
467,Dereham,0.9378270000000001,52.681619999999995,0.3203858141589462,0.01,0.27829364652957356,0.1335877475640694,1.0
468,Ely,0.262363,52.39954,0.22706706008855176,0.01,0.18420353166574735,0.15374358644112981,0.3410017500691117
469,March,0.088622,52.551719999999996,0.19047678391454154,0.01,0.13329767709708787,0.14031106619999867,0.31120855519495344
470,St Neots,-0.26510300000000003,52.23008,0.17684477411194102,0.01,0.19178951898072275,0.22950214964073115,0.01
471,Banham,1.0402849,52.45125,0.21980694846527662,0.01,0.18955780497091787,0.04383399193458578,0.2916700772479735
472,Holt,1.086747,52.90936,0.19429892431299503,0.01,0.14311917158605808,0.09983544679546257,0.7473398545909741
473,Hunstanton,0.49103199999999997,52.93891,0.1550398970326431,0.01,0.07888658613875871,0.12377047221700517,0.25736407616594126
474,Horncastle,-0.11245,53.20731,0.11491349518154127,0.01,0.15795312244840462,0.09408318888598732,0.2347600269668326
475,Market Weighton,-0.6677465,53.86484,0.04937056117209507,0.01,0.19882697192031817,0.01,0.01
476,Hawes,-2.1968695,54.303830000000005,0.027455384356217676,0.01,0.013823991293751049,0.01,0.01
477,Reeth,-1.9428115000000001,54.38946,0.0990579025672631,0.01,0.22018450010294616,0.01,0.01
478,Aysgarth,-1.9967433999999997,54.29159,0.06485549024001373,0.01,0.10472975734552241,0.01,0.01
479,Stanhope,-2.011302,54.74946,0.07172104327469372,0.01,0.3424008879934123,0.01,0.01
480,Keswick,-3.134706,54.60128,0.09233924175143016,0.01,0.18387546338977143,0.01,0.01
481,Oxenholme,-2.7243327999999996,54.30134,0.09042498854839058,0.01,0.12961828596061736,0.01,0.01
