,placename,control,doubled,longitude,latitude
0,Dingle,0.769291227963595,0.23070810975130696,-10.2640135,52.14094
1,Tralee,0.728227481385574,0.2717723745323602,-9.6999325,52.27131
2,Killarney,0.6940083253914319,0.30599195898768217,-9.5044265,52.05994000000001
3,Bantry,0.6837287830981152,0.31627154096346155,-9.4539805,51.68035
4,Mayo,0.8268222393505742,0.1731777919406946,-9.4289369,54.01526
5,Ballycastle,0.6426245359840939,0.3573746267517035,-9.3724643,54.27967
6,Abbeyfeale,0.7247963266013868,0.2752036830275356,-9.2970823,52.38618
7,Ennistymon,0.7828260008378575,0.2171738647983429,-9.2934951,52.94037
8,Galway,0.7886922503490013,0.2113070237918187,-9.0567905,53.27067
9,Claremorris,0.7422596514675746,0.2577404023238931,-9.0017356,53.72388
10,Clare,0.7695608096563402,0.2304388420917557,-8.9811351,52.90453
11,Adare,0.7069039491819534,0.2930958160676905,-8.7925892,52.56363
12,Charleville,0.7073152827506947,0.2926850307568235,-8.681017599999999,52.36206
13,Mallow,0.6826846286543825,0.3173148822683252,-8.6539164,52.13898
14,Limerick,0.7069039491819534,0.2930958160676905,-8.6267343,52.66384
15,Loughrea,0.7594749105507708,0.24052471011466844,-8.5660931,53.19891
16,Sligo,0.5884955696210552,0.4115047936179171,-8.476088800000001,54.27661
17,Cork,0.6826846286543825,0.3173148822683252,-8.4756035,51.89851
18,Nenagh,0.7120222044188622,0.2879772979741649,-8.19834,52.8635
19,Roscommon,0.7296032339677991,0.2703966113463918,-8.1890955,53.62759000000001
20,Tipperary,0.693286909593945,0.3067127213016999,-8.161851400000002,52.47379
21,Donegal,0.3271367513254431,0.6728624233067734,-8.1096143,54.653830000000006
22,Leitrim,0.6326145753835225,0.36738491322382905,-8.0020132,54.12469
23,Athlone,0.6815101131104033,0.3184892832327072,-7.9406898,53.42393000000001
24,Longford,0.6411867669561189,0.3588128189469175,-7.7932573,53.72763000000001
25,Offaly,0.6459835491885353,0.3540161191939813,-7.7122229,53.23569000000001
26,Fermanagh,0.3185974664383457,0.6814019475775234,-7.6318728,54.34383
27,Enniskillen,0.3185974664383457,0.6814019475775234,-7.631533599999999,54.34382
28,Doon,0.4023525748848576,0.59764652507144,-7.60964,54.185930000000006
29,Westmeath,0.6130199098103704,0.3869804396141328,-7.4653217,53.53453
30,Strabane,0.23214780670612944,0.7678517375755299,-7.4633103,54.82739
31,Balivanich,0.8860125070717731,0.11398748340763601,-7.3743509,57.47227
32,Cavan,0.4824512443156895,0.5175483748123807,-7.3633319,53.98972
33,Mullingar,0.5689882333286505,0.43101139860102017,-7.3401868000000015,53.52582
34,Laois,0.4195260677903055,0.5804733242283793,-7.3323006999999985,52.9943
35,Omagh,0.24575218987664066,0.7542475786122927,-7.309959700000001,54.59771
36,Derry,0.27972834265478586,0.7202716806801057,-7.308574799999999,54.99661
37,Derry,0.27972834265478586,0.7202716806801057,-7.308574799999999,54.99661
38,Kilkenny,0.4812628067124594,0.5187371888967662,-7.2447879,52.65415
39,Tyrone,0.2828253680169821,0.717173814172702,-7.1312320000000025,54.49121
40,Waterford,0.543032452320111,0.456967726705658,-7.110070200000001,52.25932
41,Western Isles,0.8651585279573929,0.1348418973633675,-7.0194034,57.75989000000001
42,Monaghan,0.05020294565461076,0.9497961237090796,-6.9683132,54.2492
43,Carlow,0.41752761946708894,0.5824719878329575,-6.9341358999999985,52.83651
44,Kildare,0.4436226210681258,0.5563776023395689,-6.8194708,53.21204
45,Dungannon,0.01,1.0,-6.7669352,54.50827
46,Cookstown,0.11135748937177377,0.8886415719447844,-6.7443895000000005,54.64182
47,Coleraine,0.2715029369216821,0.7284963691518063,-6.6646103000000005,55.13258
48,Meath,0.4535857529239502,0.5464136345320697,-6.656416900000001,53.60555
49,Armagh,0.11125244110652754,0.8887466239468607,-6.652792,54.35028000000001
50,Armagh,0.11125244110652754,0.8887466239468607,-6.652792,54.35028000000001
51,Magherafelt,0.02976789395947184,0.9702311675108652,-6.607980499999999,54.75536999999999
52,Dunvegan,0.8783427180669108,0.12165725916535845,-6.5813982000000015,57.4366
53,Louth,0.3613609698865869,0.6386392254463223,-6.4889423,53.925230000000006
54,Wexford,0.4001301079718978,0.599869356483251,-6.4633381,52.33692
55,Craigavon,0.0978353729150142,0.9021639274659508,-6.4175653,54.44293
56,Stornoway,0.8687314346175818,0.13126786759226067,-6.3848692000000025,58.20943000000001
57,Drogheda,0.4536945981144472,0.5463047514346079,-6.3560985,53.71786
58,Rosslare,0.4009186027821361,0.5990806254492173,-6.3414908,52.25131
59,Newry,0.0705202926669991,0.929479333810912,-6.34023,54.1751
60,Scilly Isles,0.8115674593380954,0.1884329074807348,-6.327496599999999,49.92773
61,Ballymena,0.13343914098363235,0.8665608632113252,-6.2802213,54.86529
62,Banbridge,0.05296963852006112,0.9470299247607292,-6.2704803,54.34873
63,Dublin,0.4443174583888645,0.5556827464317112,-6.2603097000000005,53.34981
64,Antrim,0.16317033133235448,0.8368293696637378,-6.2072498,54.719530000000006
65,Antrim,0.16317033133235448,0.8368293696637378,-6.2072498,54.719530000000006
66,Portree,0.9019203582272408,0.0980800273730816,-6.1960231,57.41246999999999
67,Islay,0.6272647077063661,0.37273459558817895,-6.177067,55.73625
68,Wicklow,0.4277780520001574,0.5722210764233389,-6.044589,52.98082
69,Kilkeel,0.11658332415743165,0.8834162577958488,-6.007004,54.06312
70,Mull,0.9383948878198448,0.06160502504645371,-6.0008870000000005,56.4392
71,Belfast,0.1873681359501759,0.8126313156354158,-5.93012,54.59728000000001
72,Broadford,0.901538134418748,0.09846153840701856,-5.9096592,57.24139
73,Down,0.09302846554859899,0.9069711712742744,-5.7156922,54.32875
74,Kyle of Lochalsh,0.9019203582272408,0.0980800273730816,-5.7143293,57.28261
75,Campbeltown,0.7976909631913418,0.20230834773839546,-5.6053739999999985,55.42412
76,Penzance,0.8115674593380954,0.1884329074807348,-5.537592,50.1188
77,Oban,0.8637701189576692,0.13622994106421066,-5.471047,56.41516
78,Lochgilphead,0.9535825888195748,0.046417153014121824,-5.4323449,56.03829
79,Helston,0.8115674593380954,0.1884329074807348,-5.274996,50.10159
80,Redruth,0.8115674593380954,0.1884329074807348,-5.226666000000002,50.23302
81,Ullapool,0.8681618958300911,0.13183760729085778,-5.161313,57.89542
82,Ballachulish,0.8166844489332534,0.1833155373236197,-5.1337199999999985,56.67393000000001
83,Fort William,0.8566521497557945,0.1433477328012889,-5.1052179,56.81981999999999
84,Achnasheen,0.8659508196928792,0.13404847586369156,-5.078765799999998,57.57859000000001
85,Newquay,0.8124977060243268,0.1875023740261544,-5.0737190000000005,50.4155
86,Falmouth,0.8115674593380954,0.1884329074807348,-5.0662699999999985,50.15257
87,Rothesay,0.9859374545160008,0.014062677925397478,-5.055793,55.83596
88,Truro,0.8115674593380954,0.1884329074807348,-5.0510410000000014,50.2632
89,Milford Haven,0.8508504479738979,0.14914961604779764,-5.0426971,51.71431
90,Stranraer,0.3495841734030452,0.6504150748214321,-5.0240550000000015,54.90337
91,Fishguard,0.838657255354615,0.1613423409983912,-4.975989,51.99393
92,Inchnadamph,0.8701907195553036,0.12980933654575974,-4.974295,58.15221
93,Haverfordwest,0.8508504479738979,0.14914961604779764,-4.971319,51.80047
94,Dunoon,0.9855678871250064,0.014431483189074975,-4.926214,55.95097
95,Pembroke,0.8582481240025165,0.14175179490552453,-4.9086370000000015,51.67404000000001
96,Girvan,0.9850401145152654,0.01496029585381619,-4.8542179,55.24016
97,Wadebridge,0.8101537375033698,0.1898461538913275,-4.836456,50.51665
98,Invergarry,0.8999826607080265,0.10001773011200422,-4.800261,57.07095
99,St Austell,0.8115674593380954,0.1884329074807348,-4.7834252,50.34038
100,Greenock,0.984890768788768,0.015109125113338787,-4.7719830000000005,55.956480000000006
101,Helensburgh,0.9844958885627748,0.0155039734724071,-4.734014,56.00232
102,Bodmin,0.8101537375033698,0.1898461538913275,-4.7188629,50.4715
103,Tenby,0.8584746738757626,0.1415253540070091,-4.703579,51.67274000000001
104,Camelford,0.8111763760373529,0.18882336026852,-4.682364,50.62206
105,Irvine,0.9879498248984636,0.012049898626456999,-4.6696364,55.61156999999999
106,Cardigan,0.8138759898900519,0.18612368088121087,-4.660864,52.0837
107,Holyhead,0.6805950541251692,0.31940467582369425,-4.633038,53.30944
108,Ayr,0.9864778835432392,0.013521806232961087,-4.629179,55.45856
109,Dumbarton,0.9117012376710676,0.08829895735024139,-4.564554,55.94529
110,Bude,0.8267032690260756,0.17329635212944078,-4.543678,50.82664000000001
111,Isle of Man,0.7952356181963851,0.20476472662308245,-4.5126331,54.27697
112,Kilmarnock,1.0,0.01,-4.498792,55.61472
113,Newton Stewart,0.9473379124251844,0.05266190177458212,-4.483164,54.9603
114,Liskeard,0.8103119427221167,0.18968808038975146,-4.4647190000000005,50.45552
115,Altnaharra,0.8667747524721137,0.13322537128503414,-4.442655,58.28023
116,Pwllheli,0.7724692543977892,0.2275309710838843,-4.417633900000001,52.88882
117,Lairg,0.8636650706924215,0.13633476018833812,-4.402414,58.02206
118,Launceston,0.7864900337040402,0.21351020106413784,-4.360451599999998,50.63683
119,Carmarthen,0.8569508412087894,0.14304877067198699,-4.312131,51.85762
120,Llangefni,0.6805950541251692,0.31940467582369425,-4.311401999999998,53.25579000000001
121,Caernarfon,0.7518354969479031,0.2481649065759736,-4.273911,53.13955
122,Cumnock,0.9570972759592602,0.042903085517901035,-4.265828900000002,55.45355
123,Aberaeron,0.8434907411977784,0.15650960717980536,-4.2581619,52.24279
124,Alness,0.865118027421394,0.13488181441568473,-4.256825,57.69595
125,Glasgow,0.8991827751220401,0.10081665082193793,-4.251806,55.86424
126,Dalwhinnie,0.9276090888265353,0.07239128868799466,-4.242783,56.9366
127,Inverness,0.8626791357691881,0.13732090717523945,-4.224721,57.47776999999999
128,Saltash,0.8058834622389466,0.1941167216072155,-4.21643,50.40921
129,Bideford,0.7500851144076879,0.249915012205108,-4.206666,51.01668
130,Invergordon,0.8606629684614756,0.13933662655828316,-4.172882,57.68811
131,Llanelli,0.8589999152020037,0.14099979657098666,-4.160248,51.68089000000001
132,Plymouth,0.8047848851999654,0.19521455382081004,-4.1426565,50.37546
133,Tavistock,0.804857026779714,0.1951428894289981,-4.141654,50.55112
134,Porthmadog,0.7684799516018606,0.2315196995279103,-4.133384,52.92784
135,Bangor,0.6805950541251692,0.31940467582369425,-4.129263,53.22739
136,Tywyn,0.7817856433193727,0.2182139698591032,-4.087249,52.58701
137,Aberystwyth,0.8247035550611113,0.17529654083145518,-4.08292,52.4153
138,Lampeter,0.8086501551043969,0.1913496151942493,-4.078509,52.1129
139,Barnstaple,0.7991046850260672,0.2008954012847259,-4.058338,51.07816
140,Tain,0.8611730220867136,0.13882716934175168,-4.05523,57.8115
141,Okehampton,0.8027573271165007,0.19724275748693365,-4.004263,50.73831
142,Llandeilo,0.8557864507988103,0.14421303005482813,-3.99143,51.88469
143,Motherwell,0.9148349666440104,0.08516463025616225,-3.9810968,55.78321
144,Golspie,0.8648775554888998,0.13512181792343408,-3.976086,57.97341
145,Airdrie,0.8701464220940552,0.1298537301703857,-3.962566,55.86626999999999
146,Swansea,0.8654255783666396,0.13457448893048335,-3.943646,51.62144
147,Stirling,0.7792480316106686,0.2207513421756044,-3.9369029,56.11652
148,Tregaron,0.8639093395501651,0.1360904332508441,-3.934385,52.22
149,Tregaron,0.8639093395501651,0.1360904332508441,-3.934385,52.22
150,Castle Douglas,0.8591998865985002,0.1408006087206828,-3.931414,54.94042
151,Dolgellau,0.7639831264641896,0.2360169739269292,-3.8844,52.74215
152,Aberfeldy,0.7862090612355456,0.2137907139442045,-3.866969,56.62175
153,Machynlleth,0.7599052287457628,0.2400945035422584,-3.853485,52.59027
154,Brora,0.8039457647197293,0.19605454837895864,-3.852548000000001,58.01216
155,Llandudno,0.6141336745503488,0.3858661667236112,-3.827609,53.32406
156,Llandudno,0.6141336745503488,0.3858661667236112,-3.827609,53.32406
157,Aviemore,0.8577924929725241,0.14220685740204306,-3.823812,57.19449
158,Dalbeattie,0.7977669016963398,0.20223292059581333,-3.822527,54.93422
159,Falkirk,0.9012508337415012,0.09874962488298453,-3.7839131,56.00188000000001
160,Kingsbridge,0.7857876025328016,0.21421286724276653,-3.777493,50.28395
161,Pitlochry,0.7966835123583588,0.203315827104789,-3.729711,56.70436
162,Colwyn Bay,0.6153069244525802,0.3846933212320501,-3.72764,53.29318000000001
163,Totnes,0.7855597870178075,0.2144397080838462,-3.685797,50.43374
164,Grantown-on-Spey,0.7486992366914599,0.251300565124412,-3.609628,57.33041
165,Dumfries,0.8362221606276571,0.16377813423179133,-3.60512,55.07086
166,Whitehaven,0.7837068874958392,0.216292873596082,-3.589233,54.5497
167,Dartmouth,0.7846485249578227,0.2153518935404735,-3.578807,50.35252
168,Bridgend,1.0,0.01,-3.576945,51.50429000000001
169,Paignton,0.7851054216295658,0.2148948325967749,-3.564235,50.43508
170,Workington,0.7823539164651128,0.21764540847230124,-3.542752,54.64357
171,Llanidloes,0.6399464380411417,0.3600530509636229,-3.540195,52.44779000000001
172,Exeter,0.6857095124368286,0.31429004577940034,-3.533899,50.71841
173,Torquay,0.7860128867642984,0.21398650607963574,-3.525315,50.46192
174,Thurso,0.8538031901765968,0.14619615791581286,-3.5220800000000003,58.59356999999999
175,Livingston,0.8875819028417454,0.112418151817519,-3.518068,55.90071
176,Rhyl,0.5704297992818763,0.4295701789924721,-3.4916339999999995,53.31914
177,Tiverton,0.7443150536695381,0.2556850557203271,-3.491207,50.90205
178,Tiverton,0.7443150536695381,0.2556850557203271,-3.491207,50.90205
179,Minehead,0.8654572194103878,0.13454307698586052,-3.481152,51.20428
180,Dunfermline,0.8833508624715719,0.11664894296724365,-3.452151,56.07174000000001
181,Perth,0.8931950240028951,0.1068051503064398,-3.4308381000000003,56.39499
182,Prestatyn,0.5622448940847702,0.43775497319339396,-3.407613,53.33651
183,Builth Wells,0.8392837480208529,0.1607163207746525,-3.404592,52.15002
184,Braemar,0.6868017612670605,0.3131979697011917,-3.3979439,57.00646999999999
185,Brecon,0.9139021886742776,0.08609802912202537,-3.391463,51.94895
186,Merthyr Tydfil,0.9266294821120524,0.07337049363386867,-3.381646,51.74873
187,Llandrindod Wells,0.8406886103633276,0.15931145797021565,-3.377742,52.2417
188,Corwen,0.6853374137623344,0.3146621341158991,-3.369242,52.98005
189,Cockermouth,0.7820134588343696,0.21798618864674127,-3.367985,54.66326
190,Lockerbie,0.7531251858911314,0.2468740628402818,-3.349008,55.12224000000001
191,Blairgowrie,0.835095739470177,0.16490436869564906,-3.3378318,56.58941
192,Elgin,0.8005120786520405,0.1994880780741346,-3.318485,57.64945
193,Newtown,0.7690431621805992,0.2309563918170071,-3.313106,52.51211
194,Ruthin,0.8194093756209555,0.1805908716511765,-3.3103108,53.11487
195,Ruthin,0.8194093756209555,0.1805908716511765,-3.3103108,53.11487
196,Sidmouth,0.7026817683040264,0.2973177907620284,-3.23756,50.67865
197,Barrow-in-Furness,0.7061964554437147,0.29380369415606405,-3.218894,54.10896999999999
198,Peebles,0.8779782132429166,0.12202216625467605,-3.193642,55.65306999999999
199,Edinburgh,0.8777681167124213,0.12223166907934127,-3.188267,55.95325
200,Cardiff,0.9183243409486984,0.08167529338558838,-3.17909,51.48158
201,Llangollen,0.8213217603051725,0.1786787335953369,-3.17166,52.96921
202,Kirkcaldy,0.890146093027202,0.10985407700665244,-3.158137,56.11682
203,Welshpool,0.7647070735451752,0.2352929956190646,-3.146407,52.66035
204,Mold,0.6846122010395996,0.31538816529350777,-3.141903,53.1672
205,Mold,0.6846122010395996,0.31538816529350777,-3.141903,53.1672
206,Taunton,0.7169999734215244,0.2830004772529806,-3.106849,51.01534
207,Wick,0.8107840270948585,0.1892154356081005,-3.093716,58.43894
208,John o' Groats,0.8107840270948585,0.1892154356081005,-3.0688997,58.63734
209,Dalkeith,0.8903713772586946,0.10962798415941916,-3.066606,55.89312
210,Oswestry,0.8270196794635692,0.17298055064628873,-3.056412,52.85715
211,Blackpool,0.7966607308068601,0.20333915919710224,-3.0356748,53.81751
212,Birkenhead,0.5342919303947677,0.46570737793235295,-3.023009,53.38999
213,Cupar,0.8616159966992073,0.13838444051703094,-3.010137,56.32023
214,Southport,0.7112526942348762,0.2887475303989635,-3.010113,53.64571
215,Bridgwater,0.8575963185012783,0.14240326337337186,-3.003632,51.12789
216,Langholm,0.8362512703879081,0.1637487042810151,-2.998913,55.15306
217,Newport,0.8915863933386743,0.10841311812015576,-2.997664,51.58415
218,Axminster,0.6918086400299722,0.3081918088897441,-2.994937,50.78273
219,Wrexham,0.7906881673887164,0.20931218748570304,-2.992494,53.04304000000001
220,Liverpool,0.5279915657633782,0.4720083616548779,-2.9915726,53.40837
221,Weston-super-Mare,0.9116784561195684,0.08832161991845193,-2.977255,51.34741
222,Dundee,0.8543145094435856,0.1456852983690246,-2.970721,56.46202
223,Kirkwall,0.8114105197610979,0.1885888952059001,-2.9622491,58.98467
224,Ambleside,0.7816071878326271,0.21839327448888946,-2.961333,54.42874000000001
225,Orkney Islands,0.8114105197610979,0.1885888952059001,-2.9605206,58.98094
226,Lyme Regis,0.7357453933804419,0.2642547199664688,-2.936639,50.72516
227,Carlisle,0.7926208023409307,0.2073791157272943,-2.932931,54.89247
228,Chester,0.6236677538529319,0.376332199189035,-2.893075,53.19339
229,Forfar,0.8387711631121106,0.16122815613067173,-2.889062,56.64356
230,Morecambe,0.815126443939032,0.18487306807681084,-2.864968,54.07417
231,Selkirk,0.8534943735896019,0.1465050705148607,-2.838524,55.55066
232,Galashiels,0.8744268224924799,0.12557346764423902,-2.814449,55.62373
233,Lancaster,0.7920297476436917,0.2079701397110247,-2.8007399,54.04657
234,St Andrews,0.8571242341285351,0.14287575121553556,-2.7967214,56.33978000000001
235,Hawick,0.8376219604031345,0.16237732274427852,-2.780914,55.42706
236,Bridport,0.7649627331786724,0.2350374437113115,-2.758301,50.73358
237,Shrewsbury,0.8334364831359572,0.16656302290117192,-2.7553268,52.7073
238,Penrith,0.7589952323275274,0.2410049272265776,-2.752708,54.6641
239,Kendal,0.8062796081066892,0.19372056457532635,-2.74629,54.32801
240,Street,0.7950065370396374,0.20499284702723936,-2.742919,51.12468
241,Glastonbury,0.7534466588956266,0.24655344685866706,-2.718454,51.14743
242,Hereford,0.8001614958872972,0.1998380569275512,-2.715974,52.0564
243,Ludlow,0.8679429398073435,0.13205668215860222,-2.7139129,52.36775
244,Preston,0.8663684814703712,0.13363173697743855,-2.70309,53.7632
245,Whitchurch,0.7625364979439652,0.2374639180298376,-2.682045,52.96872
246,Wells,0.8525097043081191,0.14749004045560787,-2.6445979,51.20935
247,Yeovil,0.7874063583310237,0.2125936769900736,-2.633308,50.94206
248,Wigan,0.6898405671087561,0.31015898967380195,-2.6325074,53.54506
249,Warrington,0.6155840999958241,0.3844151219437788,-2.5969501,53.39004
250,Arbroath,0.8532589642241063,0.14674098853337836,-2.591543,56.55911
251,Bristol,0.8437134941457739,0.15628582919000852,-2.58791,51.45451
252,Guernsey,0.7788202446991764,0.22117998568134747,-2.585278,49.46569
253,Ross-on-Wye,0.8692402226010706,0.13075929632444735,-2.582446,51.91445
254,Jedburgh,0.8593732795182473,0.14062678051961586,-2.5549369,55.47772
255,Sedbergh,0.7678901625463695,0.2321094085106148,-2.5281740000000004,54.32363
256,Sedbergh,0.7678901625463695,0.2321094085106148,-2.5281740000000004,54.32363
257,Nantwich,0.7651867517684171,0.2348128063512581,-2.524102,53.06719
258,Banff,0.8237631832408797,0.17623676023680712,-2.524038,57.66651
259,Dunbar,0.8795779844148892,0.12042255293737235,-2.516737,56.00209
260,Cinderford,0.8641523427661622,0.13584697960565795,-2.5009579,51.8253
261,Banchory,0.806355546611687,0.1936445666286416,-2.4909599,57.05386
262,Blackburn,0.8881198005854852,0.11187986962662168,-2.487529,53.74858
263,Market Drayton,0.8000108845190491,0.19998936431220266,-2.483485,52.90355
264,Telford,0.8282068514250515,0.17179295537421124,-2.4672611,52.67759
265,Montrose,0.7788202446991764,0.22117998568134747,-2.4661150000000003,56.70692
266,Turriff,0.8237631832408797,0.17623676023680712,-2.4623,57.53893000000001
267,Weymouth,0.7359808027459374,0.264018987997182,-2.457621,50.61443
268,Crewe,0.7163304489357859,0.2836700089495502,-2.4438209,53.10041
269,Fortuneswell,0.7410446353875977,0.2589546861682846,-2.442219,50.55919
270,Dorchester,0.7366680462161745,0.2633323334431724,-2.4411810000000003,50.71116
271,Alston,0.8655951743611359,0.1344043564012121,-2.438685,54.81217
272,Kelso,0.8569900761030378,0.14301028505967014,-2.432207,55.60003
273,Wincanton,0.8169059362394996,0.18309454247843893,-2.416007,51.05569000000001
274,Clitheroe,0.8723726859322658,0.1276276663113945,-2.3930830000000003,53.8711
275,Sark,0.7630630049119556,0.2369374771763789,-2.3666256000000003,49.43007
276,Bath,0.8305305696780082,0.1694694675316071,-2.3590167,51.38106
277,Kidderminster,0.8592568404772474,0.14074261831451518,-2.2496839,52.3886
278,Manchester,0.7398827762611186,0.2601176254875357,-2.2426305,53.48076
279,Burnley,0.7025906420980311,0.2974091181528194,-2.2405035,53.78929
280,Gloucester,0.7789518714411737,0.2210479173059314,-2.238156,51.86424
281,Newcastle-under-Lyme,0.7691836484148487,0.2308159929923583,-2.2273002,53.01321
282,Worcester,0.7525695691628929,0.24742982100246536,-2.221575,52.19364
283,Trowbridge,0.8471294612289638,0.15287058167945228,-2.208853,51.31966
284,Shaftesbury,0.7218372561899371,0.2781628631225988,-2.198083,51.0046
285,Alderney,0.7765699336677163,0.22343055994444705,-2.1973557,49.715
286,Stoke-on-Trent,0.7659828404291541,0.2340168307879917,-2.179404,53.00267
287,Colne,0.6756742390012556,0.3243253387869164,-2.176991,53.85564
288,Blandford Forum,0.7861748889082959,0.21382511280164865,-2.165353,50.85691
289,Rochdale,0.7096162194521554,0.2903836637880708,-2.1561,53.60971
290,Jersey,0.8087184997588949,0.191280759259874,-2.13125,49.21444
291,Wolverhampton,0.7813198871553829,0.21867944351870114,-2.12882,52.58697
292,Stafford,0.7139915429818278,0.286008600952158,-2.12066,52.80669
293,Macclesfield,0.8457321927369877,0.15426807845311816,-2.119287,53.25866
294,Hexham,0.6803292693576761,0.31967057814375754,-2.1121439,54.97266
295,Aberdeen,0.7837739665085877,0.21622568830786087,-2.094278,57.14972
296,Dudley,0.8141594936420494,0.18583993302268192,-2.081112,52.51226
297,Cheltenham,0.7512925366371661,0.2487067515463589,-2.0782533,51.89939
298,Bromsgrove,0.8768897613379342,0.1231101783595503,-2.061906,52.33559
299,Skipton,0.5187232712282925,0.4812758990970831,-2.0162787,53.96285
300,Fraserburgh,0.8269753820023209,0.17302434309142736,-2.007631,57.69335
301,Berwick,0.8654293752918903,0.13457108182484154,-2.005395,55.77024
302,Poole,0.8109409666718547,0.18905841005729387,-1.987248,50.71505
303,Walsall,0.8083628544271501,0.1916368587532921,-1.982919,52.58621
304,Cirencester,0.7466729442497473,0.2533268931105352,-1.968243,51.71849
305,Evesham,0.8015549674540225,0.19844545691901475,-1.94677,52.09215
306,Buxton,0.8633499258966744,0.13665018830738754,-1.91483,53.25908
307,Keighley,0.5350703000710031,0.4649293567526807,-1.912358,53.8678
308,Birmingham,0.8199042415451961,0.18009566175567404,-1.890401,52.48624
309,Bournemouth,0.7900591434389755,0.2099404542222628,-1.880769,50.71916
310,Halifax,0.5076919377354899,0.4923076920350927,-1.85754,53.72702
311,Salisbury,0.7633680245736998,0.23663212229425504,-1.794472,51.06878
312,Ringwood,0.7658967767901546,0.2341027146567301,-1.788817,50.84495
313,Huddersfield,0.5953540822641832,0.40464544324705415,-1.7850351000000002,53.64579000000001
314,Peterhead,0.7932371698731701,0.2067631383650965,-1.784066,57.50812
315,Swindon,0.6719241424960761,0.3280751509088343,-1.7797176,51.55577
316,Bradford,0.6661123155801751,0.3338871630804737,-1.759398,53.79598000000001
317,Ashbourne,0.6568098487178425,0.3431894322437128,-1.732179,53.016630000000006
318,Marlborough,0.8219495186131597,0.17805032004441812,-1.727062,51.42007
319,Stratford-upon-Avon,0.6242157767306704,0.3757841525776225,-1.708298,52.19173
320,Alnwick,0.7065116002394591,0.293488085050348,-1.7062990000000002,55.41274
321,Otley,0.6630823692307288,0.3369170545396562,-1.691786,53.90583
322,Bishop Auckland,0.8984233900720542,0.10157632653493916,-1.6787880000000002,54.66382
323,Burton upon Trent,0.6534989298999017,0.34650114525578285,-1.6371359,52.81403
324,Newcastle,0.6474415684845092,0.3525586778644037,-1.61778,54.97825
325,Durham,0.8126521143178257,0.18734817844868185,-1.584852,54.77525
326,Ashington,0.7100288186626472,0.28997086231104946,-1.5659829,55.18298000000001
327,Darlington,0.8777162254006701,0.12228415647832812,-1.559458,54.52361
328,Leeds,0.6878028838912913,0.3121967312106971,-1.5490774,53.80076
329,Harrogate,0.7502268662836838,0.24977267315276644,-1.5418120000000002,53.99211999999999
330,Leamington Spa,0.6839654581053587,0.3160340257059691,-1.5200789,52.28519
331,Coventry,0.7032601665837667,0.2967399914613781,-1.519693,52.40682
332,Blyth,0.6558758051063603,0.34412430051880705,-1.510277,55.12696
333,Wakefield,0.7566778422833187,0.2433216071861032,-1.505924,53.6833
334,Andover,0.7319294835042573,0.2680706630976332,-1.4919233,51.2112
335,Witney,0.6278342464938569,0.3721656734936845,-1.4850544,51.78594
336,Barnsley,0.7416027833993363,0.2583974877066135,-1.479726,53.55263000000001
337,Derby,0.6234450009049337,0.3765543546270365,-1.4746186,52.92253
338,Sheffield,0.7488080818819597,0.2511919338895144,-1.470085,53.38113000000001
339,Nuneaton,0.7416470808605861,0.2583526700922439,-1.465382,52.52049
340,Northallerton,0.8202054642816908,0.17979403292073048,-1.429959,54.33796
341,South Shields,0.6882091548930338,0.3117911286998313,-1.427406,54.99941999999999
342,Chesterfield,0.7592534232445246,0.24074693389728544,-1.421629,53.23505
343,Southampton,0.8014777633072753,0.19852231423595607,-1.4043508999999998,50.9097
344,Wetherby,0.7491232266777041,0.2508767475079009,-1.384816,53.92706
345,Sunderland,0.6853374137623344,0.3146621341158991,-1.383801,54.90687
346,Rotherham,0.7144598304293188,0.2855394354176874,-1.3635008999999998,53.4326
347,Castleford,0.7602380925260059,0.2397621538026921,-1.345968,53.72346999999999
348,Thirsk,0.7569537521848146,0.24304628469988385,-1.341377,54.23385
349,Banbury,0.7286653934310663,0.2713338299168712,-1.339775,52.0629
350,Stockton,0.8855049847300324,0.11449447642108995,-1.3289821000000002,54.57046
351,Newbury,0.801985285649016,0.19801424163070694,-1.3231138999999998,51.40141
352,Isle of Wight,0.8173640985529921,0.1826362019716632,-1.304734,50.69385
353,Isle of Wight,0.8173640985529921,0.1826362019716632,-1.304734,50.69385
354,Abingdon,0.6099406034326756,0.3900596834794808,-1.2879528999999998,51.67078
355,Shetland Islands,0.8360829400351584,0.1639174015733629,-1.2659409,60.52965
356,Rugby,0.6747477892402749,0.3252514159194444,-1.265032,52.37088
357,Oxford,0.6407134169416276,0.35928598643831217,-1.2577263,51.75202
358,Middlesbrough,0.8858922711055239,0.11410738011330555,-1.234956,54.57423000000001
359,Hartlepool,0.9046592069741924,0.09534019046166044,-1.212926,54.69174
360,Loughborough,0.8506023821909037,0.14939693369503598,-1.206166,52.7721
361,Mansfield,0.8916155030989239,0.10838498418579008,-1.198674,53.1472
362,Nottingham,0.8822839264763389,0.11771579861672828,-1.1581086,52.95478000000001
363,Bicester,0.7350872596704529,0.264912231870215,-1.1535898999999998,51.8996
364,Leicester,0.875024205398467,0.12497586738973784,-1.1397592,52.63688000000001
365,Doncaster,0.75492366281785,0.2450757173034437,-1.128462,53.52282
366,Worksop,0.8383712203191189,0.1616285100282029,-1.122745,53.3093
367,Basingstoke,0.7898933443697299,0.2101064151987125,-1.0923964,51.26654
368,Portsmouth,0.8440564830600185,0.15594299234890133,-1.0879769,50.81977
369,York,0.7085885183511735,0.2914117034929308,-1.0872979,53.95997
370,Selby,0.7625782641217149,0.23742183799700706,-1.067189,53.78352
371,Helmsley,0.7845105700070747,0.2154893915158908,-1.0562636,54.24651
372,Towcester,0.7460249356737585,0.2539747874081253,-0.989688,52.13511
373,Reading,0.8157731868732715,0.1842272241176828,-0.9781303,51.45426
374,Retford,0.7983655502440788,0.20163398635567084,-0.945503,53.32136
375,Petersfield,0.880365213583374,0.11963522929615936,-0.93899,51.00759
376,Northampton,0.7199906848767209,0.28000907646867906,-0.902656,52.24048
377,Melton Mowbray,0.8452082170524975,0.1547921753393967,-0.887126,52.7664
378,Aylesbury,0.7537656006166216,0.2462336624032064,-0.8084,51.81561
379,Newark-on-Trent,0.8850354316407919,0.11496448107556075,-0.80657,53.07004000000001
380,Malton,0.8378763543948783,0.16212310355652568,-0.7978970000000001,54.13684
381,Chichester,0.8895525070464616,0.11044701970217816,-0.774936,50.83761
382,Gainsborough,0.7918538234404433,0.2081456233705536,-0.774465,53.40058000000001
383,Milton Keynes,0.7354897337469446,0.2645101579665296,-0.7594171,52.04062
384,Aldershot,0.9651341010716182,0.034866143501629684,-0.7557509,51.24837
385,High Wycombe,0.6692574353288705,0.3307424286202382,-0.748229,51.62861
386,Midhurst,1.0,0.01,-0.737274,50.9869
387,Kettering,0.7788974488459253,0.22110192600543144,-0.7302489999999999,52.39632
388,Wellingborough,0.7402029836238616,0.2597963108720746,-0.693964,52.30242
389,Corby,0.942860071913766,0.057139549878211675,-0.6842333,52.4923
390,Bognor Regis,0.8870667866495059,0.11293363981353907,-0.673061,50.783
391,Scunthorpe,0.7723831907587897,0.2276162208664687,-0.654413,53.58865
392,Grantham,0.9382278231088484,0.061772066880339614,-0.643582,52.91252
393,Whitby,0.9014634615554992,0.09853606567883114,-0.613347,54.48633
394,Slough,0.5351259883080023,0.4648740140675393,-0.5950406,51.51054
395,Guildford,0.9644228104081316,0.03557669842077313,-0.570409,51.23622
396,Woking,0.9641544943571356,0.0358453914792986,-0.5600349,51.31677
397,Lincoln,0.8796805013966369,0.12031897540709127,-0.540579,53.23069
398,Bedford,0.8041900335774771,0.1958094418065926,-0.4667782,52.13864
399,Heathrow,0.650875254552198,0.3491245166143558,-0.4542955,51.47002
400,Driffield,0.7800301982121558,0.21996979492003385,-0.443377,54.006
401,Beverley,0.8419264079948048,0.15807340032479286,-0.435093,53.84196
402,Luton,0.7747107059369986,0.22528892977258155,-0.4200255,51.87867
403,Scarborough,0.7901603947789767,0.2098391624396745,-0.399752,54.28311
404,Worthing,0.8703830971013001,0.12961655410468825,-0.372882,50.81787
405,Dorking,0.8695958679328153,0.13040376890077301,-0.332378,51.2322
406,Hull,0.8444526289277623,0.15554785289239706,-0.3274198,53.76762
407,Horsham,0.9173801722032162,0.08261963624940283,-0.325858,51.06288
408,Biggleswade,0.9487934004376584,0.051205975417312616,-0.26421999999999995,52.08694000000001
409,Peterborough,0.7607481461512469,0.23925161193180144,-0.2405299,52.5695
410,Welwyn Garden City,0.8244744739043665,0.17552491689509928,-0.208661,51.80317
411,Bridlington,0.8454018602402447,0.15459784501935048,-0.198802,54.08535
412,Stevenage,0.8628335440626841,0.13716588260289486,-0.196612,51.90376
413,Crawley,0.8689389998645771,0.1310614516660577,-0.1872275,51.10914
414,Huntingdon,0.7755371699997345,0.22446247630776955,-0.182552,52.33146
415,Hove,0.8609730506902185,0.13902745829974808,-0.168749,50.82793
416,Spalding,0.8133267013705627,0.1866727172239057,-0.1537024,52.7901
417,Brighton,0.867154444997108,0.13284530055058474,-0.137163,50.82253
418,London,0.7826462797093583,0.2173531567717189,-0.12775830000000002,51.50735
419,Grimsby,0.802692779387252,0.1973068179074617,-0.08078400000000001,53.56746999999999
420,Boston,0.7818906915846218,0.2181095114426681,-0.026577,52.97894
421,Royston,0.7759459722849771,0.22405447034459552,-0.024066,52.04814
422,Louth_Lincs,0.8109802015661058,0.1890191954357461,-0.007711,53.36596
423,Lewes,0.8843557820210534,0.11564446190444053,0.00878,50.87387
424,Chatteris,0.7153192011775537,0.28468026766363674,0.054012,52.4561
425,Uckfield,0.9069677375261516,0.0930325636323934,0.095913,50.96641
426,Cambridge,0.7076608029484394,0.29233871593417704,0.121817,52.20534
427,Bishop's Stortford,0.7896440129449837,0.21035584899774626,0.1536502,51.87216
428,Wisbech,0.7971733157156008,0.2028270871662112,0.158797,52.66631999999999
429,Sevenoaks,0.8606629684614756,0.13933662655828316,0.190898,51.27241
430,Tunbridge Wells,0.9035492391594616,0.09645020573577072,0.263695,51.13238
431,Eastbourne,0.8852505907382858,0.11474918667756084,0.29047199999999995,50.76803
432,Brentwood,0.7980845777755842,0.20191517508804546,0.30717490000000003,51.62047000000001
433,Skegness,0.8247035550611113,0.17529654083145518,0.337881,53.1464
434,Downham Market,0.7776330727376971,0.2223673835134249,0.385472,52.60661
435,King's Lynn,0.8434717565715291,0.15652804250698926,0.4022963,52.75168000000001
436,Bexhill,0.9334259783094304,0.06657375325891808,0.4662071,50.84991
437,Chelmsford,0.7742753251750064,0.22572446342806984,0.4685497,51.73559
438,Mildenhall,0.7026792370205293,0.2973209029733113,0.5156095,52.34757000000001
439,Medway,0.8367841055646464,0.1632161503814012,0.5417860999999999,51.40474
440,Braintree,0.8956174623123527,0.1043827652740685,0.5509269,51.88009
441,Gillingham,0.8586670514217591,0.14133344738952758,0.551438,51.38632
442,Hastings,0.9210669866209008,0.07893355168442316,0.573453,50.85426
443,Maldon,0.8248364474448606,0.17516334476988502,0.6714479999999999,51.73181
444,Southend,0.8022978991612589,0.1977022155547353,0.7077123000000001,51.54593
445,Bury St Edmunds,0.6786345750544531,0.3213646272662119,0.7104931999999999,52.24292
446,Thetford,0.8264653283770814,0.17353396104436908,0.751657,52.41286
447,Ashford,0.7974618820345956,0.2025385716379374,0.8750190000000001,51.14647
448,Faversham,0.8069263510409285,0.19307411184286485,0.889358,51.31599
449,Colchester,0.7356365481899421,0.2643636612834178,0.891874,51.89593
450,New Romney,0.8073427471766712,0.192657526099176,0.939473,50.98512
451,Canterbury,0.7816540165773754,0.21834606101605766,1.0789089,51.28023
452,Ipswich,0.7667295690616412,0.2332703215385833,1.14822,52.05674000000001
453,Clacton,0.7558247997438345,0.24417511752476784,1.153035,51.78953
454,Folkestone,0.7932713422004196,0.2067290242768832,1.169456,51.0814
455,Sheringham,0.7074291905081931,0.2925711281270528,1.2109589,52.94442
456,Harwich,0.7725338021270378,0.22746543745720205,1.260297,51.93473
457,Norwich,0.6890191656130217,0.3109804387939974,1.297355,52.63089
458,Cromer,0.7111387864773778,0.2888614342943752,1.301866,52.93145
459,Dover,0.7936459721584139,0.2063545147691018,1.3134027,51.12788
460,Felixstowe,0.7693456505588434,0.2306542061000121,1.351255,51.96173
461,Margate,0.7886682031557503,0.21133152533643992,1.3868339,51.38965
462,Ramsgate,0.7856863511928046,0.2143136261904829,1.419895,51.33555
463,Great Yarmouth,0.6887761623970245,0.3112232026648244,1.728047,52.59823000000001
464,Lowestoft,0.6538811537083946,0.3461187849767175,1.7534490000000005,52.48114
465,Swaffham,0.7075544890414409,0.2924459372449717,0.687481,52.64747
466,Dereham,0.6819492907976462,0.31805099554234656,0.937827,52.68162
467,Ely,0.6523598523249214,0.3476399083001564,0.262363,52.39954
468,March,0.6724772279408132,0.3275226315220362,0.088622,52.55172
469,St Neots,0.7826336232918581,0.2173662776722348,-0.26510300000000003,52.23008
470,Banham,0.7142104990045725,0.2857899095736444,1.0402849,52.45125
471,Holt,0.693424864544693,0.3065743297837182,1.086747,52.90936
472,Cromer,0.7111387864773778,0.2888614342943752,1.301866,52.93145
473,Hunstanton,0.8819358749950956,0.11806352842604174,0.491032,52.93891
474,Horncastle,0.8951605656406125,0.10483910986494636,-0.11245,53.20731
475,Market Weighton,0.7800301982121558,0.21996979492003385,-0.6677465,53.86484
476,Hawes,0.7862887966657944,0.21371049255341626,-2.1968695,54.30383000000001
477,Reeth,0.90813845614488,0.0918610420013454,-1.9428115,54.38946
478,Aysgarth,0.8054101122244554,0.1945892676688664,-1.9967434,54.29159
479,Stanhope,0.7788632765186756,0.2211370462782604,-2.011302,54.74946
480,Keswick,0.7682230263266155,0.2317766588284843,-3.134706,54.60128
481,Oxenholme,0.7720705772465454,0.22792934931577394,-2.7243328,54.30134
