index,placename,longitude,latitude,control,doubled
0,Dingle,-10.264013499999999,52.14094,0.3963016229302156,0.22791878608546515
1,Tralee,-9.6999325,52.27131,0.4806270663133653,0.2730903866755432
2,Killarney,-9.5044265,52.059940000000005,0.5818876632268886,0.3133626485713857
3,Bantry,-9.4539805,51.68035,0.36895795734853604,0.31320773484097897
4,Mayo,-9.4289369,54.01526,0.5170514270217038,0.17365730637052448
5,Ballycastle,-9.3724643,54.279669999999996,0.11467533002316495,0.34026742699976986
6,Abbeyfeale,-9.2970823,52.386179999999996,0.15366103915658066,0.26202993193946283
7,Ennistymon,-9.2934951,52.940369999999994,0.18119272593004493,0.20677794855836332
8,Galway,-9.0567905,53.270669999999996,0.7155759359626465,0.2193059395959511
9,Claremorris,-9.0017356,53.72388,0.5815101042193895,0.26290586783320724
10,Clare,-8.9811351,52.90453,0.5898117724781736,0.23484966420415276
11,Adare,-8.7925892,52.56363,0.3481068104476699,0.28872041533907317
12,Charleville,-8.681017599999999,52.36206,0.14536730616388496,0.2786744633836771
13,Mallow,-8.6539164,52.13898,0.417618019266567,0.3167788312061341
14,Limerick,-8.6267343,52.66384,0.6548882160759546,0.3033158645395005
15,Loughrea,-8.5660931,53.19891,0.17011399919132206,0.2290110100554128
16,Sligo,-8.476088800000001,54.27661,0.5152709276033623,0.42055556053018456
17,Cork,-8.4756035,51.898509999999995,0.7113489183743449,0.3319378290788311
18,Nenagh,-8.19834,52.8635,0.4975796755687753,0.2905451653837341
19,Roscommon,-8.1890955,53.627590000000005,0.5194088314609664,0.27337684093684644
20,Tipperary,-8.161851400000002,52.47379,0.5623590105266033,0.31314578781902414
21,Donegal,-8.1096143,54.653830000000006,0.40503055781973246,0.6902372212614347
22,Leitrim,-8.0020132,54.12469,0.4363019693534223,0.36937956036287933
23,Athlone,-7.9406898,53.423930000000006,0.47109229590517976,0.3207517181368939
24,Longford,-7.7932573000000005,53.727630000000005,0.46789765831473856,0.36235952741804167
25,Offaly,-7.7122229,53.235690000000005,0.5296422924324905,0.3609417296460345
26,Fermanagh,-7.6318728,54.343830000000004,0.2298798701780696,0.6794946388885305
27,Enniskillen,-7.631533599999999,54.343819999999994,0.29070005671158655,0.6864399072027497
28,Doon,-7.60964,54.185930000000006,0.20426022154508847,0.5892861044540036
29,Westmeath,-7.4653217000000005,53.534530000000004,0.439576361662525,0.3899101088750846
30,Strabane,-7.4633103,54.82739,0.25847672101942043,0.7749770165669649
31,Balivanich,-7.3743509000000005,57.472269999999995,0.2715387294037719,0.10928589864505057
32,Cavan,-7.3633319,53.98972,0.41511648681477764,0.5249826788515347
33,Mullingar,-7.340186800000001,53.525819999999996,0.4116435576173656,0.43386220900298006
34,Laois,-7.332300699999999,52.9943,0.40641478958804256,0.5910402633641966
35,Omagh,-7.309959700000001,54.59771,0.28104388581179823,0.7632464792353387
36,Derry,-7.308574799999999,54.99661,0.41066593611675245,0.7424878110915142
37,Derry,-7.308574799999999,54.99661,0.41066593611675245,0.7424878110915142
38,Kilkenny,-7.2447879,52.65415,0.4751647798810277,0.5313903168774449
39,Tyrone,-7.131232000000001,54.491209999999995,0.2212569311742931,0.7162696606086731
40,Waterford,-7.110070200000001,52.25932,0.5373501823824485,0.47041858917551294
41,Western Isles,-7.0194034,57.759890000000006,0.48153110094206064,0.13403364689126201
42,Monaghan,-6.9683132,54.2492,0.18718754659659395,0.9619010753782755
43,Carlow,-6.934135899999999,52.83651,0.41763117660648946,0.594259382387117
44,Kildare,-6.8194707999999995,53.21204,0.491006980286435,0.5731837115618325
45,Dungannon,-6.7669352,54.508269999999996,0.08782696176678792,1.0
46,Cookstown,-6.7443895000000005,54.641819999999996,0.1946941780139441,0.8964277947212631
47,Coleraine,-6.6646103000000005,55.132580000000004,0.3678902015509352,0.7462411127875388
48,Meath,-6.656416900000001,53.60555,0.46070716412192986,0.5597119791138133
49,Armagh,-6.652792,54.350280000000005,0.216362123625334,0.8998258917636327
50,Armagh,-6.652792,54.350280000000005,0.216362123625334,0.8998258917636327
51,Magherafelt,-6.607980499999999,54.75536999999999,0.1710598483905192,0.9816276464523261
52,Dunvegan,-6.581398200000001,57.4366,0.22650982231186495,0.11583363633927425
53,Louth,-6.4889423,53.925230000000006,0.41577099244021637,0.65441005165336
54,Wexford,-6.4633381,52.33692,0.44890280617106554,0.6160144126530563
55,Craigavon,-6.4175653,54.442930000000004,0.24420975351776025,0.9187424451770089
56,Stornoway,-6.384869200000001,58.209430000000005,0.5701147914797963,0.13230694973289125
57,Drogheda,-6.3560985,53.717859999999995,0.38644682743354725,0.5528725001224717
58,Rosslare,-6.3414908,52.25131,0.01,0.5704031784233163
59,Newry,-6.34023,54.1751,0.230062589013927,0.9465143034515671
60,Scilly Isles,-6.327496599999999,49.92773,0.46355134141167487,0.187563185847216
61,Ballymena,-6.2802213,54.86529,0.2532403414569618,0.8811521897399568
62,Banbridge,-6.2704803,54.34873,0.17366404716542952,0.9566780155709241
63,Dublin,-6.2603097000000005,53.34981,0.6845061215903293,0.5902673285252551
64,Antrim,-6.2072498,54.719530000000006,0.2911937861928203,0.8541722718581283
65,Antrim,-6.2072498,54.719530000000006,0.2911937861928203,0.8541722718581283
66,Portree,-6.1960231,57.41246999999999,0.5803064549840858,0.09875488523560691
67,Islay,-6.177067,55.73625,0.37762087370818614,0.37134809105530275
68,Wicklow,-6.044589,52.980819999999994,0.4479455720397864,0.5861865877000252
69,Kilkeel,-6.007004,54.06312,0.11307392363811306,0.8784700449459866
70,Mull,-6.0008870000000005,56.4392,0.5347122156152424,0.06140171735066428
71,Belfast,-5.93012,54.597280000000005,0.48687756531465604,0.8547226497745065
72,Broadford,-5.9096592,57.24139,0.23751469087232868,0.09374827372809706
73,Down,-5.7156921999999994,54.32875,0.2588937678622906,0.9262906617934459
74,Kyle of Lochalsh,-5.7143293,57.28261,0.23769603371650663,0.09338502528186662
75,Campbeltown,-5.605373999999999,55.424119999999995,0.48200854334857085,0.2022006583127112
76,Penzance,-5.537592,50.1188,0.6175714324124331,0.19223463719499181
77,Oban,-5.471047,56.41516,0.5876217573869744,0.13774499660929415
78,Lochgilphead,-5.4323449,56.03829,0.4943384311098504,0.04590999939394982
79,Helston,-5.274996,50.10159,0.5293638814287522,0.18955928958125295
80,Redruth,-5.226666000000001,50.23302,0.5641801096820015,0.19061527075449688
81,Ullapool,-5.161313,57.895419999999994,0.48385144749758974,0.13106495640984386
82,Ballachulish,-5.133719999999999,56.673930000000006,0.19725657946469313,0.17454038855849194
83,Fort William,-5.1052179,56.81981999999999,0.5732874917939133,0.14469485044000116
84,Achnasheen,-5.078765799999999,57.578590000000005,0.2206305912279171,0.1276316967154738
85,Newquay,-5.0737190000000005,50.4155,0.6093948797850945,0.19102430593708558
86,Falmouth,-5.066269999999999,50.152570000000004,0.6327562096801057,0.19269519365728088
87,Rothesay,-5.055793,55.83596,0.6308759922741664,0.014178226398374672
88,Truro,-5.051041000000001,50.2632,0.7365160953704463,0.1958422458029053
89,Milford Haven,-5.0426971,51.71431,0.5331362767939056,0.1496602057786874
90,Stranraer,-5.024055000000001,54.903369999999995,0.2923934155326272,0.6537169427182422
91,Fishguard,-4.975989,51.99393,0.4584530001262062,0.160117360360256
92,Inchnadamph,-4.974295,58.15221,0.22264217575771184,0.1235954811578193
93,Haverfordwest,-4.971319,51.800470000000004,0.5625977790885145,0.15036526979268608
94,Dunoon,-4.926214,55.95097,0.6027823587003464,0.014486127134608909
95,Pembroke,-4.908637000000001,51.674040000000005,0.6413653498734597,0.14461316210073397
96,Girvan,-4.8542179,55.240159999999996,0.5932047778897719,0.014994822656091518
97,Wadebridge,-4.836456,50.51665,0.5522262337386231,0.19170133956277793
98,Invergarry,-4.800261,57.07095,0.2367767095627411,0.09522997194541838
99,St Austell,-4.7834252,50.340379999999996,0.5774180401296003,0.19101677907480355
100,Greenock,-4.7719830000000005,55.956480000000006,0.7396593090481587,0.015495462932451548
101,Helensburgh,-4.734014,56.00232,0.6195704304346514,0.015605319925141494
102,Bodmin,-4.7188629,50.4715,0.5299178470350049,0.1910195710821367
103,Tenby,-4.703579,51.672740000000005,0.5664278532122582,0.14267886570321187
104,Camelford,-4.682364,50.62206,0.44773219439180995,0.18747692589213816
105,Irvine,-4.6696364,55.61156999999999,0.7634827781522326,0.012400585015249193
106,Cardigan,-4.660864,52.0837,0.49607952649089154,0.18620463457231443
107,Holyhead,-4.633038,53.30944,0.4532968894390218,0.3207728740511203
108,Ayr,-4.629179,55.45856,0.7861581780651666,0.013965618934788305
109,Dumbarton,-4.564554,55.94529,0.684636596873844,0.09030831288714936
110,Bude,-4.543678,50.826640000000005,0.5516930587989444,0.17474296490258884
111,Isle of Man,-4.5126330999999995,54.27697,0.6702872854897984,0.21090968725876838
112,Kilmarnock,-4.498792,55.61472,0.7533173541468845,0.01
113,Newton Stewart,-4.483164,54.9603,0.5323467889492154,0.05243103049289656
114,Liskeard,-4.4647190000000005,50.45552,0.5510637793287348,0.19150379482155633
115,Altnaharra,-4.442655,58.28023,0.22102149914699087,0.1268479934076112
116,Pwllheli,-4.417633900000001,52.888819999999996,0.4754378070636312,0.2276299346970172
117,Lairg,-4.402414,58.022059999999996,0.2195461370008105,0.1298085386799088
118,Launceston,-4.360451599999999,50.636829999999996,0.5155072910239648,0.21474220305691685
119,Carmarthen,-4.312131,51.857620000000004,0.6315210756982264,0.1457256042871587
120,Llangefni,-4.311401999999999,53.255790000000005,0.5262393187756911,0.3245627540697668
121,Caernarfon,-4.273911,53.13955,0.5458022740959715,0.25150990998428635
122,Cumnock,-4.265828900000001,55.45355,0.6569275758477626,0.04353233624243731
123,Aberaeron,-4.2581619,52.24279,0.4900872379703711,0.15605614607126853
124,Alness,-4.256825,57.69595,0.5650416673030713,0.1358790659463258
125,Glasgow,-4.251806,55.86424,0.922525979536623,0.10704706551580698
126,Dalwhinnie,-4.242783,56.9366,0.2498838340750889,0.0689259832544731
127,Inverness,-4.224721,57.47776999999999,0.7150517348656261,0.1416653015293397
128,Saltash,-4.21643,50.409209999999995,0.529258890851079,0.19536286247613555
129,Bideford,-4.206666,51.01668,0.5371621743084322,0.2529700583525202
130,Invergordon,-4.1728819999999995,57.688109999999995,0.5664844275473153,0.14044900471336064
131,Llanelli,-4.160248,51.680890000000005,0.6690760442160251,0.14446386280664217
132,Plymouth,-4.1426565,50.37546,0.7506234018694422,0.20344450153374669
133,Tavistock,-4.141654,50.551120000000004,0.5649263341289411,0.19753271907743664
134,Porthmadog,-4.1333839999999995,52.92784,0.5269082033252288,0.23361948100130203
135,Bangor,-4.129263,53.22739,0.5932017679616194,0.32804193142206
136,Tywyn,-4.087249,52.58701,0.40396435137948944,0.2156289415817254
137,Aberystwyth,-4.08292,52.4153,0.6395002094200831,0.1792631046632448
138,Lampeter,-4.0785089999999995,52.1129,0.4964859382017288,0.19152561813172325
139,Barnstaple,-4.058338,51.07816,0.6293976837044163,0.2055364335816341
140,Tain,-4.05523,57.8115,0.4743166584000688,0.1378783952340938
141,Okehampton,-4.004263,50.73831,0.4878364595996795,0.19724275748693365
142,Llandeilo,-3.9914300000000003,51.88469,0.5874950069232231,0.14590697765735733
143,Motherwell,-3.9810968,55.78321,0.7773579133701898,0.08834153868297902
144,Golspie,-3.976086,57.97341,0.22012139012903245,0.12865365886281166
145,Airdrie,-3.9625660000000003,55.86626999999999,0.7114740225392014,0.13380760114249046
146,Swansea,-3.9436459999999998,51.62144,0.7942274422287366,0.14050920115793625
147,Stirling,-3.9369029,56.116519999999994,0.6868095396452105,0.22825697533842565
148,Tregaron,-3.934385,52.22,0.5183081662522065,0.1360904332508441
149,Tregaron,-3.934385,52.22,0.5183081662522065,0.1360904332508441
150,Castle Douglas,-3.9314139999999997,54.940419999999996,0.5191149429709861,0.14087180463152787
151,Dolgellau,-3.8844,52.74215,0.4097511144249357,0.23377600545402633
152,Aberfeldy,-3.866969,56.62175,0.5252091805206655,0.21536372936202403
153,Machynlleth,-3.853485,52.59027,0.45710591033294856,0.23973059325303797
154,Brora,-3.8525480000000005,58.012159999999994,0.4069017433713666,0.19348023647359072
155,Llandudno,-3.827609,53.324059999999996,0.5151676780610581,0.3935225519296072
156,Llandudno,-3.827609,53.324059999999996,0.5151676780610581,0.3935225519296072
157,Aviemore,-3.823812,57.19449,0.5339162355894949,0.14263230982605074
158,Dalbeattie,-3.8225269999999996,54.934219999999996,0.4175446605769621,0.20002332454913377
159,Falkirk,-3.7839131,56.00188000000001,0.7502427609829098,0.10211619248032963
160,Kingsbridge,-3.777493,50.28395,0.5297071398943656,0.21595170779006276
161,Pitlochry,-3.729711,56.70436,0.4516491072780948,0.20222931965769
162,Colwyn Bay,-3.72764,53.29318000000001,0.4948287714338806,0.3910093955456744
163,Totnes,-3.685797,50.43374,0.5394997524590971,0.21652305854950782
164,Grantown-on-Spey,-3.609628,57.33041,0.39980665071288085,0.24881687288334153
165,Dumfries,-3.60512,55.070859999999996,0.6437388938224564,0.16744115550230498
166,Whitehaven,-3.589233,54.5497,0.5788240582889764,0.21979887834593412
167,Dartmouth,-3.578807,50.35252,0.49201410063469947,0.2158104755807886
168,Bridgend,-3.576945,51.504290000000005,0.788796466223787,0.01
169,Paignton,-3.564235,50.43508,0.6322167264481918,0.22020437933004347
170,Workington,-3.5427519999999997,54.64357,0.5747810566294902,0.22105542647708654
171,Llanidloes,-3.5401949999999998,52.447790000000005,0.3699818379175556,0.35789487124267044
172,Exeter,-3.533899,50.71841,0.7105444705742373,0.32865190954693774
173,Torquay,-3.525315,50.46192,0.6391100956602669,0.21949553555314075
174,Thurso,-3.5220800000000003,58.59356999999999,0.541469644412549,0.14685744910267104
175,Livingston,-3.518068,55.90071,0.7388514068131579,0.11617250676506238
176,Rhyl,-3.4916339999999995,53.319140000000004,0.4683914583026932,0.43636161169067783
177,Tiverton,-3.491207,50.90205,0.5322973740622302,0.2587297645741399
178,Tiverton,-3.491207,50.90205,0.5322973740622302,0.2587297645741399
179,Minehead,-3.481152,51.20428,0.5345738810262669,0.13487718058692355
180,Dunfermline,-3.452151,56.071740000000005,0.7228403768994724,0.12028636473023091
181,Perth,-3.4308381000000003,56.39499,0.6191296982871003,0.10827789472033894
182,Prestatyn,-3.4076129999999996,53.33651,0.4260942698645146,0.44193256534542824
183,Builth Wells,-3.4045919999999996,52.15002,0.5398431870304422,0.1615888997453533
184,Braemar,-3.3979439,57.00646999999999,0.13563483987764105,0.29820546651684865
185,Brecon,-3.391463,51.94895,0.6178079785617984,0.08712328822770575
186,Merthyr Tydfil,-3.381646,51.74873,0.7868876826020046,0.07614762027302785
187,Llandrindod Wells,-3.377742,52.2417,0.5085559728599365,0.15935798236130477
188,Corwen,-3.369242,52.98005,0.37545040163214044,0.3119054952866817
189,Cockermouth,-3.367985,54.66326,0.5061200479436919,0.2189927706008182
190,Lockerbie,-3.349008,55.122240000000005,0.5713838027333576,0.251196980312093
191,Blairgowrie,-3.3378318,56.58941,0.5309147653183969,0.16561873261790316
192,Elgin,-3.318485,57.64945,0.65483315070149,0.20489098681406648
193,Newtown,-3.313106,52.51211,0.447338655190004,0.2300724019959962
194,Ruthin,-3.3103108,53.114869999999996,0.549031279205091,0.18212751502280336
195,Ruthin,-3.3103108,53.114869999999996,0.549031279205091,0.18212751502280336
196,Sidmouth,-3.2375599999999998,50.67865,0.4905685028617065,0.29985716471969637
197,Barrow-in-Furness,-3.2188939999999997,54.10896999999999,0.5911468115450244,0.30102576332958575
198,Peebles,-3.1936419999999996,55.65306999999999,0.5708242936153487,0.12291119329578652
199,Edinburgh,-3.1882669999999997,55.95325,0.8867403919803105,0.129306917631616
200,Cardiff,-3.17909,51.48158,0.8890659959228315,0.08615462563081824
201,Llangollen,-3.1716599999999997,52.96921,0.4913017274372033,0.17851247820223454
202,Kirkcaldy,-3.158137,56.11682,0.7551552052206199,0.1137860800407077
203,Welshpool,-3.146407,52.66035,0.5201388832695243,0.23724177705057234
204,Mold,-3.1419029999999997,53.1672,0.5722514679014726,0.3227368891429197
205,Mold,-3.1419029999999997,53.1672,0.5722514679014726,0.3227368891429197
206,Taunton,-3.106849,51.01534,0.6158678626753236,0.2908385145006152
207,Wick,-3.093716,58.43894,0.5069018620269555,0.18967430818103856
208,John o' Groats,-3.0688997000000002,58.63734,0.1944571743668112,0.1801578640549139
209,Dalkeith,-3.066606,55.893119999999996,0.7027008122616589,0.11263007425841307
210,Oswestry,-3.056412,52.85715,0.6110427123148924,0.1760705291547849
211,Blackpool,-3.0356748,53.81751,0.7335086916525877,0.21148904943898927
212,Birkenhead,-3.023009,53.389990000000004,0.5912053823975271,0.48388804291662785
213,Cupar,-3.010137,56.32023,0.5521038141129702,0.13915955925812165
214,Southport,-3.010113,53.64571,0.6353214482338067,0.29779411043532134
215,Bridgwater,-3.003632,51.12789,0.7309294835040475,0.14733071570335135
216,Langholm,-2.998913,55.153059999999996,0.44175709399841195,0.16209756659761543
217,Newport,-2.997664,51.58415,0.7732982800458629,0.11259523623726679
218,Axminster,-2.9949369999999997,50.78273,0.5015883633076772,0.31164970945857196
219,Wrexham,-2.9924939999999998,53.043040000000005,0.6733768031866352,0.2157766453313981
220,Liverpool,-2.9915726,53.40837,0.711556833240764,0.5000450433645318
221,Weston-super-Mare,-2.977255,51.347409999999996,0.7281357462313083,0.09094512342374891
222,Dundee,-2.9707209999999997,56.462019999999995,0.7621983688504625,0.15149658857566067
223,Kirkwall,-2.9622491,58.984669999999994,0.520543752450413,0.18945085721309238
224,Ambleside,-2.961333,54.428740000000005,0.5992157245893036,0.2226893368929013
225,Orkney Islands,-2.9605206,58.980940000000004,0.5277357908259992,0.18966917608785921
226,Lyme Regis,-2.936639,50.725159999999995,0.4983094104983793,0.266131891769488
227,Carlisle,-2.932931,54.892469999999996,0.7140773529544795,0.21511132415103626
228,Chester,-2.893075,53.19339,0.6447993198672465,0.3914739429656669
229,Forfar,-2.889062,56.64356,0.5913984549208627,0.16344517568217998
230,Morecambe,-2.864968,54.074169999999995,0.6044496942686394,0.18815880076930247
231,Selkirk,-2.838524,55.55066,0.6062700328845165,0.1486943571927878
232,Galashiels,-2.814449,55.62373,0.6024645489523729,0.12716053105153477
233,Lancaster,-2.8007399,54.046569999999996,0.6773727973461368,0.21450401928971083
234,St Andrews,-2.7967214,56.339780000000005,0.6324873397935816,0.14556947090470937
235,Hawick,-2.780914,55.42706,0.5547013346175748,0.16366816056673877
236,Bridport,-2.758301,50.733579999999996,0.5238129454258357,0.2371187480843993
237,Shrewsbury,-2.7553267999999997,52.7073,0.7386807841204965,0.17286724283183486
238,Penrith,-2.752708,54.6641,0.659379370455965,0.2485371192052378
239,Kendal,-2.74629,54.32801,0.6501707498399771,0.1987297468515353
240,Street,-2.7429189999999997,51.12468,0.4871115806549371,0.20509650178124525
241,Glastonbury,-2.718454,51.14743,0.5107279041610597,0.24844583510189044
242,Hereford,-2.715974,52.0564,0.6779481804266583,0.20600041797277996
243,Ludlow,-2.7139129,52.36775,0.6131500163214806,0.13402101997022772
244,Preston,-2.70309,53.7632,0.8063432061357569,0.13977383028152035
245,Whitchurch,-2.682045,52.96872,0.5135479376560931,0.23921961250023868
246,Wells,-2.6445979,51.20935,0.596521066019734,0.1494751466751775
247,Yeovil,-2.633308,50.94206,0.6298956687226566,0.21772650786817926
248,Wigan,-2.6325074,53.54506,0.7304229979855272,0.32522574181248864
249,Warrington,-2.5969501,53.39004,0.7018394324923789,0.4037312327073043
250,Arbroath,-2.591543,56.55911,0.6219877985252352,0.14930661047211233
251,Bristol,-2.58791,51.45451,0.8635629896144279,0.16520114204863892
252,Guernsey,-2.5852779999999997,49.46569,0.17929222890413252,0.21059230006255422
253,Ross-on-Wye,-2.582446,51.91445,0.6478420684575091,0.13341739319158136
254,Jedburgh,-2.5549369,55.47772,0.5081853468485739,0.1404494898791992
255,Sedbergh,-2.5281740000000004,54.32363,0.4748879252145152,0.23227533076534312
256,Sedbergh,-2.5281740000000004,54.32363,0.4748879252145152,0.23227533076534312
257,Nantwich,-2.524102,53.067190000000004,0.5796018305677532,0.23900428822401076
258,Banff,-2.524038,57.666509999999995,0.5148182926026874,0.17670477670507667
259,Dunbar,-2.516737,56.00209,0.6592330145885349,0.1229887932032107
260,Cinderford,-2.5009579,51.8253,0.6247085101787062,0.1381611129241682
261,Banchory,-2.4909599,57.05386,0.5510138659730952,0.1955586588477119
262,Blackburn,-2.487529,53.748580000000004,0.7570339211358168,0.115936726123074
263,Market Drayton,-2.483485,52.90355,0.49004229408216665,0.20010453104037246
264,Telford,-2.4672611,52.67759,0.6998761675842933,0.17729822103871556
265,Montrose,-2.4661150000000003,56.70692,0.5574481821405872,0.22409052464185392
266,Turriff,-2.4623,57.53893000000001,0.5278895655552195,0.17707520784337868
267,Weymouth,-2.457621,50.61443,0.5886568724532087,0.2697523010153355
268,Crewe,-2.4438209,53.10041,0.6257264930164246,0.2919959699904907
269,Fortuneswell,-2.4422189999999997,50.55919,0.4354155580708889,0.25804632179453896
270,Dorchester,-2.4411810000000003,50.71116,0.6539985582156204,0.2718221230473064
271,Alston,-2.438685,54.812169999999995,0.4467174196191242,0.13284417033192203
272,Kelso,-2.432207,55.600030000000004,0.5536508450052796,0.14389995954703122
273,Wincanton,-2.416007,51.055690000000006,0.5161640123649188,0.18372133720744102
274,Clitheroe,-2.3930830000000003,53.8711,0.6413113004500727,0.13005603455192247
275,Sark,-2.3666256000000003,49.43007,0.17181634012922245,0.2255954947093593
276,Bath,-2.3590167,51.38106,0.7560301196042363,0.17639715685051033
277,Kidderminster,-2.2496839,52.3886,0.6636232830255151,0.1440743503144408
278,Manchester,-2.2426305,53.48076,0.878768135304179,0.27789932938150896
279,Burnley,-2.2405035,53.78929,0.63867989469414,0.30710423460837766
280,Gloucester,-2.238156,51.86424,0.7294604136393221,0.23009056951185336
281,Newcastle-under-Lyme,-2.2273002,53.01321,0.6223863584612738,0.23645551731167566
282,Worcester,-2.221575,52.19364,0.7189751870670242,0.2576797054639771
283,Trowbridge,-2.208853,51.31966,0.7538805337543791,0.15885575103946517
284,Shaftesbury,-2.198083,51.0046,0.4969636817403319,0.28039290667814004
285,Alderney,-2.1973557,49.715,0.17822458792085613,0.2127351413737502
286,Stoke-on-Trent,-2.179404,53.002669999999995,0.7195206038147538,0.24346854561027742
287,Colne,-2.176991,53.85564,0.5291054971777593,0.329845657861907
288,Blandford Forum,-2.165353,50.85691,0.4938826480556296,0.2143185988572281
289,Rochdale,-2.1561,53.60971,0.6930476391716411,0.30224151092287876
290,Jersey,-2.13125,49.21444,0.19347720244065394,0.18212432253378907
291,Wolverhampton,-2.12882,52.586969999999994,0.7089910087934727,0.22685962143699673
292,Stafford,-2.12066,52.80669,0.6742708972972289,0.2967112791145212
293,Macclesfield,-2.119287,53.25866,0.7235604117251192,0.1595750580073927
294,Hexham,-2.1121439,54.97266,0.5982361100430394,0.32858389088273915
295,Aberdeen,-2.094278,57.149719999999995,0.7526625040406237,0.22579315162833494
296,Dudley,-2.081112,52.51226,0.7147791810987886,0.19245709104286196
297,Cheltenham,-2.0782533,51.899390000000004,0.6986977030242274,0.2582205034716368
298,Bromsgrove,-2.061906,52.33559,0.7041085512952393,0.1266452709993118
299,Skipton,-2.0162787,53.96285,0.44931245447594037,0.489447506622305
300,Fraserburgh,-2.007631,57.69335,0.5415253992932842,0.17418206254426485
301,Berwick,-2.005395,55.77024,0.5937946973209715,0.13618279262146543
302,Poole,-1.987248,50.71505,0.6894798036190287,0.19507079250158513
303,Walsall,-1.9829189999999999,52.586209999999994,0.7161609050507473,0.1985953502479455
304,Cirencester,-1.968243,51.71849,0.6731419813517976,0.26206784218153684
305,Evesham,-1.9467700000000001,52.09215,0.605635796889937,0.20223035200864706
306,Buxton,-1.91483,53.259080000000004,0.6756999226070469,0.14010383906115587
307,Keighley,-1.9123580000000002,53.8678,0.514311309496235,0.4771639332430562
308,Birmingham,-1.8904009999999998,52.48624,0.8853353505856218,0.19136321608803286
309,Bournemouth,-1.880769,50.719159999999995,0.7361434158604174,0.21855992768783442
310,Halifax,-1.8575400000000002,53.727019999999996,0.49627114838274067,0.5049347003943735
311,Salisbury,-1.794472,51.06878,0.6450774976013923,0.24339488406850973
312,Ringwood,-1.7888169999999999,50.84495,0.6027848458488131,0.2391446760058164
313,Huddersfield,-1.7850351000000002,53.645790000000005,0.6306671722624492,0.4209624322965342
314,Peterhead,-1.784066,57.50812,0.573313853050328,0.2097701738394051
315,Swindon,-1.7797176,51.55577,0.6500077485969816,0.34021758504194033
316,Bradford,-1.759398,53.79598000000001,0.6903084700284964,0.34859943519733966
317,Ashbourne,-1.7321790000000001,53.016630000000006,0.6177821432523988,0.354525606612426
318,Marlborough,-1.7270619999999999,51.42007,0.6004002709099693,0.18099975007483296
319,Stratford-upon-Avon,-1.7082979999999999,52.19173,0.5653737504384304,0.38600896075899943
320,Alnwick,-1.7062990000000002,55.41274,0.5107857205103331,0.29686622876252156
321,Otley,-1.691786,53.90583,0.5116244527722413,0.3420424981375255
322,Bishop Auckland,-1.6787880000000002,54.663819999999994,0.6630575744826505,0.10364732597472294
323,Burton upon Trent,-1.6371358999999999,52.81403,0.6025010054674178,0.35717977066525913
324,Newcastle,-1.61778,54.97825,0.7514300616480796,0.37216704006442153
325,Durham,-1.5848520000000001,54.77525,0.728337962655339,0.19445133194226544
326,Ashington,-1.5659829,55.18298000000001,0.5492870484629669,0.2950368535046747
327,Darlington,-1.559458,54.52361,0.7078412864899273,0.1258603185300166
328,Leeds,-1.5490774,53.80076,0.7808574885184868,0.32997631164212776
329,Harrogate,-1.5418120000000002,53.99211999999999,0.7010220056888048,0.25944338144727125
330,Leamington Spa,-1.5200789,52.28519,0.6606400994666903,0.3279574633631698
331,Coventry,-1.519693,52.40682,0.70846850771747,0.30975923704594954
332,Blyth,-1.510277,55.12696,0.5354640324928719,0.3509010486438623
333,Wakefield,-1.505924,53.6833,0.6882528433751867,0.25210887883591143
334,Andover,-1.4919233,51.2112,0.5946729278412612,0.27424278362788973
335,Witney,-1.4850543999999999,51.785940000000004,0.5442663396031201,0.3808960922900921
336,Barnsley,-1.479726,53.55263000000001,0.6750623474427168,0.2675030352378746
337,Derby,-1.4746186000000001,52.92253,0.6604255168832004,0.39267375771644486
338,Sheffield,-1.470085,53.381130000000006,0.7971245280768118,0.26485269278480716
339,Nuneaton,-1.465382,52.52049,0.6776174951245646,0.2675625362830694
340,Northallerton,-1.429959,54.337959999999995,0.5762891511900882,0.1821006129842684
341,South Shields,-1.427406,54.99941999999999,0.6331183000177826,0.32204825332788056
342,Chesterfield,-1.421629,53.23505,0.67802896650336,0.24899162796473415
343,Southampton,-1.4043508999999998,50.9097,0.8082839925655092,0.20879062077849014
344,Wetherby,-1.384816,53.92706,0.5361245224684763,0.2539211278076369
345,Sunderland,-1.383801,54.90687,0.6634804210681433,0.3266428417868525
346,Rotherham,-1.3635008999999998,53.4326,0.6650654997898051,0.2957869388951483
347,Castleford,-1.345968,53.72346999999999,0.6397639074263813,0.24647062454968421
348,Thirsk,-1.341377,54.23385,0.5162434481119089,0.24505928166723467
349,Banbury,-1.339775,52.0629,0.6042089227540274,0.27807350040512135
350,Stockton,-1.3289821000000002,54.57046,0.7159201127267404,0.11791765632938997
351,Newbury,-1.3231138999999998,51.40141,0.7014464968668077,0.2048400035325751
352,Isle of Wight,-1.304734,50.69385,0.6915882301494677,0.188409264231407
353,Isle of Wight,-1.304734,50.69385,0.6915882301494677,0.188409264231407
354,Abingdon,-1.2879528999999998,51.67078,0.5518346822879038,0.4002751990672037
355,Shetland Islands,-1.2659409,60.52965,0.422705248233023,0.1617650693685949
356,Rugby,-1.265032,52.37088,0.6229508625829797,0.3357798958189352
357,Oxford,-1.2577263,51.75202,0.7088575483968906,0.376979811140038
358,Middlesbrough,-1.234956,54.57423000000001,0.7732768234805623,0.11856256928864806
359,Hartlepool,-1.212926,54.69174,0.7116252093001463,0.09797554089650426
360,Loughborough,-1.206166,52.7721,0.7461069293817861,0.15501664705676016
361,Mansfield,-1.198674,53.1472,0.7219245693603108,0.11167522624120518
362,Nottingham,-1.1581086,52.95478000000001,0.8655771868277807,0.12408607274805711
363,Bicester,-1.1535898999999998,51.8996,0.5577350594216604,0.2693578080122993
364,Leicester,-1.1397591999999999,52.636880000000005,0.8226813086498814,0.1309568160350778
365,Doncaster,-1.128462,53.522819999999996,0.6972266710120378,0.25431783513155454
366,Worksop,-1.122745,53.3093,0.6359925640526625,0.16501393809071618
367,Basingstoke,-1.0923964,51.26654,0.6734417081397531,0.21661143283616277
368,Portsmouth,-1.0879769,50.81977,0.7933570621593521,0.1630765965356582
369,York,-1.0872979,53.95997,0.7185467112705203,0.3045427503513703
370,Selby,-1.067189,53.783519999999996,0.5756815665193977,0.24156024475996912
371,Helmsley,-1.0562636,54.24651,0.3990209133110239,0.21271816326325044
372,Towcester,-0.9896879999999999,52.13511,0.5746260027753766,0.25870322727171624
373,Reading,-0.9781303,51.45426,0.7689766005200007,0.19236885893491304
374,Retford,-0.9455030000000001,53.32136,0.5551283122676545,0.2038913572459758
375,Petersfield,-0.93899,51.00759,0.6226741020316074,0.12147688656099123
376,Northampton,-0.9026559999999999,52.24048,0.7112381723491096,0.29202489322607134
377,Melton Mowbray,-0.887126,52.7664,0.6203477667001782,0.15755923767935115
378,Aylesbury,-0.8084,51.81561,0.6829505312006177,0.2549748394705543
379,Newark-on-Trent,-0.80657,53.070040000000006,0.7209234832280259,0.11849818961335244
380,Malton,-0.7978970000000001,54.13684,0.5739553647754625,0.1639099753228162
381,Chichester,-0.774936,50.83761,0.6923300036668566,0.11329572332504008
382,Gainsborough,-0.774465,53.400580000000005,0.5455968542119242,0.21026615602059748
383,Milton Keynes,-0.7594171,52.040620000000004,0.7120802273650667,0.27555192232462333
384,Aldershot,-0.7557509,51.24837,0.7944152601330262,0.03611719126018514
385,High Wycombe,-0.748229,51.628609999999995,0.6197173670304954,0.3414266224512696
386,Midhurst,-0.737274,50.9869,0.675448204705597,0.01
387,Kettering,-0.7302489999999999,52.39632,0.6484192931148779,0.22725608208970063
388,Wellingborough,-0.693964,52.30242,0.5983111921090843,0.2657535570939194
389,Corby,-0.6842333,52.4923,0.7201362429000583,0.05861840199588667
390,Bognor Regis,-0.673061,50.783,0.6761434860430591,0.11557697257452726
391,Scunthorpe,-0.654413,53.58865,0.6413100476477867,0.23381303296958908
392,Grantham,-0.643582,52.912519999999994,0.697652427659809,0.06317281808121601
393,Whitby,-0.613347,54.48633,0.6234259850299686,0.0998966665564559
394,Slough,-0.5950406,51.51054,0.5814634145373818,0.48224361845994734
395,Guildford,-0.570409,51.23622,0.7895804358891855,0.03682796798407535
396,Woking,-0.5600349,51.31677,0.8424733020268959,0.03740838490248224
397,Lincoln,-0.540579,53.23069,0.7746160994360296,0.12510443235513713
398,Bedford,-0.46677820000000003,52.13864,0.7127828999912383,0.20288086787783266
399,Heathrow,-0.4542955,51.47002,0.7027007908471482,0.36566496091611633
400,Driffield,-0.443377,54.006,0.5165368085259885,0.2213905317875734
401,Beverley,-0.435093,53.84196,0.6796566754077632,0.1624467261175949
402,Luton,-0.4200255,51.87867,0.7149002994169984,0.234055529250127
403,Scarborough,-0.399752,54.28311,0.6420042857675956,0.2152676172086151
404,Worthing,-0.372882,50.81787,0.7493678191021479,0.13434754884729302
405,Dorking,-0.332378,51.2322,0.7312149331241137,0.13479273171862896
406,Hull,-0.3274198,53.767619999999994,0.7879139828868665,0.1625223070283251
407,Horsham,-0.325858,51.06288,0.6927658840307445,0.08456878456424835
408,Biggleswade,-0.26421999999999995,52.086940000000006,0.6593151569663731,0.05201069486201803
409,Peterborough,-0.2405299,52.5695,0.7058031529409694,0.24848926944793287
410,Welwyn Garden City,-0.208661,51.80317,0.8056645443388791,0.1841896416290391
411,Bridlington,-0.198802,54.08535,0.5954602213840693,0.1567413691366609
412,Stevenage,-0.19661199999999998,51.90376,0.7227885976711655,0.14167374376771855
413,Crawley,-0.18722750000000002,51.109140000000004,0.7173742631676311,0.13518901413375778
414,Huntingdon,-0.182552,52.33146,0.5807409349170789,0.22832026045295145
415,Hove,-0.168749,50.82793,0.6857764813537992,0.14279285960487806
416,Spalding,-0.1537024,52.7901,0.6193514994099403,0.19046554473099583
417,Brighton,-0.137163,50.82253,0.8411827666865238,0.13968418620590503
418,London,-0.12775830000000002,51.50735,1.0,0.23566434081938237
419,Grimsby,-0.08078400000000001,53.56746999999999,0.6787690337970114,0.2033758889156888
420,Boston,-0.026576999999999996,52.97894,0.6700001709886693,0.22488587331592538
421,Royston,-0.024066,52.048140000000004,0.5395764822446955,0.2264089486113561
422,Louth_Lincs,-0.007711,53.36596,0.5786562290400523,0.19165780507435898
423,Lewes,0.00878,50.873870000000004,0.6785813308573627,0.11842194392492768
424,Chatteris,0.054012,52.4561,0.4473837474896576,0.28482421640888783
425,Uckfield,0.095913,50.966409999999996,0.7028512642387215,0.09545617249464576
426,Cambridge,0.12181700000000001,52.20534,0.7447072368862164,0.3067757812174641
427,Bishop's Stortford,0.15365020000000001,51.87216,0.6616579751287388,0.21647324723562578
428,Wisbech,0.158797,52.66631999999999,0.545870236438831,0.2048148521471942
429,Sevenoaks,0.190898,51.27241,0.7439611979489983,0.1444137723492319
430,Tunbridge Wells,0.26369499999999996,51.13238,0.739251747315802,0.0995507484003121
431,Eastbourne,0.29047199999999995,50.768029999999996,0.7095628591123465,0.11806565037064613
432,Brentwood,0.30717490000000003,51.620470000000005,0.8139207295041148,0.21260022303750578
433,Skegness,0.337881,53.1464,0.5745213315513218,0.17743160883923337
434,Downham Market,0.385472,52.606609999999996,0.4917708729812542,0.22295790502182333
435,King's Lynn,0.4022963,52.75168000000001,0.649013544153463,0.16006865184502414
436,Bexhill,0.4662071,50.849909999999994,0.6437384558339907,0.06753722119845573
437,Chelmsford,0.4685497,51.73559,0.6564345716787746,0.23238564041360463
438,Mildenhall,0.5156095,52.347570000000005,0.5647558025333581,0.3034420075528129
439,Medway,0.5417860999999999,51.404740000000004,0.6775778619471089,0.16774629461511711
440,Braintree,0.5509269,51.88009,0.6702608632086285,0.10665500915484388
441,Gillingham,0.551438,51.38632,0.8061228701564412,0.14791550969040657
442,Hastings,0.573453,50.85426,0.7102778550569224,0.08099260999547367
443,Maldon,0.6714479999999999,51.731809999999996,0.6426597947488178,0.17921397496195046
444,Southend,0.7077123000000001,51.54593,0.7119430444558067,0.2048463608675054
445,Bury St Edmunds,0.7104931999999999,52.24292,0.6509843209043169,0.3331284594971376
446,Thetford,0.751657,52.412859999999995,0.5794484235163687,0.17576023056171278
447,Ashford,0.8750190000000001,51.14647,0.6355450414802349,0.20744553275680533
448,Faversham,0.889358,51.31599,0.6258638968480986,0.19730063030378342
449,Colchester,0.891874,51.89593,0.6810625845780699,0.2740680989973312
450,New Romney,0.939473,50.98512,0.519668426938884,0.19357409561298683
451,Canterbury,1.0789089,51.280229999999996,0.6913338364228662,0.2258856300222945
452,Ipswich,1.14822,52.056740000000005,0.7040437802026681,0.24209408961892243
453,Clacton,1.153035,51.78953,0.5523943192207369,0.24764705365017806
454,Folkestone,1.169456,51.0814,0.6234833062692031,0.21140683404305685
455,Sheringham,1.2109589,52.944419999999994,0.43510091323078987,0.2923225681699444
456,Harwich,1.260297,51.93473,0.5022408043579458,0.22854760585020634
457,Norwich,1.297355,52.63089,0.7206590203422122,0.32561519988232834
458,Cromer,1.301866,52.93145,0.5123785395971896,0.29215166509519613
459,Cromer,1.301866,52.93145,0.5123785395971896,0.29215166509519613
460,Dover,1.3134027,51.12788,0.5969959954698576,0.2101364631852017
461,Felixstowe,1.3512549999999999,51.961729999999996,0.5643431635363606,0.23412445834998488
462,Margate,1.3868339,51.38965,0.62153748811931,0.21612710393090323
463,Ramsgate,1.4198950000000001,51.33555,0.6164855360976899,0.2190547686219878
464,Great Yarmouth,1.728047,52.59823000000001,0.5720495736861367,0.31835724642780316
465,Lowestoft,1.7534490000000003,52.48114,0.5670119675143953,0.3547720844600603
466,Swaffham,0.687481,52.64747,0.45388537866425066,0.2930861847492975
467,Dereham,0.9378270000000001,52.681619999999995,0.6423403960472313,0.3291577957435457
468,Ely,0.262363,52.39954,0.5172048217208719,0.35355221650965635
469,March,0.088622,52.551719999999996,0.4670092722071367,0.32987322614191206
470,St Neots,-0.26510300000000003,52.23008,0.561599151712888,0.22030468655886193
471,Banham,1.0402849,52.45125,0.5415546228733081,0.29032606598102606
472,Holt,1.086747,52.90936,0.5033025326505708,0.3100589076317104
473,Hunstanton,0.49103199999999997,52.93891,0.4914974588624254,0.11738714943128441
474,Horncastle,-0.11245,53.20731,0.5600618766613502,0.10527797574138381
475,Market Weighton,-0.6677465,53.86484,0.4953923790700376,0.22063998693975354
476,Hawes,-2.1968695,54.303830000000005,0.1828356200415425,0.20348036480644693
477,Reeth,-1.9428115000000001,54.38946,0.6013512613221155,0.09275611059290362
478,Aysgarth,-1.9967433999999997,54.29159,0.4022919936705235,0.19186717683908003
479,Stanhope,-2.011302,54.74946,0.6218867689270305,0.22634591685247635
480,Keswick,-3.134706,54.60128,0.4934364359474477,0.23263052801966727
481,Oxenholme,-2.7243327999999996,54.30134,0.43458643340010816,0.22653230374388394
