index,placename,longitude,latitude,merger,no merger
0,Dingle,-10.264013499999999,52.14094,0.01,0.9060394728792102
1,Tralee,-9.6999325,52.27131,0.01,0.9225616405957258
2,Killarney,-9.5044265,52.059940000000005,0.01,0.941325326814373
3,Bantry,-9.4539805,51.68035,0.01,0.9083832136029979
4,Mayo,-9.4289369,54.01526,0.01,0.9205321821092228
5,Ballycastle,-9.3724643,54.279669999999996,0.01,0.8711430730972106
6,Abbeyfeale,-9.2970823,52.386179999999996,0.01,0.8711430730972106
7,Ennistymon,-9.2934951,52.940369999999994,0.01,0.8711430730972106
8,Galway,-9.0567905,53.270669999999996,0.01,0.9547524149309681
9,Claremorris,-9.0017356,53.72388,0.01,0.9373786226546313
10,Clare,-8.9811351,52.90453,0.01,0.9365004457684227
11,Adare,-8.7925892,52.56363,0.01,0.9032715110871934
12,Charleville,-8.681017599999999,52.36206,0.01,0.8711430730972106
13,Mallow,-8.6539164,52.13898,0.01,0.916183888295509
14,Limerick,-8.6267343,52.66384,0.01,0.9518408755516735
15,Loughrea,-8.5660931,53.19891,0.01,0.8711430730972106
16,Sligo,-8.476088800000001,54.27661,0.01,0.9392834235483842
17,Cork,-8.4756035,51.898509999999995,0.01,0.9627783849673269
18,Nenagh,-8.19834,52.8635,0.01,0.9265285474422046
19,Roscommon,-8.1890955,53.627590000000005,0.01,0.9285814245474429
20,Tipperary,-8.161851400000002,52.47379,0.01,0.9382885058352375
21,Donegal,-8.1096143,54.653830000000006,0.01,0.943016912639349
22,Leitrim,-8.0020132,54.12469,0.01,0.9231269653896785
23,Athlone,-7.9406898,53.423930000000006,0.01,0.924760004622558
24,Longford,-7.7932573000000005,53.727630000000005,0.01,0.9274723372648548
25,Offaly,-7.7122229,53.235690000000005,0.01,0.9369120517486738
26,Fermanagh,-7.6318728,54.343830000000004,0.01,0.9151014985277101
27,Enniskillen,-7.631533599999999,54.343819999999994,0.01,0.9250427310466964
28,Doon,-7.60964,54.185930000000006,0.01,0.9041876655838494
29,Westmeath,-7.4653217000000005,53.534530000000004,0.01,0.9252154304369489
30,Strabane,-7.4633103,54.82739,0.01,0.9268821940567464
31,Cavan,-7.3633319,53.98972,0.01,0.9318417458793248
32,Mullingar,-7.340186800000001,53.525819999999996,0.01,0.9242826641493184
33,Laois,-7.332300699999999,52.99429,0.01,0.9355865927322388
34,Omagh,-7.309959700000001,54.59771,0.01,0.9294682656755109
35,Derry,-7.308574799999999,54.99661,0.01,0.947914939961345
36,Derry,-7.308574799999999,54.99661,0.01,0.947914939961345
37,Kilkenny,-7.2447879,52.65415,0.01,0.9416221418348917
38,Tyrone,-7.131232000000001,54.491209999999995,0.01,0.9166019344712923
39,Waterford,-7.110070200000001,52.25932,0.01,0.9465406320111378
40,Monaghan,-6.9683132,54.2492,0.01,0.9302620196812547
41,Carlow,-6.934135899999999,52.83651,0.01,0.9375692951883726
42,Kildare,-6.8194707999999995,53.21204,0.01,0.9472928728038253
43,Dungannon,-6.7669352,54.508269999999996,0.01,0.9178315585203445
44,Cookstown,-6.7443895000000005,54.641819999999996,0.01,0.9263773988279579
45,Coleraine,-6.6646103000000005,55.132580000000004,0.01,0.9415888492131356
46,Meath,-6.656416900000001,53.60555,0.01,0.9415688207935858
47,Armagh,-6.652792,54.350280000000005,0.01,0.9299902732918759
48,Armagh,-6.652792,54.350280000000005,0.01,0.9299902732918759
49,Magherafelt,-6.607980499999999,54.75536999999999,0.01,0.9292880080079001
50,Louth,-6.4889423,53.925230000000006,0.01,0.9419169345075618
51,Wexford,-6.4633381,52.33692,0.01,0.9440820510956827
52,Craigavon,-6.4175653,54.442930000000004,0.01,0.9357547280830683
53,Drogheda,-6.3560985,53.717859999999995,0.01,0.929557186807074
54,Rosslare,-6.3414908,52.25131,0.01,0.8711430730972106
55,Newry,-6.34023,54.1751,0.01,0.9357069762597944
56,Ballymena,-6.2802213,54.86529,0.01,0.9342544748146366
57,Banbridge,-6.2704803,54.34873,0.01,0.927768031460574
58,Dublin,-6.2603097000000005,53.34981,0.01,0.978534563952647
59,Antrim,-6.2072498,54.719530000000006,0.01,0.9380449615286838
60,Antrim,-6.2072498,54.719530000000006,0.01,0.9380449615286838
61,Wicklow,-6.044589,52.980819999999994,0.01,0.9416354281924876
62,Kilkeel,-6.007004,54.06312,0.01,0.9123706866352317
63,Belfast,-5.93012,54.597280000000005,0.01,0.968350438219661
64,Down,-5.7156921999999994,54.32875,0.01,0.9386073108965723
65,Balivanich,-7.3743509000000005,57.472269999999995,0.01,0.8776023323605157
66,Western Isles,-7.0194034,57.759890000000006,0.01,0.911985331362489
67,Dunvegan,-6.581398200000001,57.4366,0.01,0.8711430730972106
68,Stornoway,-6.384869200000001,58.209430000000005,0.01,0.9255520691285087
69,Scilly Isles,-6.327496599999999,49.92773,0.01,0.9133298424744725
70,Portree,-6.1960231,57.41246999999999,0.01,0.9245425441312255
71,Islay,-6.177067,55.73625,0.01,0.9142034842929908
72,Mull,-6.0008870000000005,56.4392,0.01,0.9146127714083425
73,Broadford,-5.9096592,57.24139,0.01,0.8711430730972106
74,Kyle of Lochalsh,-5.7143293,57.28261,0.01,0.8711430730972106
75,Campbeltown,-5.605373999999999,55.424119999999995,0.01,0.9173123834485757
76,Penzance,-5.537592,50.1188,0.01,0.937509472690993
77,Oban,-5.471047,56.41516,0.01,0.9286785815068541
78,Lochgilphead,-5.4323449,56.03829,0.01,0.9071750336141934
79,Helston,-5.274996,50.10159,0.01,0.9236617600242099
80,Redruth,-5.226666000000001,50.23302,0.01,0.9291275633439431
81,Ullapool,-5.161313,57.895419999999994,0.01,0.9121154750025342
82,Ballachulish,-5.133719999999999,56.673930000000006,0.01,0.8711430730972106
83,Fort William,-5.1052179,56.81981999999999,0.01,0.926997335126323
84,Achnasheen,-5.078765799999999,57.578590000000005,0.01,0.8711430730972106
85,Newquay,-5.0737190000000005,50.4155,0.01,0.936151697276521
86,Falmouth,-5.066269999999999,50.152570000000004,0.01,0.9398933324645258
87,Rothesay,-5.055793,55.83596,0.01,0.925845584649917
88,Truro,-5.051041000000001,50.2632,0.01,0.9561826077856819
89,Milford Haven,-5.0426971,51.71431,0.01,0.9211704669621632
90,Stranraer,-5.024055000000001,54.903369999999995,0.01,0.9227829090052371
91,Fishguard,-4.975989,51.99393,0.01,0.9104263815084793
92,Inchnadamph,-4.974295,58.15221,0.01,0.8711430730972106
93,Haverfordwest,-4.971319,51.80048,0.01,0.9257811045170168
94,Dunoon,-4.926214,55.95097,0.01,0.9215246125030943
95,Pembroke,-4.908637000000001,51.674040000000005,0.01,0.9375194678664117
96,Girvan,-4.8542179,55.240159999999996,0.01,0.9200825339239125
97,Wadebridge,-4.836456,50.51665,0.01,0.9273625954471404
98,Invergarry,-4.800261,57.07095,0.01,0.8711430730972106
99,St Austell,-4.7834252,50.340379999999996,0.01,0.9312057874313018
100,Greenock,-4.7719830000000005,55.956480000000006,0.01,0.9427707563569883
101,Helensburgh,-4.734014,56.00232,0.01,0.924207144541329
102,Bodmin,-4.7188629,50.4715,0.01,0.9238600023296349
103,Tenby,-4.703579,51.672740000000005,0.01,0.9257811045170168
104,Camelford,-4.682364,50.62206,0.01,0.9108767681642991
105,Irvine,-4.6696364,55.61156999999999,0.01,0.9462166364301348
106,Cardigan,-4.660864,52.0837,0.01,0.9182557770129977
107,Holyhead,-4.633038,53.30944,0.01,0.9220094997624
108,Ayr,-4.629179,55.45856,0.01,0.9498440586499869
109,Dumbarton,-4.564554,55.94529,0.01,0.9400265910832752
110,Bude,-4.543678,50.826640000000005,0.01,0.9259733026270189
111,Isle of Man,-4.5126330999999995,54.27697,0.01,0.9471012761832824
112,Kilmarnock,-4.498792,55.61472,0.01,0.943688881735413
113,Newton Stewart,-4.483164,54.9603,0.01,0.9135556544899803
114,Liskeard,-4.4647190000000005,50.45552,0.01,0.9271675850655975
115,Altnaharra,-4.442655,58.28023,0.01,0.8711430730972106
116,Pwllheli,-4.417633900000001,52.888819999999996,0.01,0.9182557770129977
117,Lairg,-4.402414,58.022059999999996,0.01,0.8711430730972106
118,Launceston,-4.360451599999999,50.636829999999996,0.01,0.9234594712552097
119,Carmarthen,-4.312131,51.857620000000004,0.01,0.9360827752155656
120,Llangefni,-4.311401999999999,53.25578,0.01,0.9335823082304636
121,Caernarfon,-4.273911,53.13955,0.01,0.9309780774593408
122,Cumnock,-4.265828900000001,55.45355,0.01,0.932136621402095
123,Aberaeron,-4.2581619,52.24279,0.01,0.9150056791568697
124,Alness,-4.256825,57.69595,0.01,0.9250427310466964
125,Glasgow,-4.251806,55.86424,0.01,0.9781068420836182
126,Dalwhinnie,-4.242783,56.9366,0.01,0.8711430730972106
127,Inverness,-4.224721,57.47776999999999,0.01,0.9486880931589721
128,Saltash,-4.21643,50.409209999999995,0.01,0.9240927756611138
129,Bideford,-4.206666,51.01668,0.01,0.9297544064314872
130,Invergordon,-4.1728819999999995,57.688109999999995,0.01,0.9256180485853951
131,Llanelli,-4.160248,51.680890000000005,0.01,0.9417935150171494
132,Plymouth,-4.1426565,50.37546,0.01,0.9589502662726022
133,Tavistock,-4.141654,50.551120000000004,0.01,0.9297760808727413
134,Porthmadog,-4.1333839999999995,52.92784,0.01,0.9266774319985173
135,Bangor,-4.129263,53.22739,0.01,0.9442063525079636
136,Tywyn,-4.087249,52.58701,0.01,0.906277426599577
137,Aberystwyth,-4.08292,52.4153,0.01,0.9399012201868452
138,Lampeter,-4.0785089999999995,52.1129,0.01,0.9187286709975876
139,Barnstaple,-4.058338,51.07816,0.01,0.9403635287761981
140,Tain,-4.05523,57.8115,0.01,0.9111659020195224
141,Okehampton,-4.004263,50.73831,0.01,0.9178315585203445
142,Llandeilo,-3.9914300000000003,51.88469,0.01,0.9292880080079001
143,Motherwell,-3.9810968,55.78321,0.01,0.9542146840913074
144,Golspie,-3.976086,57.97341,0.01,0.8711430730972106
145,Airdrie,-3.9625660000000003,55.86626999999999,0.01,0.9475292462979491
146,Swansea,-3.9436459999999998,51.62144,0.06324494224894937,0.900940865807595
147,Stirling,-3.9369029,56.116519999999994,0.01,0.9509933936405753
148,Tregaron,-3.934385,52.22,0.01,0.9178315585203445
149,Tregaron,-3.934385,52.22,0.01,0.9178315585203445
150,Castle Douglas,-3.9314139999999997,54.940419999999996,0.01,0.9183247381068113
151,Dolgellau,-3.8844,52.74215,0.01,0.9085707888476416
152,Aberfeldy,-3.866969,56.62175,0.01,0.925007827619646
153,Machynlleth,-3.853485,52.59027,0.01,0.9163532445159972
154,Brora,-3.8525480000000005,58.012159999999994,0.01,0.9050248119063685
155,Llandudno,-3.827609,53.324059999999996,0.01,0.9371842622781025
156,Llandudno,-3.827609,53.324059999999996,0.01,0.9371842622781025
157,Aviemore,-3.823812,57.19449,0.01,0.920749556838186
158,Dalbeattie,-3.8225269999999996,54.934219999999996,0.01,0.9071750336141934
159,Falkirk,-3.7839131,56.00188000000001,0.01,0.9510826923199174
160,Kingsbridge,-3.777493,50.28395,0.06106535180261417,0.8679102435210769
161,Pitlochry,-3.729711,56.70436,0.01,0.9126194182650342
162,Colwyn Bay,-3.72764,53.29318000000001,0.01,0.9338450915050525
163,Totnes,-3.685797,50.43374,0.06116214678439891,0.8693771239104354
164,Grantown-on-Spey,-3.609628,57.33041,0.01,0.9081919612655966
165,Dumfries,-3.60512,55.070859999999996,0.01,0.9396456984779101
166,Whitehaven,-3.589233,54.5497,0.01,0.9336413034620643
167,Dartmouth,-3.578807,50.35252,0.18210792948535293,0.7474237296539462
168,Bridgend,-3.576945,51.504290000000005,0.18756090548575882,0.7715262381178297
169,Paignton,-3.564235,50.43508,0.18621086128692743,0.7655589549816986
170,Workington,-3.5427519999999997,54.64357,0.01,0.9331129090011742
171,Llanidloes,-3.5401949999999998,52.447790000000005,0.01,0.911985331362489
172,Exeter,-3.533899,50.71841,0.12668328144577942,0.842411817864972
173,Torquay,-3.525315,50.46192,0.18639932405537463,0.7663919726717247
174,Thurso,-3.5220800000000003,58.59356999999999,0.01,0.9222433131430235
175,Livingston,-3.518068,55.90071,0.01,0.9504042362567361
176,Rhyl,-3.4916339999999995,53.319140000000004,0.01,0.9332514689306454
177,Tiverton,-3.491207,50.90205,0.1838849041731288,0.7552780733094173
178,Tiverton,-3.491207,50.90205,0.1838849041731288,0.7552780733094173
179,Minehead,-3.481152,51.20428,0.2428962945220102,0.690192682520106
180,Dunfermline,-3.452151,56.071740000000005,0.01,0.948245130321651
181,Perth,-3.4308381000000003,56.39499,0.01,0.9312805513661939
182,Prestatyn,-3.4076129999999996,53.33651,0.01,0.9271394116942371
183,Builth Wells,-3.4045919999999996,52.15002,0.01,0.9231269653896785
184,Braemar,-3.3979439,57.00646999999999,0.01,0.8711430730972106
185,Brecon,-3.391463,51.94895,0.01,0.929445910915167
186,Merthyr Tydfil,-3.381646,51.74873,0.1257328225484738,0.8356600658759303
187,Llandrindod Wells,-3.377742,52.2417,0.01,0.9181163901794528
188,Corwen,-3.369242,52.98005,0.01,0.9092869934916333
189,Cockermouth,-3.367985,54.66326,0.01,0.9223353132998579
190,Lockerbie,-3.349008,55.122240000000005,0.01,0.9349103074519984
191,Blairgowrie,-3.3378318,56.58941,0.01,0.9220567065169921
192,Elgin,-3.318485,57.64945,0.01,0.9442474492654916
193,Newtown,-3.313106,52.51211,0.01,0.914098439365051
194,Ruthin,-3.3103108,53.114869999999996,0.01,0.9261306751276779
195,Ruthin,-3.3103108,53.114869999999996,0.01,0.9261306751276779
196,Sidmouth,-3.2375599999999998,50.67865,0.24436404153831506,0.6947107888095445
197,Barrow-in-Furness,-3.2188939999999997,54.10896999999999,0.01,0.9418065778321519
198,Peebles,-3.1936419999999996,55.65306999999999,0.01,0.9249376503285909
199,Edinburgh,-3.1882669999999997,55.95325,0.01,0.9742878742236349
200,Cardiff,-3.17909,51.48158,0.2555828229193511,0.7292451098842365
201,Llangollen,-3.1716599999999997,52.96921,0.01,0.916924035917556
202,Kirkcaldy,-3.158137,56.11682,0.01,0.9527417506310065
203,Welshpool,-3.146407,52.66035,0.01,0.9259096489009523
204,Mold,-3.1419029999999997,53.1672,0.01,0.9405574594444986
205,Mold,-3.1419029999999997,53.1672,0.01,0.9405574594444986
206,Taunton,-3.106849,51.01534,0.49801051399232105,0.47315063200636887
207,Wick,-3.093716,58.43894,0.01,0.9201968796560255
208,John o' Groats,-3.0688997000000002,58.63734,0.01,0.8711430730972106
209,Dalkeith,-3.066606,55.893119999999996,0.01,0.944540511761141
210,Oswestry,-3.056412,52.85715,0.01,0.9352541501606593
211,Blackpool,-3.0356748,53.81751,0.01,0.9569233263229997
212,Birkenhead,-3.023009,53.389990000000004,0.01,0.9559075499003528
213,Cupar,-3.010137,56.32023,0.01,0.9232946132234944
214,Southport,-3.010113,53.64571,0.01,0.9483892629103531
215,Bridgwater,-3.003632,51.12789,0.564026660499173,0.41735857220091044
216,Langholm,-2.998913,55.153059999999996,0.01,0.9079968840089266
217,Newport,-2.997664,51.58415,0.3145516445276097,0.6575261814708314
218,Axminster,-2.9949369999999997,50.78273,0.42877301923519995,0.522659518717988
219,Wrexham,-2.9924939999999998,53.043040000000005,0.01,0.9479541384397684
220,Liverpool,-2.9915726,53.40837,0.01,0.9757652887882938
221,Weston-super-Mare,-2.977255,51.347409999999996,0.43661052999329486,0.5332643065636528
222,Dundee,-2.9707209999999997,56.462019999999995,0.01,0.9567370951670993
223,Kirkwall,-2.9622491,58.984669999999994,0.01,0.922289420123426
224,Ambleside,-2.961333,54.428740000000005,0.01,0.9370176228033085
225,Orkney Islands,-2.9605206,58.980940000000004,0.01,0.9234185131935734
226,Lyme Regis,-2.936639,50.725159999999995,0.48803158465487273,0.4625175700689361
227,Carlisle,-2.932931,54.892469999999996,0.01,0.9541973553200941
228,Chester,-2.893075,53.19339,0.01,0.9570742773314763
229,Forfar,-2.889062,56.64356,0.01,0.9312432393576068
230,Morecambe,-2.864968,54.074169999999995,0.01,0.935166131761434
231,Selkirk,-2.838524,55.55066,0.01,0.9324064239131623
232,Galashiels,-2.814449,55.62373,0.01,0.9301583759856715
233,Lancaster,-2.8007399,54.046569999999996,0.01,0.9484740953272207
234,St Andrews,-2.7967214,56.339780000000005,0.01,0.9362201492864904
235,Hawick,-2.780914,55.42706,0.01,0.9255851136554296
236,Bridport,-2.758301,50.733579999999996,0.6722104995333751,0.28977961714874234
237,Shrewsbury,-2.7553267999999997,52.7073,0.01,0.9547469378553431
238,Penrith,-2.752708,54.6641,0.01,0.9483140199562947
239,Kendal,-2.74629,54.32801,0.01,0.9430515934162524
240,Street,-2.7429189999999997,51.12468,0.666647107429797,0.2869053963762974
241,Glastonbury,-2.718454,51.14743,0.7324629420252028,0.23156036890015216
242,Hereford,-2.715974,52.0564,0.12488310085859358,0.8296239183622987
243,Ludlow,-2.7139129,52.36775,0.061474684986938505,0.8741134868062952
244,Preston,-2.70309,53.7632,0.01,0.9626607978708963
245,Whitchurch,-2.682045,52.96872,0.01,0.9250427310466964
246,Wells,-2.6445979,51.20935,0.6752782267112073,0.2913645000788972
247,Yeovil,-2.633308,50.94206,0.7444336195775949,0.23628458090767382
248,Wigan,-2.6325074,53.54506,0.01,0.9652109899203878
249,Warrington,-2.5969501,53.39004,0.01,0.9668403279249708
250,Arbroath,-2.591543,56.55911,0.01,0.9348843622739843
251,Bristol,-2.58791,51.45451,0.44820351577789563,0.5489505567696276
252,Guernsey,-2.5852779999999997,49.46569,0.5190664253254185,0.37950577813167125
253,Ross-on-Wye,-2.582446,51.91445,0.1854150171373538,0.7620412720963157
254,Jedburgh,-2.5549369,55.47772,0.01,0.9166019344712923
255,Sedbergh,-2.5281740000000004,54.32363,0.01,0.918528773115503
256,Sedbergh,-2.5281740000000004,54.32363,0.01,0.918528773115503
257,Nantwich,-2.524102,53.06718000000001,0.01,0.9352416233066856
258,Banff,-2.524038,57.666509999999995,0.01,0.920421674483015
259,Dunbar,-2.516737,56.00209,0.01,0.9386162728130637
260,Cinderford,-2.5009579,51.8253,0.24642207047618653,0.7010459360690856
261,Banchory,-2.4909599,57.05386,0.01,0.9274723372648548
262,Blackburn,-2.487529,53.748580000000004,0.01,0.9531980736211383
263,Market Drayton,-2.483485,52.90355,0.01,0.9183932200817222
264,Telford,-2.4672611,52.67759,0.06251479363897264,0.8898758223772023
265,Montrose,-2.4661150000000003,56.70692,0.01,0.930666153418956
266,Turriff,-2.4623,57.53893000000001,0.01,0.9224717297042209
267,Weymouth,-2.457621,50.61443,0.8045575550977461,0.17696935490985113
268,Crewe,-2.4438209,53.1004,0.01,0.9464585379524958
269,Fortuneswell,-2.4422189999999997,50.55919,0.7846952430340369,0.17118082438598392
270,Dorchester,-2.4411810000000003,50.71116,0.8753715301966972,0.12016214995648215
271,Alston,-2.438685,54.812169999999995,0.01,0.9065097025905365
272,Kelso,-2.432207,55.600030000000004,0.01,0.9238991794175799
273,Wincanton,-2.416007,51.055690000000006,0.8509342485692297,0.11520230614761427
274,Clitheroe,-2.3930830000000003,53.8711,0.01,0.9363892645182186
275,Sark,-2.3666256000000003,49.43007,0.5190664253254185,0.37950577813167125
276,Bath,-2.3590167,51.38106,0.7565978986619796,0.24108519750283153
277,Kidderminster,-2.2496839,52.3886,0.15501895767267984,0.7940929733167256
278,Manchester,-2.2426305,53.48076,0.01,0.984505812812136
279,Burnley,-2.2405035,53.78929,0.01,0.9496261555330053
280,Gloucester,-2.238156,51.86424,0.3783096477323061,0.5994121831084958
281,Newcastle-under-Lyme,-2.2273002,53.01321,0.01,0.9416619485490608
282,Worcester,-2.221575,52.19364,0.28387324015400067,0.6893628224362207
283,Trowbridge,-2.208853,51.31966,0.8812331568368644,0.12135183844329203
284,Shaftesbury,-2.198083,51.0046,0.976948404025753,0.01
285,Alderney,-2.1973557,49.715,0.6344145220209756,0.2702530438534443
286,Stoke-on-Trent,-2.179404,53.002669999999995,0.01,0.9572244708954412
287,Colne,-2.176991,53.85564,0.01,0.9344326970755412
288,Blandford Forum,-2.165353,50.85691,0.9714152217067137,0.01
289,Rochdale,-2.1561,53.60971,0.01,0.9576595348955576
290,Jersey,-2.13125,49.21444,0.692088570368754,0.21562667671433072
291,Wolverhampton,-2.12882,52.586969999999994,0.09425930912630436,0.8650377938577245
292,Stafford,-2.12066,52.80669,0.01,0.9543294643616492
293,Macclesfield,-2.119287,53.25866,0.01,0.9513841383554991
294,Hexham,-2.1121439,54.97266,0.01,0.9450266830744528
295,Aberdeen,-2.094278,57.149719999999995,0.01,0.9609878474092104
296,Dudley,-2.081112,52.51225,0.09409572357698065,0.8634367350645537
297,Cheltenham,-2.0782533,51.899390000000004,0.3773446298496035,0.5977364738413014
298,Bromsgrove,-2.061906,52.33559,0.21809556075838876,0.7392675308991313
299,Skipton,-2.0162787,53.96285,0.01,0.9343918493541754
300,Fraserburgh,-2.007631,57.69335,0.01,0.9243576130092299
301,Berwick,-2.005395,55.77024,0.01,0.9295128253766746
302,Poole,-1.987248,50.71505,1.0,0.01
303,Walsall,-1.9829189999999999,52.586209999999994,0.0941596947473051,0.8640628392967478
304,Cirencester,-1.968243,51.71849,0.46997793564733553,0.506342386638781
305,Evesham,-1.9467700000000001,52.09215,0.27778030941279064,0.6733323756032074
306,Buxton,-1.91483,53.259080000000004,0.01,0.9424818896417335
307,Keighley,-1.9123580000000002,53.8678,0.01,0.9434974613092977
308,Birmingham,-1.8904009999999998,52.48624,0.09654509608011881,0.8874094478140158
309,Bournemouth,-1.880769,50.719159999999995,0.945909168029818,0.061951415934580374
310,Halifax,-1.8575400000000002,53.727019999999996,0.01,0.9428475903318646
311,Salisbury,-1.794472,51.06878,0.9034196265195221,0.09002587884996872
312,Ringwood,-1.7888169999999999,50.84495,0.9281737801755165,0.059711656812368716
313,Huddersfield,-1.7850351000000002,53.645790000000005,0.01,0.9571611958723028
314,Peterhead,-1.784066,57.50812,0.01,0.9320162537813739
315,Swindon,-1.7797176,51.55577,0.6909710844630321,0.29947191672140017
316,Bradford,-1.759398,53.79598000000001,0.01,0.9608084105234734
317,Ashbourne,-1.7321790000000001,53.016630000000006,0.01,0.9500487134179189
318,Marlborough,-1.7270619999999999,51.42007,0.7389247805522163,0.23411052489812098
319,Stratford-upon-Avon,-1.7082979999999999,52.19173,0.2177763596378047,0.7381013873307973
320,Alnwick,-1.7062990000000002,55.41274,0.01,0.9290580026838776
321,Otley,-1.691786,53.90583,0.01,0.9326691372867734
322,Bishop Auckland,-1.6787880000000002,54.663819999999994,0.01,0.9377173120659947
323,Burton upon Trent,-1.6371358999999999,52.81403,0.01,0.947889916470703
324,Newcastle,-1.61778,54.97825,0.01,0.972077154571459
325,Durham,-1.5848520000000001,54.77525,0.01,0.9548106552466008
326,Ashington,-1.5659829,55.18298000000001,0.01,0.934871364459129
327,Darlington,-1.559458,54.52361,0.01,0.9463549769025591
328,Leeds,-1.5490774,53.80076,0.01,0.9733769114434784
329,Harrogate,-1.5418120000000002,53.99211999999999,0.01,0.9555946843451968
330,Leamington Spa,-1.5200789,52.28519,0.15714748830960007,0.8057860768064783
331,Coventry,-1.519693,52.40682,0.09484691190515447,0.87078883115814
332,Blyth,-1.510277,55.12696,0.01,0.9370386045257026
333,Wakefield,-1.505924,53.6833,0.01,0.9530546888696501
334,Andover,-1.4919233,51.2112,0.7436197821710939,0.23596340105539443
335,Witney,-1.4850543999999999,51.785940000000004,0.2479784662780742,0.7058369263305189
336,Barnsley,-1.479726,53.55263000000001,0.01,0.9522009903558362
337,Derby,-1.4746186000000001,52.92253,0.01,0.9595834211774109
338,Sheffield,-1.470085,53.381130000000006,0.01,0.9708740250247657
339,Nuneaton,-1.465382,52.52049,0.031366499565172706,0.922891784492711
340,Northallerton,-1.429959,54.337959999999995,0.01,0.9303441663710039
341,South Shields,-1.427406,54.99941999999999,0.01,0.9499176230194963
342,Chesterfield,-1.421629,53.23505,0.01,0.951233241849699
343,Southampton,-1.4043508999999998,50.9097,0.7963343347737228,0.21402609094092503
344,Wetherby,-1.384816,53.92706,0.01,0.9296672344762338
345,Sunderland,-1.383801,54.90687,0.01,0.9549673394936905
346,Rotherham,-1.3635008999999998,53.4326,0.01,0.9528346619959549
347,Castleford,-1.345968,53.72346999999999,0.01,0.9451211775617678
348,Thirsk,-1.341377,54.23385,0.01,0.9259096489009523
349,Banbury,-1.339775,52.0629,0.09311736288920615,0.8538612377878697
350,Stockton,-1.3289821000000002,54.57046,0.01,0.9469923805926632
351,Newbury,-1.3231138999999998,51.40141,0.5326243829187182,0.44697364772771464
352,Isle of Wight,-1.304734,50.69385,0.7811045566674074,0.20883309535519523
353,Isle of Wight,-1.304734,50.69385,0.7811045566674074,0.20883309535519523
354,Abingdon,-1.2879528999999998,51.67078,0.2486402216948957,0.707873981270912
355,Shetland Islands,-1.2659409,60.52965,0.01,0.9050248119063685
356,Rugby,-1.265032,52.37088,0.03126721496941627,0.9197885273373692
357,Oxford,-1.2577263,51.75202,0.12711347299859535,0.8454677592430029
358,Middlesbrough,-1.234956,54.57423000000001,0.01,0.9559124397202489
359,Hartlepool,-1.212926,54.69174,0.01,0.9447913750483025
360,Loughborough,-1.206166,52.7721,0.01,0.954519813412593
361,Mansfield,-1.198674,53.1472,0.01,0.9474398470689991
362,Nottingham,-1.1581086,52.95478000000001,0.01,0.9706125983964361
363,Bicester,-1.1535898999999998,51.8996,0.06159016002172168,0.8758634542205214
364,Leicester,-1.1397591999999999,52.636880000000005,0.01,0.9645080804851792
365,Doncaster,-1.128462,53.522819999999996,0.01,0.9546127499187214
366,Worksop,-1.122745,53.3093,0.01,0.9382607036832447
367,Basingstoke,-1.0923964,51.26654,0.4995924010529468,0.47483621394856534
368,Portsmouth,-1.0879769,50.81977,0.5384290354263824,0.45247156382832515
369,York,-1.0872979,53.95997,0.01,0.9617803498240557
370,Selby,-1.067189,53.783519999999996,0.01,0.9348322695835142
371,Helmsley,-1.0562636,54.24651,0.01,0.9052885713766894
372,Towcester,-0.9896879999999999,52.13511,0.01,0.9359901366316727
373,Reading,-0.9781303,51.45426,0.22137713836665585,0.7512561812361584
374,Retford,-0.9455030000000001,53.32136,0.01,0.9287508323695951
375,Petersfield,-0.93899,51.00759,0.46129590516924135,0.49592627727541505
376,Northampton,-0.9026559999999999,52.24048,0.01,0.9596854420517461
377,Melton Mowbray,-0.887126,52.7664,0.01,0.9352666613855635
378,Aylesbury,-0.8084,51.81561,0.06272399003948981,0.8930460910397395
379,Newark-on-Trent,-0.80657,53.070040000000006,0.01,0.9478108673782845
380,Malton,-0.7978970000000001,54.13684,0.01,0.9285814245474429
381,Chichester,-0.774936,50.83761,0.2796119932969964,0.6781515196847329
382,Gainsborough,-0.774465,53.400569999999995,0.01,0.927768031460574
383,Milton Keynes,-0.7594171,52.040620000000004,0.01,0.9585462073914545
384,Aldershot,-0.7557509,51.24837,0.1882413744891386,0.7745339553555639
385,High Wycombe,-0.748229,51.628609999999995,0.06253040558600162,0.8901124137635973
386,Midhurst,-0.737274,50.9869,0.21501065735014965,0.7279973941844883
387,Kettering,-0.7302489999999999,52.39632,0.01,0.9449791031060757
388,Wellingborough,-0.693964,52.30242,0.01,0.9401964679983078
389,Corby,-0.6842333,52.4923,0.01,0.9430746479951078
390,Bognor Regis,-0.673061,50.783,0.2169700542032355,0.7351556962413829
391,Scunthorpe,-0.654413,53.58865,0.01,0.9443849313538967
392,Grantham,-0.643582,52.912519999999994,0.01,0.9399484172770004
393,Whitby,-0.613347,54.486340000000006,0.01,0.9312991552289209
394,Slough,-0.5950406,51.51054,0.01,0.9542741481677215
395,Guildford,-0.570409,51.23622,0.0940561339928321,0.8630492604246416
396,Woking,-0.5600349,51.31677,0.03160744097437358,0.9304226924490175
397,Lincoln,-0.540579,53.23069,0.01,0.9566237095975973
398,Bedford,-0.46677820000000003,52.13864,0.01,0.9530546888696501
399,Heathrow,-0.4542955,51.47002,0.01,0.9640400081810622
400,Driffield,-0.443377,54.006,0.01,0.9241310453809075
401,Beverley,-0.435093,53.84196,0.01,0.9448156381602605
402,Luton,-0.4200255,51.87867,0.01,0.9557845390183718
403,Scarborough,-0.399752,54.28311,0.01,0.9430631272794238
404,Worthing,-0.372882,50.81787,0.15696146535775543,0.8047641579345303
405,Dorking,-0.332378,51.2322,0.01,0.9506581909412326
406,Hull,-0.3274198,53.767619999999994,0.01,0.9615637031742928
407,Horsham,-0.325858,51.06288,0.062002697609529374,0.882115258666067
408,Biggleswade,-0.26421999999999995,52.086940000000006,0.01,0.9331593091453881
409,Peterborough,-0.2405299,52.5695,0.01,0.9554899320060608
410,Welwyn Garden City,-0.208661,51.80317,0.01,0.965978706683396
411,Bridlington,-0.198802,54.08535,0.01,0.9313547598055973
412,Stevenage,-0.19661199999999998,51.90376,0.01,0.9498853201994109
413,Crawley,-0.18722750000000002,51.109140000000004,0.062481320836443734,0.8893685585015222
414,Huntingdon,-0.182552,52.33146,0.01,0.9345944428424094
415,Hove,-0.168749,50.82793,0.06221422317385567,0.885320824661712
416,Spalding,-0.1537024,52.7901,0.01,0.9376485086661862
417,Brighton,-0.137163,50.82253,0.06369199042046784,0.9077156611927251
418,London,-0.12775830000000002,51.50735,0.01,1.0
419,Grimsby,-0.08078400000000001,53.56746999999999,0.01,0.94783248731858
420,Boston,-0.026576999999999996,52.97894,0.01,0.9481339259061101
421,Royston,-0.024066,52.048140000000004,0.01,0.9280808925354131
422,Louth_Lincs,-0.007711,53.36596,0.01,0.931446751716781
423,Lewes,0.00878,50.873870000000004,0.01,0.9412566335491866
424,Chatteris,0.054012,52.4561,0.01,0.9183247381068113
425,Uckfield,0.095913,50.966409999999996,0.01,0.9432402393082604
426,Cambridge,0.12181700000000001,52.20534,0.01,0.9659982880578982
427,Bishop's Stortford,0.15365020000000001,51.87216,0.01,0.946195510107197
428,Wisbech,0.158797,52.66631999999999,0.01,0.92739014459878
429,Sevenoaks,0.190898,51.27241,0.01,0.9533708623799045
430,Tunbridge Wells,0.26369499999999996,51.13238,0.01,0.9491852822562166
431,Eastbourne,0.29047199999999995,50.768029999999996,0.01,0.9460205932820132
432,Brentwood,0.30717490000000003,51.620470000000005,0.01,0.9694449134295499
433,Skegness,0.337881,53.1464,0.01,0.9297109157082949
434,Downham Market,0.385472,52.606609999999996,0.01,0.920421674483015
435,King's Lynn,0.4022963,52.75168000000001,0.01,0.9398933324645258
436,Bexhill,0.4662071,50.849909999999994,0.01,0.9319468158337181
437,Chelmsford,0.4685497,51.73559,0.01,0.9466139527593228
438,Mildenhall,0.5156095,52.347570000000005,0.01,0.9379113376019751
439,Medway,0.5417860999999999,51.404740000000004,0.01,0.9449025070532948
440,Braintree,0.5509269,51.88009,0.01,0.9390630605046004
441,Gillingham,0.551438,51.38632,0.01,0.9632541188378387
442,Hastings,0.573453,50.85426,0.01,0.9432741634885516
443,Maldon,0.6714479999999999,51.7318,0.01,0.9403860967459764
444,Southend,0.7077123000000001,51.54593,0.01,0.9530762178639943
445,Bury St Edmunds,0.7104931999999999,52.24292,0.01,0.9535346090114796
446,Thetford,0.751657,52.412859999999995,0.01,0.9303441663710039
447,Ashford,0.8750190000000001,51.14647,0.01,0.941461325985773
448,Faversham,0.889358,51.31599,0.01,0.9391823165416328
449,Colchester,0.891874,51.89593,0.01,0.9536348696832182
450,New Romney,0.939473,50.98512,0.01,0.9224717297042209
451,Canterbury,1.0789089,51.280229999999996,0.01,0.9515102905831079
452,Ipswich,1.14822,52.056740000000005,0.01,0.9547250001665408
453,Clacton,1.153035,51.78953,0.01,0.9316999117672279
454,Folkestone,1.169456,51.0814,0.01,0.9399012201868452
455,Sheringham,1.2109589,52.944419999999994,0.01,0.9170029406925347
456,Harwich,1.260297,51.93473,0.01,0.9224717297042209
457,Norwich,1.297355,52.63089,0.01,0.9637309723119881
458,Cromer,1.301866,52.93145,0.01,0.9289409782216428
459,Cromer,1.301866,52.93145,0.01,0.9289409782216428
460,Dover,1.3134027,51.12788,0.01,0.9357069762597944
461,Felixstowe,1.3512549999999999,51.961729999999996,0.01,0.932505751961774
462,Margate,1.3868339,51.38965,0.01,0.939964100635859
463,Ramsgate,1.4198950000000001,51.33555,0.01,0.9394083960670224
464,Great Yarmouth,1.728047,52.59823000000001,0.01,0.9401888081300079
465,Lowestoft,1.7534490000000003,52.48114,0.01,0.9422159059755378
466,Swaffham,0.687481,52.64747,0.01,0.9199668485679354
467,Dereham,0.9378270000000001,52.681619999999995,0.01,0.9518917256067926
468,Ely,0.262363,52.39954,0.01,0.9344190996634416
469,March,0.088622,52.551719999999996,0.01,0.9248314450016923
470,St Neots,-0.26510300000000003,52.23008,0.01,0.9310163915535618
471,Banham,1.0402849,52.45125,0.01,0.9333124406377354
472,Holt,1.086747,52.90936,0.01,0.9289174074971231
473,Hunstanton,0.49103199999999997,52.93891,0.01,0.9122439119598157
474,Horncastle,-0.11245,53.20731,0.01,0.9219144051211919
475,Market Weighton,-0.6677465,53.86484,0.01,0.9208031614390396
476,Hawes,-2.1968695,54.303830000000005,0.01,0.8711430730972106
477,Reeth,-1.9428115000000001,54.38946,0.01,0.9273349697925177
478,Aysgarth,-1.9967433999999997,54.29159,0.01,0.9041876655838494
479,Stanhope,-2.011302,54.74946,0.01,0.9408055595448208
480,Keswick,-3.134706,54.60128,0.01,0.9214247157360603
481,Oxenholme,-2.7243327999999996,54.30134,0.01,0.911853434832554
