index,placename,longitude,latitude,dont_have,dont_have_negc,havent,havent_got,havent_got_negc,havent_negc
0,Dingle,-10.264013499999999,52.14094,0.6806987227304958,0.01,0.5870320170973053,0.09942298124727335,0.01,0.01
1,Tralee,-9.6999325,52.27131,0.7250760798776426,0.01,0.5988378043854381,0.10279591254299479,0.01,0.01
2,Killarney,-9.5044265,52.059940000000005,0.7816982499386635,0.01,0.5792279857022252,0.10623867533679855,0.01,0.01
3,Bantry,-9.4539805,51.68035,0.697948768000421,0.01,0.5579342475555977,0.09326153367348235,0.01,0.01
4,Mayo,-9.4289369,54.01526,0.681954240646423,0.01,0.7066449687573716,0.12446584690352877,0.01,0.01
5,Ballycastle,-9.3724643,54.279669999999996,0.5355038602044516,0.01,0.5658785223787215,0.15417247541774104,0.01,0.01
6,Abbeyfeale,-9.2970823,52.386179999999996,0.591215686240729,0.01,0.5646353821426571,0.08657322055482734,0.01,0.01
7,Ennistymon,-9.2934951,52.940369999999994,0.5854212997382877,0.01,0.5398547971650536,0.09903188621535898,0.01,0.01
8,Galway,-9.0567905,53.270669999999996,0.7865494218389009,0.01,0.6230710878845184,0.13954144432583498,0.01,0.01
9,Claremorris,-9.0017356,53.72388,0.7761231073341038,0.01,0.6536045512481096,0.08248892997452707,0.01,0.01
10,Clare,-8.9811351,52.90453,0.7614389807566606,0.01,0.5836382917819307,0.11243437340233525,0.01,0.01
11,Adare,-8.7925892,52.56363,0.6780150318184147,0.01,0.5902606966124414,0.0919358064856781,0.01,0.01
12,Charleville,-8.681017599999999,52.36206,0.6023941538895684,0.01,0.4983307928926353,0.08740340252319737,0.01,0.01
13,Mallow,-8.6539164,52.13898,0.7339425736123943,0.01,0.4835787135722057,0.09394669915026334,0.01,0.01
14,Limerick,-8.6267343,52.66384,0.8145465301779762,0.01,0.5848594141263702,0.10318639597666841,0.01,0.01
15,Loughrea,-8.5660931,53.19891,0.582989368397209,0.01,0.4983686833166839,0.11103481860390658,0.01,0.01
16,Sligo,-8.476088800000001,54.27661,0.722899100975662,0.01,0.5989110552795032,0.16616490267923512,0.01,0.01
17,Cork,-8.4756035,51.898509999999995,0.8626691324660596,0.01,0.47741416609713283,0.10769943161320289,0.01,0.01
18,Nenagh,-8.19834,52.8635,0.7454115753619854,0.01,0.5426076749539547,0.10468321778567027,0.01,0.01
19,Roscommon,-8.1890955,53.627590000000005,0.7407467798327135,0.01,0.46240838164297254,0.13529794016919336,0.01,0.01
20,Tipperary,-8.161851400000002,52.47379,0.8018687914777065,0.01,0.473302061853526,0.09371876792279593,0.01,0.01
21,Donegal,-8.1096143,54.653830000000006,0.6275125439839018,0.01,0.7630427023358158,0.26016269667074227,0.01,0.01
22,Leitrim,-8.0020132,54.12469,0.6024397347102666,0.01,0.71188011177614,0.22961683888014683,0.01,0.01
23,Athlone,-7.9406898,53.423930000000006,0.7048048574829818,0.01,0.49632110800193646,0.15781490193598086,0.01,0.01
24,Longford,-7.7932573000000005,53.727630000000005,0.7303818701153945,0.01,0.48326806799559857,0.13935128998214955,0.01,0.01
25,Offaly,-7.7122229,53.235690000000005,0.7546100292278822,0.01,0.46481602755722967,0.14814098371585235,0.01,0.01
26,Fermanagh,-7.6318728,54.343830000000004,0.557896136040375,0.01,0.8720117349214054,0.21983929860846188,0.01,0.01
27,Enniskillen,-7.631533599999999,54.343819999999994,0.5830935962397218,0.01,0.8819618234424852,0.22308065295751617,0.01,0.01
28,Doon,-7.60964,54.185930000000006,0.5596055750722143,0.01,0.7952718970802426,0.19484042854253014,0.01,0.01
29,Westmeath,-7.4653217000000005,53.534530000000004,0.7225860253965624,0.2770619257797041,0.385019822980956,0.15638164881122635,0.01,0.01
30,Strabane,-7.4633103,54.82739,0.5888829263699119,0.01,0.7179023913460967,0.2584585077185294,0.01,0.01
31,Balivanich,-7.3743509000000005,57.472269999999995,0.7065258954613863,0.01,0.39267147907865274,0.01,0.01,0.01
32,Cavan,-7.3633319,53.98972,0.6119481987437583,0.01,0.7863188283831515,0.23346391688936055,0.01,0.01
33,Mullingar,-7.340186800000001,53.525819999999996,0.7391297702494579,0.24167781896750276,0.35320121247633124,0.14049837488713451,0.01,0.01
34,Laois,-7.332300699999999,52.9943,0.7690006486059041,0.01,0.3863782686410228,0.14288797301759162,0.01,0.01
35,Omagh,-7.309959700000001,54.59771,0.5453496735649589,0.01,0.9136761972562361,0.27822428093970203,0.01,0.01
36,Derry,-7.308574799999999,54.99661,0.607805583563759,0.01,0.6936216209226118,0.31708733926565175,0.01,0.01
37,Derry,-7.308574799999999,54.99661,0.607805583563759,0.01,0.6936216209226118,0.31708733926565175,0.01,0.01
38,Kilkenny,-7.2447879,52.65415,0.76999953981643,0.01,0.43280959074930025,0.1534742063306583,0.01,0.01
39,Tyrone,-7.131232000000001,54.491209999999995,0.47708129850527775,0.01,1.0,0.295850972476112,0.01,0.01
40,Waterford,-7.110070200000001,52.25932,0.7852307379745076,0.01,0.5331935739286232,0.13090835820959631,0.01,0.01
41,Western Isles,-7.0194034,57.759890000000006,0.7990938306847175,0.01,0.40482106315000593,0.01648991357363817,0.01,0.01
42,Monaghan,-6.9683132,54.2492,0.5547699851269748,0.01,0.9711901951711905,0.2570982972971149,0.01,0.01
43,Carlow,-6.934135899999999,52.83651,0.7636483051443667,0.28913238798583857,0.31555753177205126,0.1661157035009997,0.01,0.01
44,Kildare,-6.8194707999999995,53.21204,0.8019672894125324,0.2531646932478567,0.3271839403962403,0.15295309683428568,0.01,0.01
45,Dungannon,-6.7669352,54.508269999999996,0.4741583865550967,0.01,0.8277222305846524,0.3414184117274727,0.01,0.01
46,Cookstown,-6.7443895000000005,54.641819999999996,0.4982328023613798,0.01,0.701009340632675,0.3707396946076699,0.01,0.01
47,Coleraine,-6.6646103000000005,55.132580000000004,0.5768696862351528,0.01,0.5441835976025202,0.3643622348562722,0.01,0.01
48,Meath,-6.656416900000001,53.60555,0.7815013126504964,0.24065802041600623,0.36637414749441516,0.1488126045008341,0.01,0.01
49,Armagh,-6.652792,54.350280000000005,0.4974609019846631,0.01,0.73902634550118,0.37651774708271435,0.01,0.01
50,Armagh,-6.652792,54.350280000000005,0.4974609019846631,0.01,0.73902634550118,0.37651774708271435,0.01,0.01
51,Magherafelt,-6.607980499999999,54.75536999999999,0.6486148368997937,0.6682241105205056,0.5270954795628335,0.22231024878465966,0.01,0.01
52,Dunvegan,-6.581398200000001,57.4366,0.6857669840569043,0.01,0.38160073577937026,0.011271931737616403,0.01,0.01
53,Louth,-6.4889423,53.925230000000006,0.783242087091246,0.2693516394922234,0.3799270398119481,0.14441501434844092,0.01,0.01
54,Wexford,-6.4633381,52.33692,0.7480903236322759,0.01,0.5200151403116052,0.17009628703463087,0.01,0.01
55,Craigavon,-6.4175653,54.442930000000004,0.6801291590578027,0.5745304332866102,0.5290345165691848,0.2089029168115539,0.01,0.01
56,Stornoway,-6.384869200000001,58.209430000000005,0.8026018788503838,0.01,0.35033005519842886,0.07336421244938426,0.01,0.01
57,Drogheda,-6.3560985,53.717859999999995,0.7391681145184408,0.24838999235890588,0.36582864359456324,0.15671918308647417,0.01,0.01
58,Rosslare,-6.3414908,52.25131,0.5529839204368864,0.01,0.4495120461726874,0.1582348491554646,0.01,0.01
59,Newry,-6.34023,54.1751,0.7113596144163413,0.5732552588388675,0.5995318548964473,0.15534765101551945,0.01,0.01
60,Scilly Isles,-6.327496599999999,49.92773,0.317649821472337,0.01,0.2290328633799983,0.6419559284523372,0.08272762270445042,0.01
61,Ballymena,-6.2802213,54.86529,0.6944939915394007,0.5806123162151184,0.46288936956435667,0.20024318262979973,0.01,0.01
62,Banbridge,-6.2704803,54.34873,0.7002815743917068,0.6125706806716337,0.5131595814521609,0.15802493187538152,0.01,0.01
63,Dublin,-6.2603097000000005,53.34981,0.8905329629414018,0.2559411743241025,0.3158350750823679,0.1609435326452516,0.01,0.01
64,Antrim,-6.2072498,54.719530000000006,0.7033075198020697,0.6248062628125429,0.5450266556541215,0.1844691265849979,0.01,0.01
65,Antrim,-6.2072498,54.719530000000006,0.7033075198020697,0.6248062628125429,0.5450266556541215,0.1844691265849979,0.01,0.01
66,Portree,-6.1960231,57.41246999999999,0.8264806542325903,0.01,0.40152895013526585,0.02945083198544103,0.01,0.01
67,Islay,-6.177067,55.73625,0.7733318294371783,0.01,0.1531453869657499,0.11077251193731527,0.01,0.01
68,Wicklow,-6.044589,52.980819999999994,0.7920082046528559,0.2507883331707737,0.3074336570594962,0.14889073769906871,0.01,0.01
69,Kilkeel,-6.007004,54.06312,0.6481438087115606,0.5326064871956853,0.5498253412818872,0.1592680576924689,0.01,0.01
70,Mull,-6.0008870000000005,56.4392,0.761813809482649,0.01,0.18615945995119115,0.1190968767441669,0.01,0.01
71,Belfast,-5.93012,54.597280000000005,0.8334683599936024,0.6363133952611238,0.45717636615771434,0.1548776963986162,0.01,0.01
72,Broadford,-5.9096592,57.24139,0.677828876655787,0.01,0.37417853105976534,0.02255972850109902,0.01,0.01
73,Down,-5.7156921999999994,54.32875,0.7473887962024093,0.6072360612069889,0.5078070952371175,0.14128047821714537,0.01,0.01
74,Kyle of Lochalsh,-5.7143293,57.28261,0.6764085888848695,0.01,0.37786089830018627,0.023487519416266076,0.01,0.01
75,Campbeltown,-5.605373999999999,55.424119999999995,0.7713755392064251,0.01,0.13287953440296874,0.12886324132380736,0.01,0.01
76,Penzance,-5.537592,50.1188,0.37306477761738666,0.01,0.23726415703794299,0.6603673642669513,0.08478803804040974,0.01
77,Oban,-5.471047,56.41516,0.8308563937269675,0.01,0.13924900554231237,0.09629482033794953,0.01,0.01
78,Lochgilphead,-5.4323449,56.03829,0.7729428901608252,0.01,0.10102866546071408,0.09707588969059329,0.01,0.01
79,Helston,-5.274996,50.10159,0.3386300777108804,0.01,0.2321492750670362,0.6532028470491111,0.08350770735036599,0.01
80,Redruth,-5.226666000000001,50.23302,0.35385509017720373,0.01,0.23441076529323798,0.6539850091785891,0.08407379161030998,0.01
81,Ullapool,-5.161313,57.895419999999994,0.7663601442056556,0.01,0.4609183318312411,0.04461590380421727,0.01,0.01
82,Ballachulish,-5.133719999999999,56.673930000000006,0.637799463971522,0.01,0.15555530390884728,0.11896465173811645,0.01,0.01
83,Fort William,-5.1052179,56.81981999999999,0.8413411668850042,0.01,0.15382216305884,0.07424000895549465,0.01,0.01
84,Achnasheen,-5.078765799999999,57.578590000000005,0.6605819318820478,0.01,0.38762404399771416,0.04064072346200476,0.01,0.01
85,Newquay,-5.0737190000000005,50.4155,0.37707138229183357,0.01,0.236801939540902,0.6506617116776132,0.08467233812019942,0.01
86,Falmouth,-5.066269999999999,50.152570000000004,0.38292154763864084,0.01,0.23766823927664465,0.6569241894448969,0.0848891862556639,0.01
87,Rothesay,-5.055793,55.83596,0.8284082310544677,0.01,0.09858925460102613,0.09784823387235264,0.01,0.01
88,Truro,-5.051041000000001,50.2632,0.4231217863850589,0.01,0.24362091506536065,0.6657393169504703,0.08637922920317823,0.01
89,Milford Haven,-5.0426971,51.71431,0.2446383283967219,0.5636412071088452,0.34919350942054106,0.7258771134636252,0.01,0.01
90,Stranraer,-5.024055000000001,54.903369999999995,0.7545150503262664,0.5567285922458797,0.3349385998675209,0.11383030429281128,0.01,0.01
91,Fishguard,-4.975989,51.99393,0.269084502346548,0.4671171387973985,0.2720184668521747,0.675869429088187,0.01,0.01
92,Inchnadamph,-4.974295,58.15221,0.6561981430780124,0.01,0.3858126093133785,0.046375839327026186,0.01,0.01
93,Haverfordwest,-4.971319,51.800470000000004,0.2568222674189862,0.5718727913087696,0.35577502716485243,0.7261769517784658,0.01,0.01
94,Dunoon,-4.926214,55.95097,0.8164784712955722,0.01,0.10857522871609408,0.09451175282926005,0.01,0.01
95,Pembroke,-4.908637000000001,51.674040000000005,0.2805871696632226,0.5730569628101395,0.3567218023415687,0.7396281522407769,0.01,0.01
96,Girvan,-4.8542179,55.240159999999996,0.7914345383232982,0.01,0.18420927743043666,0.1033023945583167,0.01,0.01
97,Wadebridge,-4.836456,50.51665,0.3594050459711924,0.01,0.23788700916726935,0.6400114827026573,0.08494394884891271,0.01
98,Invergarry,-4.800261,57.07095,0.6649313901434719,0.01,0.37972355006506797,0.03706359503097418,0.01,0.01
99,St Austell,-4.7834252,50.340379999999996,0.36651032519330634,0.01,0.25448939262611714,0.641736634205444,0.08414978406611294,0.01
100,Greenock,-4.7719830000000005,55.956480000000006,0.8768468393127927,0.01,0.06318835906800489,0.10802401081388087,0.01,0.01
101,Helensburgh,-4.734014,56.00232,0.8235239801490762,0.01,0.06036099912111198,0.10617768929869563,0.01,0.01
102,Bodmin,-4.7188629,50.4715,0.3325506475262341,0.01,0.26277179058587197,0.654522990364112,0.08610781415789448,0.01
103,Tenby,-4.703579,51.672740000000005,0.24270833837024078,0.5681431941399411,0.3527930383606148,0.7440973241974519,0.01,0.01
104,Camelford,-4.682364,50.62206,0.3543771393902469,0.01,0.23450472783392437,0.5867722827765888,0.08935338996735452,0.01
105,Irvine,-4.6696364,55.61156999999999,0.8795178265388967,0.01,0.1467901488512846,0.09906772000263474,0.01,0.01
106,Cardigan,-4.660864,52.0837,0.35069413337725275,0.01,0.253633812958806,0.618466414325963,0.01,0.01
107,Holyhead,-4.633038,53.30944,0.36228859444273454,0.01,0.6157863212195908,0.5390590764564966,0.01,0.01
108,Ayr,-4.629179,55.45856,0.8793081157600955,0.01,0.1580269166283977,0.11004939383592464,0.01,0.01
109,Dumbarton,-4.564554,55.94529,0.8873793229913197,0.01,0.04058143703463677,0.090152470564469,0.01,0.01
110,Bude,-4.543678,50.826640000000005,0.36828584605829034,0.4549990509370491,0.2623295282615698,0.6091810186999798,0.0910622740337683,0.01
111,Isle of Man,-4.5126330999999995,54.27697,0.7269162287244701,0.5475307923666771,0.3963991732973892,0.2225712414491298,0.01,0.01
112,Kilmarnock,-4.498792,55.61472,0.8843223098501645,0.01,0.04697981257327874,0.10578356013257667,0.01,0.01
113,Newton Stewart,-4.483164,54.9603,0.738069349357365,0.01,0.11326527506155255,0.16006788896933774,0.01,0.01
114,Liskeard,-4.4647190000000005,50.45552,0.3700898486094626,0.01,0.309692592297723,0.6105096888487697,0.08748026096807657,0.01
115,Altnaharra,-4.442655,58.28023,0.655817738517147,0.01,0.38671665501919134,0.0466423582964769,0.01,0.01
116,Pwllheli,-4.417633900000001,52.888819999999996,0.40484755213429935,0.01,0.3903032738660301,0.5227131281438472,0.01,0.01
117,Lairg,-4.402414,58.022059999999996,0.6550524996479821,0.01,0.3885348226832905,0.047178398030908716,0.01,0.01
118,Launceston,-4.360451599999999,50.636829999999996,0.38391802617596815,0.46044821478307524,0.3099978810298833,0.5704521736909551,0.09215285841252295,0.01
119,Carmarthen,-4.312131,51.857620000000004,0.24811390637394115,0.5759736684687276,0.41323209726793436,0.7615966057683959,0.01,0.01
120,Llangefni,-4.311401999999999,53.255790000000005,0.37547925281018546,0.01,0.618985254456115,0.5643244457876183,0.01,0.01
121,Caernarfon,-4.273911,53.13955,0.3751511566261919,0.01,0.6523153883089626,0.5480026895835567,0.01,0.01
122,Cumnock,-4.265828900000001,55.45355,0.8521966357188584,0.01,0.07229787421484524,0.09744602864877447,0.01,0.01
123,Aberaeron,-4.2581619,52.24279,0.30092070751999783,0.01,0.20010493523424416,0.6789623222908243,0.01,0.01
124,Alness,-4.256825,57.69595,0.8170871424542265,0.01,0.4248149229151637,0.03763675571366654,0.01,0.01
125,Glasgow,-4.251806,55.86424,1.0,0.01,0.04911566163670096,0.08939936547221505,0.01,0.01
126,Dalwhinnie,-4.242783,56.9366,0.6550782475549403,0.01,0.17520802054231382,0.09363280280954252,0.01,0.01
127,Inverness,-4.224721,57.47776999999999,0.8762150710023054,0.01,0.48752407797616204,0.03781897355290616,0.01,0.01
128,Saltash,-4.21643,50.409209999999995,0.4225927256924185,0.01,0.2760920164631632,0.5416976249064749,0.10710819136176583,0.01
129,Bideford,-4.206666,51.01668,0.40693890799497684,0.4663886649854735,0.30799458085189635,0.5703038489994939,0.01,0.01
130,Invergordon,-4.1728819999999995,57.688109999999995,0.8242231386987818,0.01,0.42512307682398454,0.030965932577560033,0.01,0.01
131,Llanelli,-4.160248,51.680890000000005,0.17392351406479767,0.601930365538448,0.45530044268501074,0.8630203221220472,0.01,0.01
132,Plymouth,-4.1426565,50.37546,0.5184081098291339,0.01,0.2962294479269992,0.5468919176823364,0.11282098575959376,0.01
133,Tavistock,-4.141654,50.551120000000004,0.42472485105123464,0.01,0.31119380595836826,0.5536680108432087,0.07634754032836022,0.01
134,Porthmadog,-4.1333839999999995,52.92784,0.3824559621560383,0.01,0.45815402224460866,0.565793325338686,0.01,0.01
135,Bangor,-4.129263,53.22739,0.3735048151216185,0.01,0.6251989837544243,0.6039617549920117,0.01,0.01
136,Tywyn,-4.087249,52.58701,0.34392714603859703,0.01,0.32126788252741567,0.5684672610387131,0.01,0.01
137,Aberystwyth,-4.08292,52.4153,0.4335092834049343,0.01,0.2457789754705992,0.5979046843607355,0.01,0.01
138,Lampeter,-4.0785089999999995,52.1129,0.3181537284944393,0.01,0.2389411683458508,0.6630276155278068,0.01,0.01
139,Barnstaple,-4.058338,51.07816,0.47045444844857504,0.43595101253512125,0.21976171358119,0.5513091301275148,0.01,0.01
140,Tain,-4.05523,57.8115,0.744851625032172,0.01,0.40775612325465016,0.0789539718513763,0.01,0.01
141,Okehampton,-4.004263,50.73831,0.3961230277506925,0.31999132092662314,0.304883149279278,0.5405762868985009,0.06404219961431186,0.01
142,Llandeilo,-3.9914300000000003,51.88469,0.16278367105857638,0.6078284204675645,0.44169769173666845,0.834015192281672,0.01,0.01
143,Motherwell,-3.9810968,55.78321,0.9399665729953128,0.01,0.04716422983100581,0.0761844966551782,0.01,0.01
144,Golspie,-3.976086,57.97341,0.6352714624829758,0.01,0.38671665501919134,0.07167244245414785,0.01,0.01
145,Airdrie,-3.9625660000000003,55.86626999999999,0.9910080509318291,0.01,0.01,0.01,0.01,0.01
146,Swansea,-3.9436459999999998,51.62144,0.2562766758238203,0.5798930867851843,0.38036990066269327,0.8486635866996667,0.01,0.01
147,Stirling,-3.9369029,56.116519999999994,0.9402558006261056,0.01,0.18313561436068018,0.03450326587399558,0.01,0.01
148,Tregaron,-3.934385,52.22,0.32450660475287846,0.01,0.15188340276958742,0.6710005542095043,0.01,0.01
149,Tregaron,-3.934385,52.22,0.32450660475287846,0.01,0.15188340276958742,0.6710005542095043,0.01,0.01
150,Castle Douglas,-3.9314139999999997,54.940419999999996,0.5678152280833574,0.01,0.2524813098280588,0.3544627470919904,0.01,0.01
151,Dolgellau,-3.8844,52.74215,0.30259152112096355,0.01,0.38085468779029275,0.6141688894821052,0.01,0.01
152,Aberfeldy,-3.866969,56.62175,0.8413010911402192,0.01,0.06678417529511566,0.08602954654135074,0.01,0.01
153,Machynlleth,-3.853485,52.59027,0.297246464945292,0.01,0.24389287466001586,0.6787909567522243,0.01,0.01
154,Brora,-3.8525480000000005,58.012159999999994,0.7280376798176819,0.01,0.40452783395462116,0.07783669630154552,0.01,0.01
155,Llandudno,-3.827609,53.324059999999996,0.3559443660332219,0.01,0.46418573281379955,0.6349364802314305,0.01,0.01
156,Llandudno,-3.827609,53.324059999999996,0.3559443660332219,0.01,0.46418573281379955,0.6349364802314305,0.01,0.01
157,Aviemore,-3.823812,57.19449,0.8051830666538717,0.01,0.42251539556789425,0.037047243699588006,0.01,0.01
158,Dalbeattie,-3.8225269999999996,54.934219999999996,0.5291822343670819,0.01,0.2970004566368289,0.3513306876165254,0.01,0.01
159,Falkirk,-3.7839131,56.00188000000001,0.9402270958533354,0.01,0.19554389697574678,0.0321589859105136,0.01,0.01
160,Kingsbridge,-3.777493,50.28395,0.4292634805038243,0.01,0.30002594585322606,0.536051129479967,0.07428131536789977,0.01
161,Pitlochry,-3.729711,56.70436,0.7783440364832507,0.01,0.08090046684295135,0.114655877095235,0.01,0.01
162,Colwyn Bay,-3.72764,53.29318000000001,0.36264042773845573,0.01,0.3559759978614267,0.6382312547337013,0.01,0.01
163,Totnes,-3.685797,50.43374,0.442137611644577,0.01,0.29867338462510734,0.5263355673364765,0.07403107017121388,0.01
164,Grantown-on-Spey,-3.609628,57.33041,0.7672405740001365,0.01,0.40998830291048394,0.040391614371856406,0.01,0.01
165,Dumfries,-3.60512,55.070859999999996,0.6104835674619667,0.01,0.26598480930867885,0.37697679441046594,0.01,0.01
166,Whitehaven,-3.589233,54.5497,0.4799666250102427,0.01,0.2900680925217479,0.508921774623566,0.01,0.01
167,Dartmouth,-3.578807,50.35252,0.43590606556788775,0.01,0.2920525470336637,0.5085603793682643,0.07280611266731432,0.01
168,Bridgend,-3.576945,51.504290000000005,0.195423846121482,0.01,0.3569734576457009,0.8974039409807612,0.01,0.01
169,Paignton,-3.564235,50.43508,0.492354122277896,0.01,0.2983988215639773,0.5183308749407967,0.07398027241532562,0.01
170,Workington,-3.5427519999999997,54.64357,0.4727839957546228,0.01,0.2755735769271691,0.5189111534261063,0.01,0.01
171,Llanidloes,-3.5401949999999998,52.447790000000005,0.34483049118036563,0.01,0.19963516726203792,0.6146022279740555,0.01,0.01
172,Exeter,-3.533899,50.71841,0.5451878082709791,0.4369597983173439,0.24790639345079715,0.5341505982537081,0.01,0.01
173,Torquay,-3.525315,50.46192,0.5022048241771597,0.01,0.2979697772620108,0.51010171469684,0.07390089355970524,0.01
174,Thurso,-3.5220800000000003,58.59356999999999,0.7760624672813452,0.01,0.4116753300396103,0.08031038996003678,0.01,0.01
175,Livingston,-3.518068,55.90071,0.8903474876328696,0.01,0.095741146513445,0.11220785815196366,0.01,0.01
176,Rhyl,-3.4916339999999995,53.319140000000004,0.24319352307106423,0.01,0.44631906707927393,0.7619037629267396,0.01,0.01
177,Tiverton,-3.491207,50.90205,0.45439980187868473,0.4405961373503216,0.16792552900591035,0.5424156540846322,0.01,0.01
178,Tiverton,-3.491207,50.90205,0.45439980187868473,0.4405961373503216,0.16792552900591035,0.5424156540846322,0.01,0.01
179,Minehead,-3.481152,51.20428,0.41664601002039037,0.01,0.20636923820827877,0.5556763183800404,0.01,0.01
180,Dunfermline,-3.452151,56.071740000000005,0.9053331521742579,0.01,0.08954364942154872,0.08746044275835543,0.01,0.01
181,Perth,-3.4308381000000003,56.39499,0.8487680901864302,0.01,0.038401000065969845,0.10590017593973275,0.01,0.01
182,Prestatyn,-3.4076129999999996,53.33651,0.3265846434218072,0.01,0.4054081811883648,0.6424746830848813,0.08894469274001328,0.01
183,Builth Wells,-3.4045919999999996,52.15002,0.2338497519176072,0.01,0.22254952860725005,0.7538963392265235,0.6127914154036684,0.01
184,Braemar,-3.3979439,57.00646999999999,0.6669322516874133,0.01,0.12727924992218997,0.0896358614687735,0.01,0.01
185,Brecon,-3.391463,51.94895,0.01,0.01,0.42728442500347086,0.9972894442363304,1.0,0.01
186,Merthyr Tydfil,-3.381646,51.74873,0.04268026104466491,0.01,0.6253152825233877,1.0,0.8836260606685293,0.01
187,Llandrindod Wells,-3.377742,52.2417,0.33531590529236954,0.01,0.24329557619737402,0.6239220068709844,0.29341250129709234,0.01
188,Corwen,-3.369242,52.98005,0.335292222667376,0.01,0.22366092567063592,0.6111866352473238,0.01,0.01
189,Cockermouth,-3.367985,54.66326,0.45549346897618276,0.01,0.2712942198682624,0.501764093580807,0.01,0.01
190,Lockerbie,-3.349008,55.122240000000005,0.5928451533244449,0.01,0.31358820999900394,0.3708928141092053,0.01,0.01
191,Blairgowrie,-3.3378318,56.58941,0.7965868906286591,0.01,0.04092274222159741,0.13541908661888177,0.01,0.01
192,Elgin,-3.318485,57.64945,0.830798127513694,0.01,0.5023929387929601,0.07377940235868435,0.01,0.01
193,Newtown,-3.313106,52.51211,0.36589624391419573,0.01,0.14313122495367658,0.6089266968910193,0.01,0.01
194,Ruthin,-3.3103108,53.114869999999996,0.33124089893081293,0.01,0.3282688518744801,0.6545025773074671,0.01,0.01
195,Ruthin,-3.3103108,53.114869999999996,0.33124089893081293,0.01,0.3282688518744801,0.6545025773074671,0.01,0.01
196,Sidmouth,-3.2375599999999998,50.67865,0.44505998721858153,0.01,0.2962326944459021,0.5229380329062788,0.01,0.01
197,Barrow-in-Furness,-3.2188939999999997,54.10896999999999,0.41947708505784914,0.4284992288641271,0.20083555886412688,0.6229297492240324,0.01,0.01
198,Peebles,-3.1936419999999996,55.65306999999999,0.8519261428192172,0.01,0.07138691672517493,0.07182757294427654,0.01,0.01
199,Edinburgh,-3.1882669999999997,55.95325,0.9942369227069973,0.01,0.05008896626280868,0.08233783023647338,0.01,0.01
200,Cardiff,-3.17909,51.48158,0.5516418583062284,0.01,0.40831309069998334,0.5326924773587738,0.01,0.01
201,Llangollen,-3.1716599999999997,52.96921,0.35934480736060653,0.01,0.15139505776408724,0.6253694806445702,0.01,0.01
202,Kirkcaldy,-3.158137,56.11682,0.9206198243680336,0.01,0.0596364561940807,0.09168610635975354,0.01,0.01
203,Welshpool,-3.146407,52.66035,0.39893344330760533,0.01,0.16758544497003616,0.6062485641171483,0.01,0.01
204,Mold,-3.1419029999999997,53.1672,0.3409173725235764,0.01,0.3773567808562132,0.6844149887614808,0.01,0.01
205,Mold,-3.1419029999999997,53.1672,0.3409173725235764,0.01,0.3773567808562132,0.6844149887614808,0.01,0.01
206,Taunton,-3.106849,51.01534,0.42975923380542974,0.01,0.2787561286152856,0.6132415181859769,0.01,0.01
207,Wick,-3.093716,58.43894,0.7771416235193951,0.01,0.4025297323229981,0.07355619958164367,0.01,0.01
208,John o' Groats,-3.0688997000000002,58.63734,0.6525164692422117,0.01,0.3709406952648819,0.0541019551016458,0.01,0.01
209,Dalkeith,-3.066606,55.893119999999996,0.9054787803010867,0.01,0.0501515558480631,0.08241201333130689,0.01,0.01
210,Oswestry,-3.056412,52.85715,0.4213063749286415,0.01,0.24506590154655397,0.5960480438474174,0.01,0.01
211,Blackpool,-3.0356748,53.81751,0.5294779854769661,0.3440386634226898,0.1897928237268343,0.5479631323011002,0.01,0.01
212,Birkenhead,-3.023009,53.389990000000004,0.3750951842472672,0.1921206197364704,0.5099608307616234,0.6617579390092818,0.07690100080870976,0.01
213,Cupar,-3.010137,56.32023,0.7935475522745038,0.01,0.023327525486394746,0.1474517625974041,0.01,0.01
214,Southport,-3.010113,53.64571,0.44027143215004116,0.01,0.3126334661663971,0.6059265502102801,0.01,0.01
215,Bridgwater,-3.003632,51.12789,0.426389710375157,0.01,0.36878440972768406,0.6221915907842083,0.01,0.01
216,Langholm,-2.998913,55.153059999999996,0.4864414363861822,0.01,0.32056077811074574,0.401250062883092,0.01,0.01
217,Newport,-2.997664,51.58415,0.5013401231239911,0.01,0.40836274809351797,0.536335866241613,0.01,0.01
218,Axminster,-2.9949369999999997,50.78273,0.3702268560759634,0.01,0.31183048199025476,0.6201939938286047,0.01,0.01
219,Wrexham,-2.9924939999999998,53.043040000000005,0.4049610981105216,0.01,0.15727804875741458,0.6812159893602265,0.01,0.01
220,Liverpool,-2.9915726,53.40837,0.4050166569712281,0.19886391105013518,0.5314213018641356,0.6924758025994732,0.0796001689223501,0.01
221,Weston-super-Mare,-2.977255,51.347409999999996,0.49867824288060303,0.01,0.2391877258251583,0.5450162809186614,0.01,0.01
222,Dundee,-2.9707209999999997,56.462019999999995,0.8971643321900531,0.01,0.04000091363714807,0.13905014936474924,0.01,0.01
223,Kirkwall,-2.9622491,58.984669999999994,0.7935019613252215,0.01,0.3969587701039904,0.062439520724543625,0.01,0.01
224,Ambleside,-2.961333,54.428740000000005,0.4106291245571789,0.01,0.3387467794517828,0.5950465454667216,0.01,0.01
225,Orkney Islands,-2.9605206,58.980940000000004,0.7966143193206158,0.01,0.39753313816168084,0.0626235785920955,0.01,0.01
226,Lyme Regis,-2.936639,50.725159999999995,0.37788658218462023,0.01,0.30411503968713594,0.5979621123816834,0.01,0.01
227,Carlisle,-2.932931,54.892469999999996,0.5266687289013371,0.01,0.3310929844424224,0.5177464546754972,0.01,0.01
228,Chester,-2.893075,53.19339,0.3910667051500407,0.35123832414538886,0.2674719508520904,0.6928554474576367,0.14059177347129373,0.01
229,Forfar,-2.889062,56.64356,0.8061684525083508,0.01,0.041427301595200965,0.15700140185142586,0.01,0.01
230,Morecambe,-2.864968,54.074169999999995,0.4024396040325856,0.44901344137200705,0.25754378707333664,0.6067900240686501,0.01,0.01
231,Selkirk,-2.838524,55.55066,0.7738218483064736,0.01,0.10924161002348502,0.18585477944409892,0.01,0.01
232,Galashiels,-2.814449,55.62373,0.857206930402304,0.01,0.07180075262561227,0.08426559593639223,0.01,0.01
233,Lancaster,-2.8007399,54.046569999999996,0.44134006681683724,0.43933189791495514,0.24980300213058,0.6096191708569088,0.01,0.01
234,St Andrews,-2.7967214,56.339780000000005,0.8066278763921324,0.01,0.0330738461486739,0.17633804487284013,0.01,0.01
235,Hawick,-2.780914,55.42706,0.5707007274580058,0.01,0.3588868655733441,0.3541302711656847,0.01,0.01
236,Bridport,-2.758301,50.733579999999996,0.33917133913372105,0.667590388364959,0.2753150740809433,0.6439231874272404,0.01,0.01
237,Shrewsbury,-2.7553267999999997,52.7073,0.42730094870120017,0.01,0.32294506627740394,0.642571624328762,0.01,0.01
238,Penrith,-2.752708,54.6641,0.47159798216197607,0.01,0.3509855943714586,0.5591330917562579,0.01,0.01
239,Kendal,-2.74629,54.32801,0.43871133263449424,0.5221601331400457,0.26691130502832944,0.5877013596973267,0.01,0.01
240,Street,-2.7429189999999997,51.12468,0.3459679124496519,0.01,0.29736928685405556,0.6149440196721924,0.01,0.01
241,Glastonbury,-2.718454,51.14743,0.3685959363880419,0.01,0.2931470565749969,0.6136958499421541,0.01,0.01
242,Hereford,-2.715974,52.0564,0.4008996870329549,0.01,0.12387589181442808,0.6932740567795188,0.01,0.01
243,Ludlow,-2.7139129,52.36775,0.3548691788930708,0.01,0.21029642359675338,0.6739757326767934,0.01,0.01
244,Preston,-2.70309,53.7632,0.5897220259735778,0.01,0.0775696942492216,0.5269159592469099,0.01,0.01
245,Whitchurch,-2.682045,52.96872,0.41280875395988764,0.01,0.2586940775571675,0.5663431878934653,0.01,0.01
246,Wells,-2.6445979,51.20935,0.48288810213548417,0.2845622085048624,0.32978469001245647,0.48113282598941004,0.01,0.01
247,Yeovil,-2.633308,50.94206,0.3430574787833586,0.6687452195652757,0.27596685062542353,0.6931813882521987,0.01,0.01
248,Wigan,-2.6325074,53.54506,0.5342945272362479,0.01,0.36363030284522585,0.5413673638807641,0.01,0.01
249,Warrington,-2.5969501,53.39004,0.45098129262053965,0.01,0.31695761306673326,0.6482239279777685,0.2094729955827442,0.01
250,Arbroath,-2.591543,56.55911,0.8155973862815521,0.01,0.03486155369008171,0.16017003076860764,0.01,0.01
251,Bristol,-2.58791,51.45451,0.5970596015402364,0.5460215082978557,0.3368178569564853,0.4895499028054122,0.01,0.01
252,Guernsey,-2.5852779999999997,49.46569,0.34738605279844614,0.34221660055193487,0.2526306941462315,0.44108203480165503,0.06849030670756769,0.01
253,Ross-on-Wye,-2.582446,51.91445,0.4640146938771311,0.01,0.16071065327002051,0.5711329085068878,0.01,0.01
254,Jedburgh,-2.5549369,55.47772,0.5643073927432715,0.01,0.2705281961476595,0.34854648885824097,0.01,0.01
255,Sedbergh,-2.5281740000000004,54.32363,0.39842667479342175,0.01,0.320716210557488,0.5466902809320473,0.01,0.01
256,Sedbergh,-2.5281740000000004,54.32363,0.39842667479342175,0.01,0.320716210557488,0.5466902809320473,0.01,0.01
257,Nantwich,-2.524102,53.067190000000004,0.38413820905221113,0.01,0.23816237987394753,0.633905629205016,0.1734262662710886,0.01
258,Banff,-2.524038,57.666509999999995,0.6831063152771171,0.01,0.323049780062323,0.20624925671742536,0.01,0.01
259,Dunbar,-2.516737,56.00209,0.8688428270010786,0.01,0.0681013546955984,0.10161539496478764,0.01,0.01
260,Cinderford,-2.5009579,51.8253,0.48241384860691056,0.01,0.21798669798901035,0.5245711048957321,0.01,0.01
261,Banchory,-2.4909599,57.05386,0.7786025862266784,0.01,0.10266832402448386,0.16354259633244017,0.01,0.01
262,Blackburn,-2.487529,53.748580000000004,0.5808541792917958,0.01,0.09663218618550752,0.49919716714981377,0.01,0.01
263,Market Drayton,-2.483485,52.90355,0.31262099690319245,0.01,0.20882133107228654,0.6613608229741855,0.2685482867996218,0.01
264,Telford,-2.4672611,52.67759,0.38055075737186267,0.01,0.3394623955800151,0.6673622885058821,0.15635718459339634,0.01
265,Montrose,-2.4661150000000003,56.70692,0.7901632211854637,0.01,0.07732707367368338,0.16658090770159248,0.01,0.01
266,Turriff,-2.4623,57.53893000000001,0.7170712596719574,0.01,0.21758943624202323,0.19529827751474754,0.01,0.01
267,Weymouth,-2.457621,50.61443,0.4561233149480922,0.515798155708594,0.2866820249283479,0.5476382469432469,0.01,0.01
268,Crewe,-2.4438209,53.10041,0.4232975643273626,0.01,0.22806649042245905,0.6294035364988511,0.16827088443791618,0.01
269,Fortuneswell,-2.4422189999999997,50.55919,0.3986409249030693,0.5023308278355609,0.27654772964273067,0.530799611922099,0.01,0.01
270,Dorchester,-2.4411810000000003,50.71116,0.46399245184961646,0.5675304374968145,0.32561108524387966,0.5657895141419639,0.01,0.01
271,Alston,-2.438685,54.812169999999995,0.3678304054093733,0.01,0.4440973173273627,0.5134254714105855,0.01,0.01
272,Kelso,-2.432207,55.600030000000004,0.6467409038582498,0.01,0.2944822336010441,0.26940618501604585,0.01,0.01
273,Wincanton,-2.416007,51.055690000000006,0.42071428018667956,0.7327335571025462,0.24315708127581187,0.5310149632023933,0.01,0.01
274,Clitheroe,-2.3930830000000003,53.8711,0.5639015490491195,0.01,0.1193418903052232,0.45385230211186217,0.01,0.01
275,Sark,-2.3666256000000003,49.43007,0.39013062380032965,0.42427800165601115,0.15794839065418032,0.4114663538269024,0.01,0.01
276,Bath,-2.3590167,51.38106,0.5783912063939208,0.5256259453145636,0.3303352618656177,0.4568560936288274,0.01,0.01
277,Kidderminster,-2.2496839,52.3886,0.2842593013564782,0.01,0.31487630554084495,0.7645905378441177,0.07381932348662414,0.01
278,Manchester,-2.2426305,53.48076,0.6388706131825075,0.22497493711498123,0.21332328217643312,0.5075769127352033,0.04502587818168671,0.18160364705409587
279,Burnley,-2.2405035,53.78929,0.6381147126406032,0.01,0.15411173453865631,0.4039420309126405,0.01,0.01
280,Gloucester,-2.238156,51.86424,0.5521521599893434,0.01,0.26529869870406714,0.5138717788099466,0.01,0.01
281,Newcastle-under-Lyme,-2.2273002,53.01321,0.3377229205006097,0.01,0.30745571821915824,0.6903038864515926,0.3367909441002351,0.01
282,Worcester,-2.221575,52.19364,0.41837637526712695,0.01,0.3628964463227091,0.6574076410310434,0.01,0.01
283,Trowbridge,-2.208853,51.31966,0.6076416384367367,0.01,0.36205928069928034,0.418966265420256,0.01,0.01
284,Shaftesbury,-2.198083,51.0046,0.4560170190936595,0.8436198621570828,0.017569758535246744,0.5511649372407319,0.01,0.01
285,Alderney,-2.1973557,49.715,0.35124491653159295,0.4110303471247049,0.28516931249155353,0.4313874494479349,0.01,0.01
286,Stoke-on-Trent,-2.179404,53.002669999999995,0.3699847030991766,0.01,0.27319070108376325,0.7147423895448064,0.3416307322055436,0.01
287,Colne,-2.176991,53.85564,0.5433602158492202,0.01,0.40290851107617504,0.409978740972756,0.01,0.01
288,Blandford Forum,-2.165353,50.85691,0.4735787242438416,0.4530623354553422,0.15423916758160747,0.48777071564476443,0.01,0.01
289,Rochdale,-2.1561,53.60971,0.5764321696838169,0.23111417241746687,0.19473895363939794,0.4923038280189533,0.04625456440948088,0.01
290,Jersey,-2.13125,49.21444,0.36245909901911694,0.4019930281251415,0.27666846893571595,0.4197636539532871,0.01,0.01
291,Wolverhampton,-2.12882,52.586969999999994,0.35363006531592994,0.01,0.3371314892317246,0.7226339366206262,0.09822986919059135,0.01
292,Stafford,-2.12066,52.80669,0.3413491079458049,0.01,0.34149025755818835,0.7268745083096458,0.2899870041170975,0.01
293,Macclesfield,-2.119287,53.25866,0.5509740601072719,0.01,0.4066871971830589,0.46144673955502924,0.01,0.01
294,Hexham,-2.1121439,54.97266,0.5681979051266253,0.01,0.33234449912524366,0.4335738984597554,0.01,0.01
295,Aberdeen,-2.094278,57.149719999999995,0.8510036013001984,0.01,0.2219621953034394,0.17107243387429183,0.01,0.01
296,Dudley,-2.081112,52.51226,0.5093168398027443,0.4130705751542936,0.23010111932635768,0.541398949298398,0.09920499258126614,0.01
297,Cheltenham,-2.0782533,51.899390000000004,0.5439706730841458,0.01,0.30327312443289256,0.5061578772492786,0.01,0.01
298,Bromsgrove,-2.061906,52.33559,0.3231907291753666,0.01,0.319295118709025,0.7378420480544992,0.01,0.01
299,Skipton,-2.0162787,53.96285,0.6048477030204287,0.01,0.262052444695052,0.3656176713197422,0.01,0.01
300,Fraserburgh,-2.007631,57.69335,0.7051117599603279,0.01,0.21613550097367815,0.21703393752484607,0.01,0.01
301,Berwick,-2.005395,55.77024,0.56821649739908,0.01,0.4207921117725835,0.3579320907492684,0.01,0.01
302,Poole,-1.987248,50.71505,0.5770900080831565,0.5286107259057385,0.19687736566927416,0.45530757542587547,0.01,0.01
303,Walsall,-1.9829189999999999,52.586209999999994,0.49317217319527723,0.42620465923281065,0.3128063156991324,0.5451080933660544,0.10235933372546081,0.01
304,Cirencester,-1.968243,51.71849,0.5028620808340512,0.01,0.25134714803773983,0.5542754465940372,0.01,0.01
305,Evesham,-1.9467700000000001,52.09215,0.42775984068214656,0.11928083622971973,0.28562886871152354,0.581187030136474,0.01,0.01
306,Buxton,-1.91483,53.259080000000004,0.5192461346449166,0.30860347413467254,0.44040225124352156,0.4540939013061274,0.01,0.01
307,Keighley,-1.9123580000000002,53.8678,0.6010392618838005,0.01,0.2736372042105426,0.4008039240399582,0.01,0.01
308,Birmingham,-1.8904009999999998,52.48624,0.569962228535184,0.4075332049465899,0.3253250965103749,0.5407728369236148,0.13050014963410303,0.01
309,Bournemouth,-1.880769,50.719159999999995,0.5797978520755547,0.5631220434295594,0.21635496155231762,0.4798418450388711,0.01,0.01
310,Halifax,-1.8575400000000002,53.727019999999996,0.5693124549698656,0.01,0.30165255592766077,0.4309897445057736,0.01,0.01
311,Salisbury,-1.794472,51.06878,0.5340789858559296,0.17598818030061636,0.22962090252518702,0.4963829337437808,0.01,0.01
312,Ringwood,-1.7888169999999999,50.84495,0.5389849312904121,0.15536297006001273,0.2492752933847006,0.4616013321780304,0.01,0.01
313,Huddersfield,-1.7850351000000002,53.645790000000005,0.5569643632458379,0.01,0.3245099858507254,0.49303812067386604,0.01,0.01
314,Peterhead,-1.784066,57.50812,0.7579318203228371,0.01,0.20427373379507652,0.18308740402869003,0.01,0.01
315,Swindon,-1.7797176,51.55577,0.4978118851745391,0.01,0.2355104752273234,0.5727575240124925,0.01,0.01
316,Bradford,-1.759398,53.79598000000001,0.6506200985363652,0.3653806440273387,0.2765985661155442,0.3951406083660144,0.01,0.01
317,Ashbourne,-1.7321790000000001,53.016630000000006,0.4510597321717649,0.4238953779939795,0.45676345368429777,0.5500265497489369,0.16967454534884188,0.01
318,Marlborough,-1.7270619999999999,51.42007,0.4134630802257644,0.01,0.1738119898572409,0.6165318993888149,0.01,0.01
319,Stratford-upon-Avon,-1.7082979999999999,52.19173,0.48048243852944084,0.12080595159587414,0.301941605179655,0.5384808745776384,0.07253332771449301,0.01
320,Alnwick,-1.7062990000000002,55.41274,0.5243431534955817,0.01,0.27760278297526503,0.44093065742329024,0.01,0.01
321,Otley,-1.691786,53.90583,0.6413704009127428,0.330079648652446,0.16245122328236986,0.32642277580172935,0.0660612432271512,0.01
322,Bishop Auckland,-1.6787880000000002,54.663819999999994,0.3455797254194652,0.01,0.3127912388591,0.6824892588472816,0.01,0.01
323,Burton upon Trent,-1.6371358999999999,52.81403,0.5047095071497848,0.48829991030447917,0.3348863115995085,0.5107541154700045,0.01,0.01
324,Newcastle,-1.61778,54.97825,0.6352893511759506,0.01,0.2578754006814644,0.46631407626712795,0.01,0.01
325,Durham,-1.5848520000000001,54.77525,0.5063220442174527,0.01,0.2886998544747226,0.5539987252605617,0.01,0.01
326,Ashington,-1.5659829,55.18298000000001,0.5417504868825628,0.01,0.21113579774452385,0.4553217952580944,0.01,0.01
327,Darlington,-1.559458,54.52361,0.34622332353887075,0.4171415423946404,0.2712987799648654,0.7050179998754823,0.166971156625658,0.01
328,Leeds,-1.5490774,53.80076,0.7311733489602753,0.514667797373353,0.20514541732455985,0.3516494757131347,0.06866947919890884,0.01
329,Harrogate,-1.5418120000000002,53.99211999999999,0.7151346776759956,0.3549739975288179,0.14896510600828777,0.3219982130325582,0.07104353428715438,0.01
330,Leamington Spa,-1.5200789,52.28519,0.5074142932055259,0.12471645927276584,0.15662726046442044,0.5743986476298653,0.07488123936537895,0.01
331,Coventry,-1.519693,52.40682,0.4698918033390471,0.01,0.2568824184607403,0.6236032497844721,0.05511612136202176,0.01
332,Blyth,-1.510277,55.12696,0.551556918305769,0.01,0.2398065816550725,0.4449989410644698,0.01,0.01
333,Wakefield,-1.505924,53.6833,0.6677243596851076,0.5832151207749396,0.20636092243092494,0.35299808375094627,0.0778153962787985,0.01
334,Andover,-1.4919233,51.2112,0.494596346397505,0.01,0.22615656571712855,0.529166352418792,0.01,0.01
335,Witney,-1.4850543999999999,51.785940000000004,0.5863955813157947,0.01,0.19344501844654813,0.42599926811917005,0.01,0.01
336,Barnsley,-1.479726,53.55263000000001,0.36740169905351394,0.6071673375223133,0.5553318387454557,0.6432121603812427,0.01,0.01
337,Derby,-1.4746186000000001,52.92253,0.6242813261307368,0.4799469474002644,0.3048492605400833,0.4044364588226214,0.19211056387800712,0.01
338,Sheffield,-1.470085,53.381130000000006,0.48655199636151597,0.22598679889360596,0.37328215179530067,0.6087296001567142,0.09045677152360304,0.01
339,Nuneaton,-1.465382,52.52049,0.4641821926268263,0.01,0.2385827147051757,0.6082298127009444,0.01,0.01
340,Northallerton,-1.429959,54.337959999999995,0.3485136807586732,0.01,0.350613140307281,0.6345125861024539,0.18321301216270378,0.01
341,South Shields,-1.427406,54.99941999999999,0.5831942508005363,0.01,0.20076399808131104,0.4617406651229579,0.01,0.01
342,Chesterfield,-1.421629,53.23505,0.4679687728781618,0.23225618676880566,0.2335243573825993,0.5902310705748285,0.09296624813637978,0.01
343,Southampton,-1.4043508999999998,50.9097,0.526489701447522,0.38838326266069434,0.3369322093108361,0.5598773960469714,0.01,0.01
344,Wetherby,-1.384816,53.92706,0.6263774313596443,0.3219124407163917,0.10040731103763897,0.34755595725847527,0.064426680365376,0.01
345,Sunderland,-1.383801,54.90687,0.5789614973694703,0.01,0.24943486700197784,0.47463196067064145,0.01,0.01
346,Rotherham,-1.3635008999999998,53.4326,0.4195368420999196,0.2152164964450666,0.42151062400524664,0.6103726099085783,0.17229138642038205,0.01
347,Castleford,-1.345968,53.72346999999999,0.647780757351662,0.6085897383495358,0.1911305830698431,0.35110517777129313,0.08120100109536518,0.01
348,Thirsk,-1.341377,54.23385,0.4573347981976839,0.01,0.1404901745278241,0.5410061107148435,0.01,0.01
349,Banbury,-1.339775,52.0629,0.39641933579513505,0.23678437507833422,0.19922187789166118,0.6562139337831752,0.01,0.01
350,Stockton,-1.3289821000000002,54.57046,0.37889785560834316,0.4228605437544649,0.23663344928290544,0.6748469875871113,0.16926032750591094,0.01
351,Newbury,-1.3231138999999998,51.40141,0.5604082294503077,0.01,0.3053021976113688,0.46244565742364596,0.01,0.7757066199999757
352,Isle of Wight,-1.304734,50.69385,0.48140923187457474,0.4254192775448917,0.3253817932030213,0.5453023407057604,0.01,0.01
353,Isle of Wight,-1.304734,50.69385,0.48140923187457474,0.4254192775448917,0.3253817932030213,0.5453023407057604,0.01,0.01
354,Abingdon,-1.2879528999999998,51.67078,0.625117193235631,0.01,0.1071510029402691,0.4073063766510839,0.01,0.01
355,Shetland Islands,-1.2659409,60.52965,0.6957698408568801,0.01,0.3270400656143692,0.13403188874805233,0.01,0.01
356,Rugby,-1.265032,52.37088,0.43902774789626126,0.01,0.19630304609502594,0.6364746620163777,0.01,0.01
357,Oxford,-1.2577263,51.75202,0.6574649240073572,0.01,0.18582765559071654,0.43243331056969236,0.01,0.01
358,Middlesbrough,-1.234956,54.57423000000001,0.4027887052108881,0.4266155963100071,0.23963577186368512,0.6773313650913058,0.1707633795989481,0.01
359,Hartlepool,-1.212926,54.69174,0.3913461551619992,0.34268991901477136,0.1725336637047762,0.6689423765328768,0.13717006417863936,0.01
360,Loughborough,-1.206166,52.7721,0.4209476554703851,0.01,0.21187209736547719,0.6736900695512118,0.01,0.01
361,Mansfield,-1.198674,53.1472,0.5195163461379156,0.2784493213814902,0.1255359206307644,0.5295869057220839,0.22291236446595894,0.01
362,Nottingham,-1.1581086,52.95478000000001,0.6239956054153958,0.01,0.14997609012516702,0.4839720988553431,0.27911872907893787,0.01
363,Bicester,-1.1535898999999998,51.8996,0.5036835148573555,0.01,0.18393300588112002,0.5051820774031974,0.01,0.01
364,Leicester,-1.1397591999999999,52.636880000000005,0.3749252575064398,0.01,0.21718423530958458,0.7648756514235061,0.01,0.01
365,Doncaster,-1.128462,53.522819999999996,0.3039963244715472,0.01,0.7945695079775519,0.6779287483564543,0.2265105547082783,0.01
366,Worksop,-1.122745,53.3093,0.35040013996235864,0.6402486822259179,0.38033231713704435,0.6376260222122673,0.2562752738210338,0.01
367,Basingstoke,-1.0923964,51.26654,0.5176763888360102,0.01,0.20712361757374806,0.5243446217804446,0.01,0.7061735930786713
368,Portsmouth,-1.0879769,50.81977,0.4987881908882277,0.4253281610874205,0.3786343327445579,0.562600783164443,0.01,0.01
369,York,-1.0872979,53.95997,0.6478828021265333,0.01,0.1128563306413377,0.4451755660534492,0.01,0.01
370,Selby,-1.067189,53.783519999999996,0.5044272860616467,0.01,0.18419745331631854,0.5065183901630522,0.01,0.01
371,Helmsley,-1.0562636,54.24651,0.39258313469116257,0.01,0.2992455772229088,0.5033202709903319,0.13825536151977078,0.01
372,Towcester,-0.9896879999999999,52.13511,0.45320313692188435,0.01,0.06664974465701029,0.5987415106338809,0.01,0.01
373,Reading,-0.9781303,51.45426,0.6730691038263462,0.01,0.2101478175280992,0.3797752225543591,0.01,0.822801048738176
374,Retford,-0.9455030000000001,53.32136,0.3458134473480064,0.638186702195061,0.34876553040763364,0.6156375859964357,0.2554499156255524,0.01
375,Petersfield,-0.93899,51.00759,0.4149759662652473,0.385181761259343,0.2427393316761983,0.5876248968903559,0.01,0.01
376,Northampton,-0.9026559999999999,52.24048,0.5337454284458796,0.01,0.04551106758690543,0.5912882482926544,0.01,0.01
377,Melton Mowbray,-0.887126,52.7664,0.39597793715067137,0.3652138678867256,0.2077191995029898,0.6276018402298619,0.01,0.01
378,Aylesbury,-0.8084,51.81561,0.3806981950597368,0.01,0.1333733501301241,0.7323316613627645,0.01,0.01
379,Newark-on-Trent,-0.80657,53.070040000000006,0.5171750828561092,0.1262168653855051,0.15181727457716732,0.5374207347626411,0.10104281326316635,0.01
380,Malton,-0.7978970000000001,54.13684,0.5103881556433991,0.4047724426301531,0.21582551407448058,0.46136516715072745,0.01,0.01
381,Chichester,-0.774936,50.83761,0.3934280389856989,0.3874647833068785,0.317672252751462,0.6343356780391313,0.01,0.01
382,Gainsborough,-0.774465,53.400580000000005,0.3281732538494172,0.7709734081044293,0.30948911404121665,0.6314054148043351,0.4114680784842908,0.01
383,Milton Keynes,-0.7594171,52.040620000000004,0.5271592947272509,0.01,0.1384663114941996,0.5749183496203927,0.01,0.01
384,Aldershot,-0.7557509,51.24837,0.47573321713616906,0.01,0.14801401655783045,0.61471925027681,0.01,0.01
385,High Wycombe,-0.748229,51.628609999999995,0.4755888558469656,0.01,0.05344411130051372,0.6228288626779682,0.01,0.01
386,Midhurst,-0.737274,50.9869,0.46765136213635694,0.01,0.2601590361847531,0.5231960521849931,0.01,0.01
387,Kettering,-0.7302489999999999,52.39632,0.5755901759786844,0.01,0.09525701343293594,0.47605873576462654,0.01,0.01
388,Wellingborough,-0.693964,52.30242,0.5750298918626073,0.01,0.08612351627077598,0.46136125783525517,0.01,0.01
389,Corby,-0.6842333,52.4923,0.5190563717454548,0.01,0.10150444589570597,0.5366520441823535,0.01,0.01
390,Bognor Regis,-0.673061,50.783,0.40266642618733783,0.38457102501129775,0.35071618647810887,0.6074863222148227,0.01,0.01
391,Scunthorpe,-0.654413,53.58865,0.4208576033025672,0.01,0.3129459406649289,0.5997031243605999,0.1490238868295271,0.6010605998002803
392,Grantham,-0.643582,52.912519999999994,0.3721419065870783,0.6098018933710624,0.3000605185197602,0.636009166726252,0.2440881981309725,0.01
393,Whitby,-0.613347,54.48633,0.3760231370936333,1.0,0.4629212947560194,0.5586311543701095,0.20013728762384886,0.01
394,Slough,-0.5950406,51.51054,0.6475409235385162,0.01,0.2918042455174807,0.37933556146998837,0.01,0.01
395,Guildford,-0.570409,51.23622,0.5411027500391705,0.01,0.13349751141106586,0.5357301529332182,0.01,0.01
396,Woking,-0.5600349,51.31677,0.5603415750344336,0.01,0.14697399334748423,0.539227901791774,0.01,0.01
397,Lincoln,-0.540579,53.23069,0.4263190886339833,0.9485400621086965,0.19594951332646257,0.6588149038171007,0.01,0.01
398,Bedford,-0.46677820000000003,52.13864,0.5099818717555569,0.01,0.16980805853060343,0.5690701345114967,0.01,0.01
399,Heathrow,-0.4542955,51.47002,0.73907248013732,0.11938206894754215,0.302801672719856,0.29845420680149953,0.01,0.01
400,Driffield,-0.443377,54.006,0.4701126603505034,0.29184260926544303,0.08155076498105807,0.5198591893872813,0.01,0.4711607305096019
401,Beverley,-0.435093,53.84196,0.45983652401445985,0.37990020170262156,0.1605942070675189,0.5788824758046659,0.15206439453732645,0.6133239317091964
402,Luton,-0.4200255,51.87867,0.4365989776721271,0.574320509187613,0.16189957345991363,0.6583338094196485,0.01,0.01
403,Scarborough,-0.399752,54.28311,0.5083197324915371,0.2911212040283446,0.10848234699472695,0.5362352280178,0.01,0.4699960691211903
404,Worthing,-0.372882,50.81787,0.5287199623657048,0.13389372368996302,0.2763751412615431,0.5216441960243371,0.01,0.01
405,Dorking,-0.332378,51.2322,0.531065788357979,0.01,0.2534443824509939,0.5164561222213703,0.01,0.01
406,Hull,-0.3274198,53.767619999999994,0.4852961622171613,0.390846266574278,0.16814479935842777,0.6063760136381293,0.1564458260812288,0.630995634734728
407,Horsham,-0.325858,51.06288,0.5013153492082293,0.01,0.2632231236291621,0.5149145595425363,0.01,0.01
408,Biggleswade,-0.26421999999999995,52.086940000000006,0.48180938263901346,0.6708456292396188,0.37180568315912943,0.4733645657897617,0.01,0.01
409,Peterborough,-0.2405299,52.5695,0.39191890029941034,0.01,0.15339078507546514,0.7253212550505429,0.01,0.01
410,Welwyn Garden City,-0.208661,51.80317,0.48813883116797235,0.8214478246658149,0.19356376207257125,0.6206055842100777,0.01,0.01
411,Bridlington,-0.198802,54.08535,0.46468864608391197,0.2678494519318353,0.15468710915043732,0.5377496939736444,0.01,0.4324253533657785
412,Stevenage,-0.19661199999999998,51.90376,0.4595002130792955,0.6047060038343907,0.133172485416676,0.6146460809704367,0.01,0.01
413,Crawley,-0.18722750000000002,51.109140000000004,0.5237329849806044,0.01,0.2139976582441882,0.5263213732469261,0.01,0.01
414,Huntingdon,-0.182552,52.33146,0.4797107005621434,0.01,0.23638457167874757,0.5243935298503709,0.01,0.01
415,Hove,-0.168749,50.82793,0.5233147968861939,0.1390622468168959,0.23863738477259439,0.5029909979819529,0.01,0.01
416,Spalding,-0.1537024,52.7901,0.3031600820458379,0.01,0.15099807066691745,0.7691727721684123,0.01,0.01
417,Brighton,-0.137163,50.82253,0.6002052365864832,0.14048618511385233,0.22890514766295678,0.4978324672416436,0.01,0.01
418,London,-0.12775830000000002,51.50735,0.8382858426768299,0.14418808421155982,0.20216209908646332,0.3276000840989403,0.03148081168612854,0.0317430169226988
419,Grimsby,-0.08078400000000001,53.56746999999999,0.4535166590696666,0.15914643052260416,0.2079168803087947,0.5942767780109683,0.127404541991479,0.5138629253059146
420,Boston,-0.026576999999999996,52.97894,0.3840329980262687,0.24589418749464678,0.08357652563270787,0.7183841586763253,0.01,0.01
421,Royston,-0.024066,52.048140000000004,0.4782275521177667,0.393476713261161,0.2501517487162077,0.4914780911487879,0.01,0.01
422,Louth_Lincs,-0.007711,53.36596,0.3768870072641917,0.1485877515448648,0.1454607872875684,0.6428097435026259,0.11895180035739708,0.47977033743542147
423,Lewes,0.00878,50.873870000000004,0.5174321282521795,0.1517776266254365,0.15552064005701208,0.5171464260507176,0.01,0.01
424,Chatteris,0.054012,52.4561,0.44505191856743587,0.01,0.25033045873531945,0.5044864894342737,0.01,0.01
425,Uckfield,0.095913,50.966409999999996,0.573349841872888,0.1515015928594737,0.11230083310335479,0.46565306556441477,0.01,0.01
426,Cambridge,0.12181700000000001,52.20534,0.6109113796708554,0.01,0.2820197845025744,0.46867275959319626,0.01,0.01
427,Bishop's Stortford,0.15365020000000001,51.87216,0.3640303838911852,0.9739158098236256,0.0817590433039709,0.7211855574958126,0.01,0.01
428,Wisbech,0.158797,52.66631999999999,0.3083750835201973,0.01,0.21763247188651247,0.7110413954800169,0.01,0.01
429,Sevenoaks,0.190898,51.27241,0.30046598202732955,0.9211847856347902,0.4762061109352193,0.7398102536409129,0.01,0.01
430,Tunbridge Wells,0.26369499999999996,51.13238,0.45367415303752173,0.241485936474691,0.049972511770538415,0.6348767013492899,0.19332136468855032,0.01
431,Eastbourne,0.29047199999999995,50.768029999999996,0.5507648641574001,0.1436989932637199,0.15085354496719547,0.49502416911294406,0.01,0.01
432,Brentwood,0.30717490000000003,51.620470000000005,0.4910395817854722,0.01,0.2371363204218354,0.637003333766156,0.01,0.01
433,Skegness,0.337881,53.1464,0.32893042261252525,0.22856303315523235,0.09203416707926584,0.7171132940372581,0.01,0.01
434,Downham Market,0.385472,52.606609999999996,0.3011110304217425,0.01,0.16929377620266997,0.7051151727531827,0.01,0.01
435,King's Lynn,0.4022963,52.75168000000001,0.33552719180554363,0.01,0.15828864060403966,0.7363063826178385,0.01,0.01
436,Bexhill,0.4662071,50.849909999999994,0.5108078676791509,0.14076314203384954,0.14569861074751916,0.49376947035187246,0.01,0.01
437,Chelmsford,0.4685497,51.73559,0.3680828615923861,0.01,0.21023701138501769,0.7097346004488445,0.01,0.01
438,Mildenhall,0.5156095,52.347570000000005,0.5008972961147233,0.01,0.27971545425706607,0.49479845346294393,0.01,0.5032468982190113
439,Medway,0.5417860999999999,51.404740000000004,0.37668725301187034,0.01,0.1373546301876977,0.7038820322431864,0.09834642070495611,0.01
440,Braintree,0.5509269,51.88009,0.440198448872144,0.01,0.16072768211513022,0.5925483454307972,0.01,1.0
441,Gillingham,0.551438,51.38632,0.3797507205148002,0.01,0.1575131544958286,0.7591873506731428,0.1612723887354078,0.01
442,Hastings,0.573453,50.85426,0.4818025445612165,0.01,0.10761261113621229,0.5709161995229048,0.20531158134888705,0.01
443,Maldon,0.6714479999999999,51.731809999999996,0.3725289710540026,0.01,0.22069118472054433,0.6794209632431403,0.01,0.01
444,Southend,0.7077123000000001,51.54593,0.3743820332619605,0.01,0.1912380266375352,0.7296712827708234,0.01,0.01
445,Bury St Edmunds,0.7104931999999999,52.24292,0.4749386345581849,0.01,0.25047130587973787,0.5869048540893237,0.01,0.7106219664774077
446,Thetford,0.751657,52.412859999999995,0.38413306214987153,0.01,0.21401460119493937,0.6302676217263137,0.01,0.01
447,Ashford,0.8750190000000001,51.14647,0.41178455037659495,0.01,0.17276881671583263,0.637797513831402,0.15912903031840453,0.01
448,Faversham,0.889358,51.31599,0.363269212515826,0.01,0.18301162898797696,0.6875225130585266,0.1370414748132016,0.01
449,Colchester,0.891874,51.89593,0.4301022812160342,0.01,0.24144899704107733,0.644087602179971,0.01,0.6924041138292804
450,New Romney,0.939473,50.98512,0.4201097241806161,0.01,0.18517174254407767,0.5566369548097562,0.146367005816165,0.01
451,Canterbury,1.0789089,51.280229999999996,0.4606220575019041,0.01,0.3443280560406948,0.5855638091946971,0.01,0.01
452,Ipswich,1.14822,52.056740000000005,0.4558480062999917,0.01,0.227911407478754,0.6188538163606778,0.01,0.7537449038336399
453,Clacton,1.153035,51.78953,0.4309928618547223,0.01,0.18167369138368183,0.5761236211902108,0.01,0.7111463650343071
454,Folkestone,1.169456,51.0814,0.4644987633376365,0.01,0.39147063358196427,0.5284047051835973,0.01,0.01
455,Sheringham,1.2109589,52.944419999999994,0.37986148713953155,0.01,0.10272979538234318,0.611266503780196,0.01,0.01
456,Harwich,1.260297,51.93473,0.38885103035896446,0.01,0.22703618576627937,0.5835458505039168,0.01,0.751742015418008
457,Norwich,1.297355,52.63089,0.48506255448511837,0.01,0.13743423213869232,0.645258111370548,0.01,0.01
458,Cromer,1.301866,52.93145,0.38663853547962845,0.01,0.14449824235567232,0.6372669293559154,0.01,0.01
459,Cromer,1.301866,52.93145,0.38663853547962845,0.01,0.14449824235567232,0.6372669293559154,0.01,0.01
460,Dover,1.3134027,51.12788,0.4405285170208326,0.01,0.34269894293399455,0.5530006871563385,0.01,0.01
461,Felixstowe,1.3512549999999999,51.961729999999996,0.4219215625566472,0.01,0.2381403249287382,0.5769589179917801,0.01,0.7771530254350987
462,Margate,1.3868339,51.38965,0.3970185340519035,0.01,0.32365737926883686,0.6256168586748669,0.01,0.01
463,Ramsgate,1.4198950000000001,51.33555,0.3957347575678351,0.01,0.3234205394658228,0.625214122022826,0.01,0.01
464,Great Yarmouth,1.728047,52.59823000000001,0.4248504360936995,0.01,0.1363778454843102,0.6333368211175271,0.01,0.01
465,Lowestoft,1.7534490000000003,52.48114,0.42950364485497483,0.01,0.16898842272053957,0.6279245667986428,0.01,0.01
466,Swaffham,0.687481,52.64747,0.4072349169749259,0.01,0.185592099514756,0.5706274655375237,0.01,0.01
467,Dereham,0.9378270000000001,52.681619999999995,0.46722619927819736,0.01,0.12267727931408316,0.627202919896427,0.01,0.01
468,Ely,0.262363,52.39954,0.5061455662890455,0.01,0.3016401033683006,0.4773328792851795,0.01,0.01
469,March,0.088622,52.551719999999996,0.308432528337766,0.01,0.2766184843951555,0.6888248607129507,0.01,0.01
470,St Neots,-0.26510300000000003,52.23008,0.5417816378011697,0.01,0.2213346242177818,0.4390604115583816,0.01,0.01
471,Banham,1.0402849,52.45125,0.43363690309141634,0.01,0.15533285295550994,0.5935280149895124,0.01,0.01
472,Holt,1.086747,52.90936,0.4083276726262132,0.01,0.10617545550846641,0.6191097676479327,0.01,0.01
473,Hunstanton,0.49103199999999997,52.93891,0.2101565185062354,0.01,0.1633476448199783,0.7875137839146034,0.01,0.01
474,Horncastle,-0.11245,53.20731,0.28952629111671596,0.23336454262285228,0.2058547478512741,0.7118993432201892,0.01,0.01
475,Market Weighton,-0.6677465,53.86484,0.4283332365457323,0.01,0.08467810620307599,0.5577838310486288,0.11881337314778366,0.4792120165956617
476,Hawes,-2.1968695,54.303830000000005,0.25604216898345517,0.01,0.3467033301902232,0.5423834936534468,0.01,0.01
477,Reeth,-1.9428115000000001,54.38946,0.2649112165934008,0.01,0.2851800492083926,0.7490713209713724,0.01,0.01
478,Aysgarth,-1.9967433999999997,54.29159,0.3614422201564798,0.01,0.34884832396808085,0.5335297450787446,0.01,0.01
479,Stanhope,-2.011302,54.74946,0.47075503904576554,0.01,0.16691290096268654,0.5730002392813508,0.01,0.01
480,Keswick,-3.134706,54.60128,0.38805520781155944,0.01,0.3118555445995888,0.5717739161395158,0.01,0.01
481,Oxenholme,-2.7243327999999996,54.30134,0.3631293829521596,0.5043932219145539,0.2543771341332802,0.5695636353721505,0.01,0.01
