,placename,dont_have,dont_have_negc,havent,havent_got,havent_got_negc,havent_negc,longitude,latitude
0,Dingle,0.7933241929421777,0.01,0.5958412104295483,0.10605348713807058,0.01,0.01,-10.264013499999999,52.14094
1,Tralee,0.7933241929421777,0.01,0.5958412104295483,0.10605348713807058,0.01,0.01,-9.6999325,52.27131
2,Killarney,0.7998329070896779,0.01,0.5637414215695001,0.10566996558352415,0.01,0.01,-9.5044265,52.059940000000005
3,Bantry,0.8051704761836556,0.01,0.5649034908562668,0.09926226010482779,0.01,0.01,-9.4539805,51.68035
4,Mayo,0.7530942237730923,0.01,0.7043207619398824,0.12836041970009826,0.01,0.01,-9.4289369,54.01526
5,Ballycastle,0.7354392354456196,0.01,0.5997954312636938,0.17187470567169497,0.01,0.01,-9.3724643,54.279669999999996
6,Abbeyfeale,0.7981000109921355,0.01,0.5984954959335183,0.09996235109297544,0.01,0.01,-9.2970823,52.386179999999996
7,Ennistymon,0.7915828892624904,0.01,0.5725827654303307,0.11321592887833345,0.01,0.01,-9.2934951,52.940369999999994
8,Galway,0.7675400068568503,0.01,0.5970227182133959,0.13550133342719548,0.01,0.01,-9.0567905,53.270669999999996
9,Claremorris,0.8051346661115585,0.01,0.6389633392858403,0.082885469929438,0.01,0.01,-9.0017356,53.72388
10,Clare,0.7921938402316511,0.01,0.571262226264365,0.11280467206682525,0.01,0.01,-8.9811351,52.90453
11,Adare,0.7984889395142973,0.01,0.6011035239648345,0.0989359671852801,0.01,0.01,-8.7925892,52.56363
12,Charleville,0.8106727716092764,0.01,0.529161662454075,0.10084550195307516,0.01,0.01,-8.681017599999999,52.36206
13,Mallow,0.8212108973474709,0.01,0.4854364708157428,0.09839611637512895,0.01,0.01,-8.6539164,52.13898
14,Limerick,0.8045296315890924,0.01,0.5622648403133129,0.10058544355403386,0.01,0.01,-8.6267343,52.66384
15,Loughrea,0.7888476225381749,0.01,0.5292012839701898,0.12598469580720056,0.01,0.01,-8.5660931,53.19891
16,Sligo,0.7439807161204801,0.01,0.584272375134443,0.1654741403173652,0.01,0.01,-8.476088800000001,54.27661
17,Cork,0.8235992734603466,0.01,0.45292324567806624,0.10285187690009383,0.01,0.01,-8.4756035,51.898509999999995
18,Nenagh,0.8035995038903754,0.01,0.5375543670971018,0.10713519803960171,0.01,0.01,-8.19834,52.8635
19,Roscommon,0.7927966950105982,0.01,0.4572527703176318,0.13738410169862122,0.01,0.01,-8.1890955,53.627590000000005
20,Tipperary,0.8295649200797038,0.01,0.46246306442775753,0.09386317792296509,0.01,0.01,-8.161851400000002,52.47379
21,Donegal,0.6341191516313671,0.01,0.74102732894074,0.2573117833615942,0.01,0.01,-8.1096143,54.653830000000006
22,Leitrim,0.6610860042716744,0.01,0.707381831579682,0.23369802864036637,0.01,0.01,-8.0020132,54.12469
23,Athlone,0.7654904251652017,0.01,0.49293945553951196,0.16093671686245853,0.01,0.01,-7.9406898,53.423930000000006
24,Longford,0.784963942371318,0.01,0.47844328940675385,0.14171184230529427,0.01,0.01,-7.7932573000000005,53.727630000000005
25,Offaly,0.783860369366881,0.01,0.4549520518151025,0.1481909849076787,0.01,0.01,-7.7122229,53.235690000000005
26,Fermanagh,0.6353083574169045,0.01,0.8739071955327647,0.22648413494863756,0.01,0.01,-7.6318728,54.343830000000004
27,Enniskillen,0.6353083574169045,0.01,0.8739071955327647,0.22648413494863756,0.01,0.01,-7.631533599999999,54.343819999999994
28,Doon,0.6672089038163262,0.01,0.8074488029478926,0.20445947051923377,0.01,0.01,-7.60964,54.185930000000006
29,Westmeath,0.7831018186222964,0.27877713203968024,0.3826832318700974,0.15937701230860563,0.01,0.01,-7.4653217000000005,53.534530000000004
30,Strabane,0.6365041024329989,0.01,0.7102501833304383,0.26138631865341705,0.01,0.01,-7.4633103,54.82739
31,Balivanich,0.907485768610261,0.01,0.41510594903468845,0.014577442954981012,0.01,0.01,-7.3743509000000005,57.472269999999995
32,Cavan,0.6475775109010532,0.01,0.7733511865381626,0.23463862341559652,0.01,0.01,-7.3633319,53.98972
33,Mullingar,0.8033575523597751,0.24340500504678841,0.35166851901570567,0.14363712840272222,0.01,0.01,-7.340186800000001,53.525819999999996
34,Laois,0.8027272950908749,0.01,0.37899129317183383,0.1432908503109524,0.01,0.01,-7.332300699999999,52.9943
35,Omagh,0.5834946084044061,0.01,0.9007525854495939,0.28023520646064287,0.01,0.01,-7.309959700000001,54.59771
36,Derry,0.6007553745468861,0.01,0.669890069067683,0.3115250971962884,0.01,0.01,-7.308574799999999,54.99661
37,Derry,0.6007553745468861,0.01,0.669890069067683,0.3115250971962884,0.01,0.01,-7.308574799999999,54.99661
38,Kilkenny,0.786767835829192,0.01,0.4212373624681822,0.1523148911096948,0.01,0.01,-7.2447879,52.65415
39,Tyrone,0.5445774676175744,0.01,1.0,0.3030759261091134,0.01,0.01,-7.131232000000001,54.491209999999995
40,Waterford,0.7889018047342161,0.01,0.5157812272091309,0.12889736422847206,0.01,0.01,-7.110070200000001,52.25932
41,Western Isles,0.9036715288440791,0.01,0.4090769073697509,0.02030877414003391,0.01,0.01,-7.0194034,57.759890000000006
42,Monaghan,0.5913700217382705,0.01,0.9564920631046449,0.25880435639439214,0.01,0.01,-6.9683132,54.2492
43,Carlow,0.791500681792634,0.287310513721169,0.30892813569825445,0.16587506368255395,0.01,0.01,-6.934135899999999,52.83651
44,Kildare,0.8042023586693229,0.24913498332042955,0.31622611792075345,0.15040327530062703,0.01,0.01,-6.8194707999999995,53.21204
45,Dungannon,0.5382241380437801,0.01,0.827090651633452,0.34872765674788575,0.01,0.01,-6.7669352,54.508269999999996
46,Cookstown,0.5416298315961298,0.01,0.6939917337346069,0.37430910775247794,0.01,0.01,-6.7443895000000005,54.641819999999996
47,Coleraine,0.5849581504813969,0.01,0.5295052755207074,0.36084828696037835,0.01,0.01,-6.6646103000000005,55.132580000000004
48,Meath,0.7989417033823704,0.23818425227154538,0.3566914687430585,0.14771866029882386,0.01,0.01,-6.656416900000001,53.60555
49,Armagh,0.5314703584463661,0.01,0.7284788646079059,0.3783702239160941,0.01,0.01,-6.652792,54.350280000000005
50,Armagh,0.5314703584463661,0.01,0.7284788646079059,0.3783702239160941,0.01,0.01,-6.652792,54.350280000000005
51,Magherafelt,0.6932705401124192,0.6695859937477607,0.5205119035140984,0.22432713566950307,0.01,0.01,-6.607980499999999,54.75536999999999
52,Dunvegan,0.9044447150094337,0.01,0.40709858305818925,0.019856542343467027,0.01,0.01,-6.581398200000001,57.4366
53,Louth,0.7997818388129494,0.2664900695158333,0.3697015690573568,0.1432870111486045,0.01,0.01,-6.4889423,53.925230000000006
54,Wexford,0.7570464101648297,0.01,0.5045109775877528,0.16810088084377467,0.01,0.01,-6.4633381,52.33692
55,Craigavon,0.7087965418057682,0.5719532002423973,0.5183805313853876,0.20890909556044646,0.01,0.01,-6.4175653,54.442930000000004
56,Stornoway,0.8671598907263438,0.01,0.3482516649938661,0.07586331907497143,0.01,0.01,-6.384869200000001,58.209430000000005
57,Drogheda,0.7883534435432417,0.2488283512172275,0.3616883763873115,0.1585931773492435,0.01,0.01,-6.3560985,53.717859999999995
58,Rosslare,0.7550995878105008,0.01,0.478112543621703,0.1761962749145939,0.01,0.01,-6.3414908,52.25131
59,Newry,0.7417698334084312,0.5707111834129711,0.5873362448241967,0.15565492647232682,0.01,0.01,-6.34023,54.1751
60,Scilly Isles,0.38166904206811614,0.01,0.23254291861539894,0.6566082407153357,0.08410091891589909,0.01,-6.327496599999999,49.92773
61,Ballymena,0.7280408745504675,0.5788821641789331,0.45454738794831306,0.20074373544683882,0.01,0.01,-6.2802213,54.86529
62,Banbridge,0.7522154757430363,0.6147660747118817,0.5077310512203265,0.16036403583222975,0.01,0.01,-6.2704803,54.34873
63,Dublin,0.8085649596264795,0.24427223373156026,0.29309692840670426,0.15060355758311167,0.01,0.01,-6.2603097000000005,53.34981
64,Antrim,0.7268547826842423,0.6205726015061154,0.5325614733972918,0.18396250566410996,0.01,0.01,-6.2072498,54.719530000000006
65,Antrim,0.7268547826842423,0.6205726015061154,0.5325614733972918,0.18396250566410996,0.01,0.01,-6.2072498,54.719530000000006
66,Portree,0.8955164855559302,0.01,0.3993372815872016,0.031864545167081246,0.01,0.01,-6.1960231,57.41246999999999
67,Islay,0.8693243760406331,0.01,0.15640769905619864,0.11589770935840314,0.01,0.01,-6.177067,55.73625
68,Wicklow,0.8097379730315907,0.24819388680255675,0.29937627511523424,0.1477796922161486,0.01,0.01,-6.044589,52.980819999999994
69,Kilkeel,0.7399519273136499,0.5430010394584759,0.5540590106805235,0.16569419249194037,0.01,0.01,-6.007004,54.06312
70,Mull,0.8557358549436737,0.01,0.18927923347645204,0.12426815967743574,0.01,0.01,-6.0008870000000005,56.4392
71,Belfast,0.7784661269414125,0.6133313812788951,0.4307735557196669,0.1472065447456345,0.01,0.01,-5.93012,54.597280000000005
72,Broadford,0.8955164855559302,0.01,0.3993372815872016,0.031864545167081246,0.01,0.01,-5.9096592,57.24139
73,Down,0.7715301830642024,0.6027809662287515,0.4959214278144207,0.14097210389289982,0.01,0.01,-5.7156921999999994,54.32875
74,Kyle of Lochalsh,0.8939190449484914,0.01,0.4031878843877825,0.0328515328106834,0.01,0.01,-5.7143293,57.28261
75,Campbeltown,0.8580389096673812,0.01,0.1354081822185757,0.13355663623789646,0.01,0.01,-5.605373999999999,55.424119999999995
76,Penzance,0.38166904206811614,0.01,0.23254291861539894,0.6566082407153357,0.08410091891589909,0.01,-5.537592,50.1188
77,Oban,0.8879565122484466,0.01,0.13898955940679858,0.0982901626703319,0.01,0.01,-5.471047,56.41516
78,Lochgilphead,0.8898964839802869,0.01,0.10579928866430367,0.10341250224294989,0.01,0.01,-5.4323449,56.03829
79,Helston,0.3787964515021082,0.01,0.23214623408171603,0.6600111737564335,0.083999999916,0.01,-5.274996,50.10159
80,Redruth,0.38166904206811614,0.01,0.23254291861539894,0.6566082407153357,0.08410091891589909,0.01,-5.226666000000001,50.23302
81,Ullapool,0.8680193324566617,0.01,0.46519026452735507,0.04894942757551194,0.01,0.01,-5.161313,57.895419999999994
82,Ballachulish,0.8504941945645296,0.01,0.17072585970111784,0.13442048364619094,0.01,0.01,-5.133719999999999,56.673930000000006
83,Fort William,0.9040324320924261,0.01,0.15376872480804768,0.07649039421846549,0.01,0.01,-5.1052179,56.81981999999999
84,Achnasheen,0.8761183251971817,0.01,0.41339707692912264,0.05109917909021398,0.01,0.01,-5.078765799999999,57.578590000000005
85,Newquay,0.389151478784712,0.01,0.23254291861539894,0.6479867020027475,0.08410091891589909,0.01,-5.0737190000000005,50.4155
86,Falmouth,0.3862698578526974,0.01,0.23214623408171603,0.6513999684901647,0.083999999916,0.01,-5.066269999999999,50.152570000000004
87,Rothesay,0.8937110351383999,0.01,0.09952023329045101,0.10040941616638256,0.01,0.01,-5.055793,55.83596
88,Truro,0.389151478784712,0.01,0.23254291861539894,0.6479867020027475,0.08410091891589909,0.01,-5.051041000000001,50.2632
89,Milford Haven,0.2845711214500153,0.5694745454793614,0.3491219949718225,0.7352939181963486,0.01,0.01,-5.0426971,51.71431
90,Stranraer,0.824057642383182,0.5615651682750762,0.33426554495478583,0.11712803531082126,0.01,0.01,-5.024055000000001,54.903369999999995
91,Fishguard,0.3364434121455935,0.4771901965821725,0.2766597449863406,0.6934777977832821,0.01,0.01,-4.975989,51.99393
92,Inchnadamph,0.8711877453573801,0.01,0.4115028835982655,0.05720021802136534,0.01,0.01,-4.974295,58.15221
93,Haverfordwest,0.2867443257383805,0.5750820531283878,0.35352506543215,0.731698991157835,0.01,0.01,-4.971319,51.800470000000004
94,Dunoon,0.893808500812889,0.01,0.11029697815371894,0.09790789691655344,0.01,0.01,-4.926214,55.95097
95,Pembroke,0.2845711214500153,0.5694745454793614,0.3491219949718225,0.7352939181963486,0.01,0.01,-4.908637000000001,51.674040000000005
96,Girvan,0.8713375248763231,0.01,0.1857344835312715,0.1070767494838569,0.01,0.01,-4.8542179,55.240159999999996
97,Wadebridge,0.39184470759830586,0.01,0.23656290016031822,0.6439397584477987,0.08512363291487637,0.01,-4.836456,50.51665
98,Invergarry,0.8810102924375046,0.01,0.40513563474348596,0.04729381572300596,0.01,0.01,-4.800261,57.07095
99,St Austell,0.390006561027992,0.01,0.2515685459026594,0.6427887632238961,0.083999999916,0.01,-4.7834252,50.340379999999996
100,Greenock,0.8951228861547988,0.01,0.06181008306728542,0.10714233816396833,0.01,0.01,-4.7719830000000005,55.956480000000006
101,Helensburgh,0.8933641445269604,0.01,0.06203589981272358,0.1091185380125331,0.01,0.01,-4.734014,56.00232
102,Bodmin,0.3718430696767473,0.01,0.26238096307863845,0.6611874643958058,0.08659793791340206,0.01,-4.7188629,50.4715
103,Tenby,0.27175204981523576,0.5713315260360197,0.3505801088465199,0.7497034426486374,0.01,0.01,-4.703579,51.672740000000005
104,Camelford,0.4273461902909864,0.01,0.23886740601365272,0.6022178948523758,0.09106677990893323,0.01,-4.682364,50.62206
105,Irvine,0.8879216363521435,0.01,0.14214392088437813,0.09763111842728678,0.01,0.01,-4.6696364,55.61156999999999
106,Cardigan,0.4049561762565521,0.01,0.2553568840085943,0.6290290259689911,0.01,0.01,-4.660864,52.0837
107,Holyhead,0.4080570171081841,0.01,0.6130348281542984,0.546164904652609,0.01,0.01,-4.633038,53.30944
108,Ayr,0.8772614449768908,0.01,0.15211119234672868,0.10770486514798734,0.01,0.01,-4.629179,55.45856
109,Dumbarton,0.9141486217637429,0.01,0.040242463608899895,0.0900011600011094,0.01,0.01,-4.564554,55.94529
110,Bude,0.4046721868152299,0.4574630173317309,0.2611698200840041,0.6140154254672736,0.0913838099086162,0.01,-4.543678,50.826640000000005
111,Isle of Man,0.7267096740442683,0.5389183173671528,0.3832101268192798,0.21891057991695426,0.01,0.01,-4.5126330999999995,54.27697
112,Kilmarnock,0.9002555593579972,0.01,0.045942556052630056,0.10474569621827796,0.01,0.01,-4.498792,55.61472
113,Newton Stewart,0.8333181270273566,0.01,0.11669674319553872,0.1661890138745533,0.01,0.01,-4.483164,54.9603
114,Liskeard,0.4036545579838247,0.01,0.30744317047746456,0.6144877500761284,0.08768267191231734,0.01,-4.4647190000000005,50.45552
115,Altnaharra,0.870759892843809,0.01,0.41244823225563026,0.05748374195475723,0.01,0.01,-4.442655,58.28023
116,Pwllheli,0.46292334122296735,0.01,0.39137003886987265,0.5320845435216234,0.01,0.01,-4.417633900000001,52.888819999999996
117,Lairg,0.8698992055457658,0.01,0.4143494661745225,0.058053983143493935,0.01,0.01,-4.402414,58.022059999999996
118,Launceston,0.4275096710549056,0.4641280299149305,0.30927810957200796,0.5768313082469548,0.09271523090728476,0.01,-4.360451599999999,50.636829999999996
119,Carmarthen,0.25375546453915376,0.5732006485301396,0.40499844848099076,0.7583380775692348,0.01,0.01,-4.312131,51.857620000000004
120,Llangefni,0.3936987351571146,0.01,0.6078661139767294,0.5638549395111269,0.01,0.01,-4.311401999999999,53.255790000000005
121,Caernarfon,0.3996902273067686,0.01,0.6424690180137411,0.5492802593178354,0.01,0.01,-4.273911,53.13955
122,Cumnock,0.9003458630180666,0.01,0.07246628011518468,0.09876176967874786,0.01,0.01,-4.265828900000001,55.45355
123,Aberaeron,0.35957703011191133,0.01,0.20308804399386696,0.692903968592351,0.01,0.01,-4.2581619,52.24279
124,Alness,0.8840507232544693,0.01,0.42209815932808636,0.040030156440842485,0.01,0.01,-4.256825,57.69595
125,Glasgow,0.9201341974667024,0.01,0.04316035844005946,0.08245724186755084,0.01,0.01,-4.251806,55.86424
126,Dalwhinnie,0.8699281649953747,0.01,0.1912764459862595,0.10747236260579807,0.01,0.01,-4.242783,56.9366
127,Inverness,0.8773701207609055,0.01,0.47039565450374593,0.03702125780072043,0.01,0.01,-4.224721,57.47776999999999
128,Saltash,0.46708789691183306,0.01,0.275472928437262,0.5474583076836027,0.1076923048923077,0.01,-4.21643,50.409209999999995
129,Bideford,0.43630960703272453,0.46711841565552326,0.30471056450107675,0.5723952099740147,0.01,0.01,-4.206666,51.01668
130,Invergordon,0.8899372763232835,0.01,0.42209815932808636,0.033247540612865945,0.01,0.01,-4.1728819999999995,57.688109999999995
131,Llanelli,0.1632621667833867,0.59560905841798,0.4430039473259134,0.8537246853438686,0.01,0.01,-4.160248,51.680890000000005
132,Plymouth,0.4805266384898488,0.01,0.28190260383928606,0.5304534018440824,0.10954616389045384,0.01,-4.1426565,50.37546
133,Tavistock,0.4550722164597418,0.01,0.3078484331988684,0.5557342859048598,0.07632200792367799,0.01,-4.141654,50.551120000000004
134,Porthmadog,0.4179813893498358,0.01,0.4541293226863672,0.5699561578423878,0.01,0.01,-4.1333839999999995,52.92784
135,Bangor,0.36612466825082113,0.01,0.6064031121535569,0.5959513772600243,0.01,0.01,-4.129263,53.22739
136,Tywyn,0.4276625644931618,0.01,0.3278948162691383,0.5867850362942568,0.01,0.01,-4.087249,52.58701
137,Aberystwyth,0.4392261038610422,0.01,0.24004023849822026,0.5929370966166108,0.01,0.01,-4.08292,52.4153
138,Lampeter,0.36897016771880825,0.01,0.24057069420456992,0.6737717003718211,0.01,0.01,-4.0785089999999995,52.1129
139,Barnstaple,0.4767612872568771,0.43199094957852846,0.21456493082776015,0.5464880401302258,0.01,0.01,-4.058338,51.07816
140,Tain,0.847650874840062,0.01,0.41244823225563026,0.08411084443882802,0.01,0.01,-4.05523,57.8115
141,Okehampton,0.45465681962342136,0.3244098094169608,0.3065360028480878,0.5504508091536968,0.06480481693519519,0.01,-4.004263,50.73831
142,Llandeilo,0.17903883898141232,0.6090672134381427,0.4364743603148305,0.8367179855032512,0.01,0.01,-3.9914300000000003,51.88469
143,Motherwell,0.9274020851426503,0.01,0.04462166081094754,0.07375891990800505,0.01,0.01,-3.9810968,55.78321
144,Golspie,0.847650874840062,0.01,0.41244823225563026,0.08411084443882802,0.01,0.01,-3.976086,57.97341
145,Airdrie,1.0,0.01,0.01,0.01,0.01,0.01,-3.9625660000000003,55.86626999999999
146,Swansea,0.2070345305626509,0.5630690865203452,0.36143065849470735,0.822037818045448,0.01,0.01,-3.9436459999999998,51.62144
147,Stirling,0.9370907336923268,0.01,0.17600307986072647,0.03347006850895509,0.01,0.01,-3.9369029,56.116519999999994
148,Tregaron,0.3779634780859485,0.01,0.15420475570842787,0.6825550221033494,0.01,0.01,-3.934385,52.22
149,Tregaron,0.3779634780859485,0.01,0.15420475570842787,0.6825550221033494,0.01,0.01,-3.934385,52.22
150,Castle Douglas,0.637180757099658,0.01,0.2541850226396178,0.36170876164661026,0.01,0.01,-3.9314139999999997,54.940419999999996
151,Dolgellau,0.3771806387707242,0.01,0.3867788633195593,0.6318991048042166,0.01,0.01,-3.8844,52.74215
152,Aberfeldy,0.9098946965906011,0.01,0.06825385583063952,0.08869308204114126,0.01,0.01,-3.866969,56.62175
153,Machynlleth,0.3523546056579294,0.01,0.24633416812587577,0.6916390184187581,0.01,0.01,-3.853485,52.59027
154,Brora,0.847650874840062,0.01,0.41244823225563026,0.08411084443882802,0.01,0.01,-3.8525480000000005,58.012159999999994
155,Llandudno,0.3644742910150659,0.01,0.45418538842649037,0.6315968873793925,0.01,0.01,-3.827609,53.324059999999996
156,Llandudno,0.3644742910150659,0.01,0.45418538842649037,0.6315968873793925,0.01,0.01,-3.827609,53.324059999999996
157,Aviemore,0.8840507232544693,0.01,0.42209815932808636,0.040030156440842485,0.01,0.01,-3.823812,57.19449
158,Dalbeattie,0.6259718931414995,0.01,0.3030702046004594,0.3637871119176462,0.01,0.01,-3.8225269999999996,54.934219999999996
159,Falkirk,0.9367998936285167,0.01,0.1879255954540914,0.031162444897704814,0.01,0.01,-3.7839131,56.00188000000001
160,Kingsbridge,0.46999878868538725,0.01,0.29848137591282436,0.540702099551776,0.07456062592543937,0.01,-3.777493,50.28395
161,Pitlochry,0.8794256188992486,0.01,0.08450744984851566,0.12019760706804858,0.01,0.01,-3.729711,56.70436
162,Colwyn Bay,0.3795341389872976,0.01,0.3500487953213981,0.637329689645345,0.01,0.01,-3.72764,53.29318000000001
163,Totnes,0.4797248042668171,0.01,0.296520159420925,0.5299490363756326,0.07419183792580816,0.01,-3.685797,50.43374
164,Grantown-on-Spey,0.8806730549759341,0.01,0.4162649107515639,0.045215393691926155,0.01,0.01,-3.609628,57.33041
165,Dumfries,0.6252282892096162,0.01,0.2598043182661728,0.37423533842736356,0.01,0.01,-3.60512,55.070859999999996
166,Whitehaven,0.5036652387270671,0.01,0.2855676911914572,0.5085945031160543,0.01,0.01,-3.589233,54.5497
167,Dartmouth,0.49192794266153544,0.01,0.2929289254094531,0.5167185653244059,0.07351654092648346,0.01,-3.578807,50.35252
168,Bridgend,0.16961736470876915,0.01,0.3441871416138374,0.8805049596416131,0.01,0.01,-3.576945,51.504290000000005
169,Paignton,0.49574747609054903,0.01,0.29048074300442317,0.5128841032594023,0.07305618592694382,0.01,-3.564235,50.43508
170,Workington,0.49743397479033213,0.01,0.2715637349960214,0.5188787579254932,0.01,0.01,-3.5427519999999997,54.64357
171,Llanidloes,0.41427177727256204,0.01,0.20355561996569632,0.6297783443472443,0.01,0.01,-3.5401949999999998,52.447790000000005
172,Exeter,0.49951874377021527,0.42363489625064854,0.23460776932612284,0.5159938247611835,0.01,0.01,-3.533899,50.71841
173,Torquay,0.5034961529083852,0.01,0.28967148001188386,0.5041429046736348,0.072904012927096,0.01,-3.525315,50.46192
174,Thurso,0.8485906556886479,0.01,0.4105610471422884,0.08344641819249152,0.01,0.01,-3.5220800000000003,58.59356999999999
175,Livingston,0.887095513558472,0.01,0.09196263949994542,0.10970747269270201,0.01,0.01,-3.518068,55.90071
176,Rhyl,0.25504338156690576,0.01,0.43886566771674473,0.761084729128977,0.01,0.01,-3.4916339999999995,53.319140000000004
177,Tiverton,0.4873022155224522,0.4414234653821887,0.1670205196076978,0.5446890158300146,0.01,0.01,-3.491207,50.90205
178,Tiverton,0.4873022155224522,0.4414234653821887,0.1670205196076978,0.5446890158300146,0.01,0.01,-3.491207,50.90205
179,Minehead,0.4704699246774059,0.01,0.2076933330907702,0.5641070684253188,0.01,0.01,-3.481152,51.20428
180,Dunfermline,0.9088820500300961,0.01,0.08638668799927074,0.08584008209636061,0.01,0.01,-3.452151,56.071740000000005
181,Perth,0.899245715324874,0.01,0.03932416052074585,0.10737663470725471,0.01,0.01,-3.4308381000000003,56.39499
182,Prestatyn,0.35757477999381576,0.01,0.4018513056293046,0.6465787340616906,0.08915304291084697,0.01,-3.4076129999999996,53.33651
183,Builth Wells,0.26849800413341673,0.01,0.22282010931783464,0.761863002684938,0.61674008838326,0.01,-3.4045919999999996,52.15002
184,Braemar,0.8832607219248261,0.01,0.14115796341004777,0.1032204006054682,0.01,0.01,-3.3979439,57.00646999999999
185,Brecon,0.01,0.01,0.4222074260173391,1.0,1.0,0.01,-3.391463,51.94895
186,Merthyr Tydfil,0.01,0.01,0.5991781254529849,0.9752585720691324,0.8615384601384616,0.01,-3.381646,51.74873
187,Llandrindod Wells,0.38883790710991833,0.01,0.24511731173451407,0.6346568074107172,0.29681978870318027,0.01,-3.377742,52.2417
188,Corwen,0.4107390358122521,0.01,0.2285295568417586,0.6283127889709693,0.01,0.01,-3.369242,52.98005
189,Cockermouth,0.5066057127340928,0.01,0.27138797925930164,0.5083497654863826,0.01,0.01,-3.367985,54.66326
190,Lockerbie,0.6192486299533503,0.01,0.30809153580182713,0.37042100505466985,0.01,0.01,-3.349008,55.122240000000005
191,Blairgowrie,0.8710202164983544,0.01,0.043117451316195037,0.1390582994024936,0.01,0.01,-3.3378318,56.58941
192,Elgin,0.8428246112972376,0.01,0.4873289485090559,0.07307239156815179,0.01,0.01,-3.318485,57.64945
193,Newtown,0.43164059641519403,0.01,0.14642649208511657,0.6224299723332739,0.01,0.01,-3.313106,52.51211
194,Ruthin,0.3649491637102599,0.01,0.3262096555692541,0.6594199068748383,0.01,0.01,-3.3103108,53.114869999999996
195,Ruthin,0.3649491637102599,0.01,0.3262096555692541,0.6594199068748383,0.01,0.01,-3.3103108,53.114869999999996
196,Sidmouth,0.48572937487758433,0.01,0.29457014312884255,0.5272653183743782,0.01,0.01,-3.2375599999999998,50.67865
197,Barrow-in-Furness,0.41988586240151116,0.42399370539535314,0.19572214842103403,0.6163635217432754,0.01,0.01,-3.2188939999999997,54.10896999999999
198,Peebles,0.9213993828834708,0.01,0.07281521813230775,0.07442539131559232,0.01,0.01,-3.1936419999999996,55.65306999999999
199,Edinburgh,0.9251532126149858,0.01,0.04459898526189659,0.076355234175807,0.01,0.01,-3.1882669999999997,55.95325
200,Cardiff,0.4842919897228208,0.01,0.3831257530596777,0.5092901449814811,0.01,0.01,-3.17909,51.48158
201,Llangollen,0.41753205079300665,0.01,0.1539530101767087,0.6370178922546622,0.01,0.01,-3.1716599999999997,52.96921
202,Kirkcaldy,0.9116855115873612,0.01,0.05681827377988551,0.08916458140949142,0.01,0.01,-3.158137,56.11682
203,Welshpool,0.43737923831665276,0.01,0.16763780923314692,0.6111155303338137,0.01,0.01,-3.146407,52.66035
204,Mold,0.3407163322265427,0.01,0.367837917311838,0.6781137571072493,0.01,0.01,-3.1419029999999997,53.1672
205,Mold,0.3407163322265427,0.01,0.367837917311838,0.6781137571072493,0.01,0.01,-3.1419029999999997,53.1672
206,Taunton,0.42322896617567446,0.01,0.2703211278562371,0.6046569469840025,0.01,0.01,-3.106849,51.01534
207,Wick,0.8557311840647049,0.01,0.4025419792229172,0.07699658956803432,0.01,0.01,-3.093716,58.43894
208,John o' Groats,0.8670468554552909,0.01,0.39595151944953544,0.06541929052782132,0.01,0.01,-3.0688997000000002,58.63734
209,Dalkeith,0.9198327700772283,0.01,0.04889390581590119,0.08153379774280935,0.01,0.01,-3.066606,55.893119999999996
210,Oswestry,0.4378618958101284,0.01,0.2409252485068612,0.5943126648978534,0.01,0.01,-3.056412,52.85715
211,Blackpool,0.49690491989909646,0.3353483459658833,0.1807738794248639,0.5327475704471042,0.01,0.01,-3.0356748,53.81751
212,Birkenhead,0.3403043607014665,0.18745541276446318,0.4878456305592725,0.6443073851526244,0.074893006925107,0.01,-3.023009,53.389990000000004
213,Cupar,0.8641446826558122,0.01,0.02551853849952153,0.15088187891332186,0.01,0.01,-3.010137,56.32023
214,Southport,0.4255628487005774,0.01,0.3017277829631754,0.595005185201371,0.01,0.01,-3.010113,53.64571
215,Bridgwater,0.4034857835570736,0.01,0.3544994828162067,0.6087447937639661,0.01,0.01,-3.003632,51.12789
216,Langholm,0.5774894150097764,0.01,0.3264250975631278,0.41447345547538644,0.01,0.01,-2.998913,55.153059999999996
217,Newport,0.4715261661082892,0.01,0.3907098421205591,0.5223182527089507,0.01,0.01,-2.997664,51.58415
218,Axminster,0.39986304982862564,0.01,0.3088873488434305,0.6230307833007058,0.01,0.01,-2.9949369999999997,50.78273
219,Wrexham,0.38993712062731767,0.01,0.15185811962370177,0.6692786246240358,0.01,0.01,-2.9924939999999998,53.043040000000005
220,Liverpool,0.3253416670117925,0.19030592969299595,0.49675472591783854,0.6594562174570444,0.07603185792396815,0.01,-2.9915726,53.40837
221,Weston-super-Mare,0.49015612257258345,0.01,0.23134381745409358,0.5361809297468094,0.01,0.01,-2.977255,51.347409999999996
222,Dundee,0.8760133861163418,0.01,0.037408440794287096,0.13457053389795573,0.01,0.01,-2.9707209999999997,56.462019999999995
223,Kirkwall,0.8670468554552909,0.01,0.39595151944953544,0.06541929052782132,0.01,0.01,-2.9622491,58.984669999999994
224,Ambleside,0.422304132139789,0.01,0.33179640263824917,0.5920944543012845,0.01,0.01,-2.961333,54.428740000000005
225,Orkney Islands,0.8670468554552909,0.01,0.39595151944953544,0.06541929052782132,0.01,0.01,-2.9605206,58.980940000000004
226,Lyme Regis,0.41786617433526435,0.01,0.3029229996621165,0.603608712142944,0.01,0.01,-2.936639,50.725159999999995
227,Carlisle,0.5007649342791762,0.01,0.3171510245949266,0.5049349202779998,0.01,0.01,-2.932931,54.892469999999996
228,Chester,0.35404141574964326,0.3423152074648001,0.25508071491976025,0.6737362509101417,0.13676326986323675,0.01,-2.893075,53.19339
229,Forfar,0.8543548317284712,0.01,0.04230155236711689,0.15844165601657914,0.01,0.01,-2.889062,56.64356
230,Morecambe,0.41822770036747364,0.4472642979679811,0.25316172577081164,0.6050641852330532,0.01,0.01,-2.864968,54.074169999999995
231,Selkirk,0.8168570153643893,0.01,0.1086605674565052,0.18693785648371547,0.01,0.01,-2.838524,55.55066
232,Galashiels,0.9114778131692012,0.01,0.07231901043580237,0.08596752793430139,0.01,0.01,-2.814449,55.62373
233,Lancaster,0.4264668194770674,0.4318312471831975,0.24104361131215005,0.5985732022234276,0.01,0.01,-2.8007399,54.046569999999996
234,St Andrews,0.8404816984063276,0.01,0.033435655467092665,0.17639250275459897,0.01,0.01,-2.7967214,56.339780000000005
235,Hawick,0.6206810328372137,0.01,0.35668889528674225,0.35799715277673877,0.01,0.01,-2.780914,55.42706
236,Bridport,0.3725514863203967,0.6708679055145614,0.2738044223697642,0.6485391825806225,0.01,0.01,-2.758301,50.733579999999996
237,Shrewsbury,0.39686932780135237,0.01,0.30910913545916574,0.6264310253401579,0.01,0.01,-2.7553267999999997,52.7073
238,Penrith,0.4582758166486946,0.01,0.33878501980396025,0.5490970559257955,0.01,0.01,-2.752708,54.6641
239,Kendal,0.43693830734196776,0.5160268931474987,0.25948543627659265,0.5806948331297321,0.01,0.01,-2.74629,54.32801
240,Street,0.39972666016272723,0.01,0.29885428429978655,0.625411853316873,0.01,0.01,-2.7429189999999997,51.12468
241,Glastonbury,0.40661402689865817,0.01,0.29185862654604033,0.6190270034121542,0.01,0.01,-2.718454,51.14743
242,Hereford,0.38582861548608166,0.01,0.11960826103431708,0.6811619084913767,0.01,0.01,-2.715974,52.0564
243,Ludlow,0.3749713130183312,0.01,0.20781310401366604,0.6741186601840078,0.01,0.01,-2.7139129,52.36775
244,Preston,0.5444740854963918,0.01,0.07238294221221295,0.5088321006213594,0.01,0.01,-2.70309,53.7632
245,Whitchurch,0.45429031132031117,0.01,0.257917019856012,0.5716163623377025,0.01,0.01,-2.682045,52.96872
246,Wells,0.5135793350349867,0.2846601723128399,0.3256265977683893,0.48246110973391626,0.01,0.01,-2.6445979,51.20935
247,Yeovil,0.3410168254402228,0.6619962140633036,0.26888717857449684,0.6861466481798442,0.01,0.01,-2.633308,50.94206
248,Wigan,0.4814922648687311,0.01,0.3435742867495874,0.5212842981166254,0.01,0.01,-2.6325074,53.54506
249,Warrington,0.3925752330690759,0.01,0.29862634728530785,0.6233576861806266,0.20182604379817395,0.01,-2.5969501,53.39004
250,Arbroath,0.8537616300993932,0.01,0.03536192798297414,0.16066377753553976,0.01,0.01,-2.591543,56.55911
251,Bristol,0.5251048845872519,0.5236873518734002,0.3147821661484254,0.46669011784900855,0.01,0.01,-2.58791,51.45451
252,Guernsey,0.5238574485105657,0.3643847469162063,0.27223631346912075,0.4770902292493006,0.0727902979272097,0.01,-2.5852779999999997,49.46569
253,Ross-on-Wye,0.47676782648743354,0.01,0.15779296307630775,0.5679125753126145,0.01,0.01,-2.582446,51.91445
254,Jedburgh,0.6381049683516813,0.01,0.2727986703226363,0.3565175683118841,0.01,0.01,-2.5549369,55.47772
255,Sedbergh,0.45535994260423945,0.01,0.32199962670316684,0.5561776194559849,0.01,0.01,-2.5281740000000004,54.32363
256,Sedbergh,0.45535994260423945,0.01,0.32199962670316684,0.5561776194559849,0.01,0.01,-2.5281740000000004,54.32363
257,Nantwich,0.3987878134899346,0.01,0.23417670730051682,0.6319941151023211,0.17241379382758623,0.01,-2.524102,53.067190000000004
258,Banff,0.7546371707925581,0.01,0.3235038200126594,0.21100316128109328,0.01,0.01,-2.524038,57.666509999999995
259,Dunbar,0.8988552298430559,0.01,0.06726619890402483,0.1016322790742366,0.01,0.01,-2.516737,56.00209
260,Cinderford,0.5042005214569282,0.01,0.21469200130284866,0.5236895871476039,0.01,0.01,-2.5009579,51.8253
261,Banchory,0.8360976114059131,0.01,0.10321545759646429,0.1659749177836207,0.01,0.01,-2.4909599,57.05386
262,Blackburn,0.559245584540263,0.01,0.09229354713759472,0.4873979137130681,0.01,0.01,-2.487529,53.748580000000004
263,Market Drayton,0.36386707674908064,0.01,0.21071610840576288,0.6723488781016799,0.2715897727284103,0.01,-2.483485,52.90355
264,Telford,0.3619043734062576,0.01,0.32733291260289865,0.6548212362224752,0.15330625084669375,0.01,-2.4672611,52.67759
265,Montrose,0.8391115739087196,0.01,0.07766218552930299,0.1681669000841494,0.01,0.01,-2.4661150000000003,56.70692
266,Turriff,0.7850498865443497,0.01,0.21811960233722924,0.19932220485748756,0.01,0.01,-2.4623,57.53893000000001
267,Weymouth,0.46511709737879625,0.5118062295357763,0.2802008532480547,0.5437200758374496,0.01,0.01,-2.457621,50.61443
268,Crewe,0.41259181780333537,0.01,0.22069988883316125,0.6194346722214681,0.16541945683458056,0.01,-2.4438209,53.10041
269,Fortuneswell,0.46604597950978816,0.5110597894756244,0.2796492272218202,0.5427876258272004,0.01,0.01,-2.4422189999999997,50.55919
270,Dorchester,0.4480244828792049,0.5573966116215232,0.3138929479722232,0.555012451623415,0.01,0.01,-2.4411810000000003,50.71116
271,Alston,0.45297312345102,0.01,0.4515212137287517,0.5302150867383385,0.01,0.01,-2.438685,54.812169999999995
272,Kelso,0.7061310268740582,0.01,0.2937432705735855,0.27349159221651814,0.01,0.01,-2.432207,55.600030000000004
273,Wincanton,0.4724858760404776,0.7403168968585865,0.24390904971613322,0.5385951887832737,0.01,0.01,-2.416007,51.055690000000006
274,Clitheroe,0.5849164239626059,0.01,0.11770066630830342,0.45218662361925155,0.01,0.01,-2.3930830000000003,53.8711
275,Sark,0.571933560171976,0.4517619309121656,0.1732282789119077,0.4455849507419325,0.01,0.01,-2.3666256000000003,49.43007
276,Bath,0.545303944993238,0.5119557873686391,0.31499294678746226,0.443609181453631,0.01,0.01,-2.3590167,51.38106
277,Kidderminster,0.2805899756086702,0.01,0.3068997180074547,0.7571629350905646,0.07297096092702904,0.01,-2.2496839,52.3886
278,Manchester,0.5401429351242941,0.2134873762659043,0.19532234013219993,0.4778253750188864,0.0426467089573533,0.1736837980557488,-2.2426305,53.48076
279,Burnley,0.6277490068932834,0.01,0.148390298218592,0.3960294737157849,0.01,0.01,-2.2405035,53.78929
280,Gloucester,0.5182368241510599,0.01,0.25277366798062917,0.49907442101395294,0.01,0.01,-2.238156,51.86424
281,Newcastle-under-Lyme,0.3347762197455493,0.01,0.29938716779511376,0.6830809514649867,0.33267326366732675,0.01,-2.2273002,53.01321
282,Worcester,0.37941923536465727,0.01,0.34590548209641586,0.6383806513680712,0.01,0.01,-2.221575,52.19364
283,Trowbridge,0.5796974951944444,0.01,0.3460746666176361,0.4075733325755473,0.01,0.01,-2.208853,51.31966
284,Shaftesbury,0.4986680210139736,0.8484665004558658,0.01953541441678067,0.5559521493980966,0.01,0.01,-2.198083,51.0046
285,Alderney,0.5281976292486705,0.4376561182898735,0.3062615170262783,0.4667770910221978,0.01,0.01,-2.1973557,49.715
286,Stoke-on-Trent,0.33199113031222943,0.01,0.26050117462904837,0.6949306157517674,0.33227847766772156,0.01,-2.179404,53.002669999999995
287,Colne,0.5684095376857418,0.01,0.3957287779034689,0.4095722085979799,0.01,0.01,-2.176991,53.85564
288,Blandford Forum,0.5317325504524992,0.458260670787555,0.1559640287131689,0.4956005890494963,0.01,0.01,-2.165353,50.85691
289,Rochdale,0.5433954238464568,0.22511292220849893,0.18530300068890942,0.47812744892362263,0.044969049955030954,0.01,-2.1561,53.60971
290,Jersey,0.5408105594249469,0.4280333787993117,0.29737229716680913,0.4544116514199895,0.01,0.01,-2.13125,49.21444
291,Wolverhampton,0.3218462925832359,0.01,0.3228976172902081,0.7049079169734856,0.0958154119041846,0.01,-2.12882,52.586969999999994
292,Stafford,0.3091383878679213,0.01,0.3270752594513339,0.7090376357390565,0.2828554957171445,0.01,-2.12066,52.80669
293,Macclesfield,0.532934523307219,0.01,0.39106960807652236,0.4514811147477905,0.01,0.01,-2.119287,53.25866
294,Hexham,0.5670179271448753,0.01,0.3221611717817375,0.4274844843124112,0.01,0.01,-2.1121439,54.97266
295,Aberdeen,0.8166212916724147,0.01,0.21033290619353567,0.16467021254571515,0.01,0.01,-2.094278,57.149719999999995
296,Dudley,0.4868949148763448,0.40437580358206776,0.22073057608583835,0.5290418100208093,0.09693479590306521,0.01,-2.081112,52.51226
297,Cheltenham,0.5162691385373362,0.01,0.29008632440711934,0.49306989934182766,0.01,0.01,-2.0782533,51.899390000000004
298,Bromsgrove,0.30987981205628606,0.01,0.30919159935810553,0.7266461511877202,0.01,0.01,-2.061906,52.33559
299,Skipton,0.633262823820362,0.01,0.25784988339815096,0.3654107187905791,0.01,0.01,-2.0162787,53.96285
300,Fraserburgh,0.7669552128099171,0.01,0.21607440053196417,0.22062499912542444,0.01,0.01,-2.007631,57.69335
301,Berwick,0.6075754806256616,0.01,0.4157847102770509,0.3599972487199174,0.01,0.01,-2.005395,55.77024
302,Poole,0.5664511938299559,0.5193922948035784,0.1898470447625373,0.44683278614505867,0.01,0.01,-1.987248,50.71505
303,Walsall,0.46851376056513894,0.41694996248001165,0.29997263719969625,0.5322427026583473,0.099949002900051,0.01,-1.9829189999999999,52.586209999999994
304,Cirencester,0.48287546782745305,0.01,0.24151783942577806,0.5423146553779506,0.01,0.01,-1.968243,51.71849
305,Evesham,0.4417356114351836,0.11866462656420086,0.2801528153968175,0.5787230465238664,0.01,0.01,-1.9467700000000001,52.09215
306,Buxton,0.522451513940861,0.30515239874837474,0.42816405482970427,0.4490876661240531,0.01,0.01,-1.91483,53.259080000000004
307,Keighley,0.6052257171122636,0.01,0.26585100186434774,0.3959426081826614,0.01,0.01,-1.9123580000000002,53.8678
308,Birmingham,0.48461614872327774,0.38883340527679494,0.3018690479111531,0.5125970989638818,0.12427874187572127,0.01,-1.8904009999999998,52.48624
309,Bournemouth,0.5463134776344304,0.5483828962957121,0.20591547940772048,0.46588059279393534,0.01,0.01,-1.880769,50.719159999999995
310,Halifax,0.573799732016104,0.01,0.29328281611609053,0.4260719954885895,0.01,0.01,-1.8575400000000002,53.727019999999996
311,Salisbury,0.5297492952422118,0.17346087495432097,0.22244362398844555,0.4889807250010522,0.01,0.01,-1.794472,51.06878
312,Ringwood,0.5524139569600302,0.15418745024411865,0.243808733475578,0.45852375309478643,0.01,0.01,-1.7888169999999999,50.84495
313,Huddersfield,0.5246107055923189,0.01,0.3096380859363493,0.4791241600531713,0.01,0.01,-1.7850351000000002,53.645790000000005
314,Peterhead,0.8011999176679737,0.01,0.20200264428301337,0.18428643050220944,0.01,0.01,-1.784066,57.50812
315,Swindon,0.47162985962140364,0.01,0.22549239283075856,0.5588247398348579,0.01,0.01,-1.7797176,51.55577
316,Bradford,0.6115874542682028,0.35479244111304875,0.2624890967997015,0.38209202271219733,0.01,0.01,-1.759398,53.79598000000001
317,Ashbourne,0.4327317137423797,0.41600711387881095,0.4399811072698814,0.5390581487064015,0.16620498283379503,0.01,-1.7321790000000001,53.016630000000006
318,Marlborough,0.4327276656472735,0.01,0.17157149097254182,0.6156032240783078,0.01,0.01,-1.7270619999999999,51.42007
319,Stratford-upon-Avon,0.4772635624420227,0.11922990120825594,0.2929684498140087,0.5312711075441585,0.07145287792854711,0.01,-1.7082979999999999,52.19173
320,Alnwick,0.562334281106575,0.01,0.2750801769217229,0.44331830211574086,0.01,0.01,-1.7062990000000002,55.41274
321,Otley,0.6763909176938188,0.32962295815056114,0.16078900034202692,0.32710797012615017,0.0658461999341538,0.01,-1.691786,53.90583
322,Bishop Auckland,0.35232377785673286,0.01,0.30616843559687645,0.6784102696085845,0.01,0.01,-1.6787880000000002,54.663819999999994
323,Burton upon Trent,0.49371657791477674,0.4802421154892384,0.3234195595498763,0.5018319083403219,0.01,0.01,-1.6371358999999999,52.81403
324,Newcastle,0.567319043142418,0.01,0.24088399227950155,0.4451554668792773,0.01,0.01,-1.61778,54.97825
325,Durham,0.478249429296438,0.01,0.27623340905661103,0.539948977891197,0.01,0.01,-1.5848520000000001,54.77525
326,Ashington,0.5655746255434179,0.01,0.20785419838842725,0.45448739414631084,0.01,0.01,-1.5659829,55.18298000000001
327,Darlington,0.33264910146301296,0.4108852837282567,0.26255314187293105,0.6939207007741438,0.16415868683584134,0.01,-1.559458,54.52361
328,Leeds,0.6612155433150853,0.49366048069702645,0.19078583838966245,0.3345899593418355,0.06574313193425688,0.01,-1.5490774,53.80076
329,Harrogate,0.6916024135365809,0.34646123232675735,0.14200539124531528,0.31322746071738583,0.06920985393079016,0.01,-1.5418120000000002,53.99211999999999
330,Leamington Spa,0.47982258133323735,0.12184167926253972,0.149585644399612,0.5599742639778609,0.07301807792698192,0.01,-1.5200789,52.28519
331,Coventry,0.42665770273093845,0.01,0.2437495439803037,0.6038580424154244,0.053428318946571685,0.01,-1.519693,52.40682
332,Blyth,0.5702564032301308,0.01,0.23518186049303022,0.443034742302327,0.01,0.01,-1.510277,55.12696
333,Wakefield,0.6493963511716282,0.5706595495173001,0.1977619605347688,0.3445598333990117,0.07599746692400253,0.01,-1.505924,53.6833
334,Andover,0.5022213143417472,0.01,0.22081223072178555,0.5246134618326087,0.01,0.01,-1.4919233,51.2112
335,Witney,0.5972083090577378,0.01,0.18885483977790457,0.4222495173509148,0.01,0.01,-1.4850543999999999,51.785940000000004
336,Barnsley,0.3409813267600572,0.5945984217128258,0.5336314809260273,0.6288783657568534,0.01,0.01,-1.479726,53.55263000000001
337,Derby,0.5876993336524066,0.4666000793238206,0.28989593719549456,0.39169645874588627,0.18641810581358192,0.01,-1.4746186000000001,52.92253
338,Sheffield,0.41927086333724367,0.21729020304560792,0.3502564845758035,0.5825978377335336,0.08681273291318728,0.01,-1.470085,53.381130000000006
339,Nuneaton,0.4401238467989068,0.01,0.2288716161234451,0.5943783253380087,0.01,0.01,-1.465382,52.52049
340,Northallerton,0.373073379197213,0.01,0.34636499780883956,0.636208403079611,0.1830464158169536,0.01,-1.429959,54.337959999999995
341,South Shields,0.5700446567168639,0.01,0.19328806337733417,0.45256576781112096,0.01,0.01,-1.427406,54.99941999999999
342,Chesterfield,0.44736900286387193,0.2276664785337992,0.22444530362997187,0.5776868314901586,0.0909583079090417,0.01,-1.421629,53.23505
343,Southampton,0.4660858376769914,0.37438171388475755,0.31697907239427187,0.5372652598899423,0.01,0.01,-1.4043508999999998,50.9097
344,Wetherby,0.6687029623025816,0.322444602673143,0.10054385386445414,0.3495422050060309,0.06441223593558777,0.01,-1.384816,53.92706
345,Sunderland,0.5527997715628792,0.01,0.23851594309599292,0.46241009767151936,0.01,0.01,-1.383801,54.90687
346,Rotherham,0.393402290038541,0.21062913264989583,0.40461476071096797,0.5963138013616684,0.16830294583169705,0.01,-1.3635008999999998,53.4326
347,Castleford,0.6496797178290878,0.6001998321118714,0.18535144317164282,0.3461777712284777,0.07993148792006852,0.01,-1.345968,53.72346999999999
348,Thirsk,0.4994069540668874,0.01,0.14088252265790707,0.5455755394121768,0.01,0.01,-1.341377,54.23385
349,Banbury,0.3951803379661187,0.2342357397631334,0.1940805746259279,0.6490802533115198,0.01,0.01,-1.339775,52.0629
350,Stockton,0.36513631026095594,0.41625421019053366,0.22881241044291092,0.6637472169212479,0.1663037038336963,0.01,-1.3289821000000002,54.57046
351,Newbury,0.5425285087097877,0.01,0.29345810248027454,0.452422140083284,0.01,0.7661814082734546,-1.3231138999999998,51.40141
352,Isle of Wight,0.46760729865319905,0.41807823405979555,0.31392329533444346,0.5352946932048226,0.01,0.01,-1.304734,50.69385
353,Isle of Wight,0.46760729865319905,0.41807823405979555,0.31392329533444346,0.5352946932048226,0.01,0.01,-1.304734,50.69385
354,Abingdon,0.630672042952158,0.01,0.10436702264958789,0.40242074614443146,0.01,0.01,-1.2879528999999998,51.67078
355,Shetland Islands,0.812635786344032,0.01,0.33427253698704135,0.1417871903513741,0.01,0.01,-1.2659409,60.52965
356,Rugby,0.4218174265512066,0.01,0.18913461817968524,0.6242809509052584,0.01,0.01,-1.265032,52.37088
357,Oxford,0.6056118431070441,0.01,0.1745754913861076,0.4157321266451393,0.01,0.01,-1.2577263,51.75202
358,Middlesbrough,0.3688353350125661,0.41625421019053366,0.22881241044291092,0.6594851008747082,0.1663037038336963,0.01,-1.234956,54.57423000000001
359,Hartlepool,0.3833287610618092,0.33807686533229986,0.16742706096462986,0.6595949655018971,0.13506994886493007,0.01,-1.212926,54.69174
360,Loughborough,0.39085292429719676,0.01,0.20262190851016432,0.6569696960563873,0.01,0.01,-1.206166,52.7721
361,Mansfield,0.51022813507061,0.2739770719922805,0.12131368567953456,0.5206128393859881,0.21892103078107902,0.01,-1.198674,53.1472
362,Nottingham,0.5595199208317155,0.01,0.13945399543821688,0.4628930786468912,0.2679425837320574,0.01,-1.1581086,52.95478000000001
363,Bicester,0.5272295117343379,0.01,0.1814246563529443,0.5045293683899806,0.01,0.01,-1.1535898999999998,51.8996
364,Leicester,0.320334796148829,0.01,0.20473094498028085,0.7377564358623259,0.01,0.01,-1.1397591999999999,52.636880000000005
365,Doncaster,0.26994161712680564,0.01,0.7616625641349013,0.6610378447043043,0.22087825177912176,0.01,-1.128462,53.522819999999996
366,Worksop,0.3560897518735674,0.6357726076874654,0.37181421484042015,0.6334790456904452,0.2540066547459934,0.01,-1.122745,53.3093
367,Basingstoke,0.506840190858343,0.01,0.19997704282742762,0.5151017038955981,0.01,0.6998772402667776,-1.0923964,51.26654
368,Portsmouth,0.45188636561087164,0.4123387419736844,0.3590554554263447,0.5435214081559524,0.01,0.01,-1.0879769,50.81977
369,York,0.6062807129754221,0.01,0.1061477896794108,0.4301307794507795,0.01,0.01,-1.0872979,53.95997
370,Selby,0.5263918674392094,0.01,0.1815050970944027,0.5054767086093359,0.01,0.01,-1.067189,53.783519999999996
371,Helmsley,0.48295238163447746,0.01,0.30612054341297795,0.5206401440826866,0.14172430985827572,0.01,-1.0562636,54.24651
372,Towcester,0.4695805893216858,0.01,0.06628428774465721,0.5964798541032196,0.01,0.01,-0.9896879999999999,52.13511
373,Reading,0.6342841893549422,0.01,0.19908397255938096,0.36712800840080484,0.01,0.8051306047988706,-0.9781303,51.45426
374,Retford,0.37406703084991016,0.6398356714038503,0.34526376891385185,0.6184842463202257,0.2556299477443701,0.01,-0.9455030000000001,53.32136
375,Petersfield,0.43714320323274647,0.3845802054776748,0.2394682352298336,0.5875881388254022,0.01,0.01,-0.93899,51.00759
376,Northampton,0.49447388309163615,0.01,0.042276206250190566,0.5731188023765348,0.01,0.01,-0.9026559999999999,52.24048
377,Melton Mowbray,0.41118339209818067,0.3637543298140228,0.20439047185405976,0.6257029120548728,0.01,0.01,-0.887126,52.7664
378,Aylesbury,0.3541391928160635,0.01,0.1277600318992049,0.71586858195659,0.01,0.01,-0.8084,51.81561
379,Newark-on-Trent,0.5068647908209131,0.12414382915113087,0.1466189510100023,0.5280835263947614,0.09919697890080303,0.01,-0.80657,53.070040000000006
380,Malton,0.5487971396782765,0.4058880267023106,0.21442368206504234,0.464050855194941,0.01,0.01,-0.7978970000000001,54.13684
381,Chichester,0.38982003726115855,0.3829380303370075,0.30877659311027156,0.6267851970367552,0.01,0.01,-0.774936,50.83761
382,Gainsborough,0.3577469797318105,0.7737365021909539,0.30699551856051144,0.6350064223445276,0.41216879158783126,0.01,-0.774465,53.400580000000005
383,Milton Keynes,0.49051391190161764,0.01,0.13127404603592882,0.5579522812212971,0.01,0.01,-0.7594171,52.040620000000004
384,Aldershot,0.45151362946913615,0.01,0.14174856354200296,0.6005684543636439,0.01,0.01,-0.7557509,51.24837
385,High Wycombe,0.45990221670574116,0.01,0.05136932801325999,0.6109383547854603,0.01,0.01,-0.748229,51.628609999999995
386,Midhurst,0.4957353318052295,0.01,0.25697892219506047,0.5240694130598902,0.01,0.01,-0.737274,50.9869
387,Kettering,0.5748422722020111,0.01,0.09252187259830975,0.46937606041162355,0.01,0.01,-0.7302489999999999,52.39632
388,Wellingborough,0.586656482074568,0.01,0.08454558232072415,0.45753138344789285,0.01,0.01,-0.693964,52.30242
389,Corby,0.5207519367799647,0.01,0.09894777683478857,0.530276872136124,0.01,0.01,-0.6842333,52.4923
390,Bognor Regis,0.4050878950434814,0.3809643610307163,0.34187232574997795,0.6018965174958342,0.01,0.01,-0.673061,50.783
391,Scunthorpe,0.4150664494811744,0.01,0.3036284018421933,0.5916289468965987,0.1468018158531982,0.5978678674680664,-0.654413,53.58865
392,Grantham,0.374849558773203,0.6045140920149661,0.29287027002775384,0.6306440216366579,0.24151811575848192,0.01,-0.643582,52.912519999999994
393,Whitby,0.3998281739323229,1.0,0.45623028271181826,0.5596895918837669,0.19976218480023783,0.01,-0.613347,54.48633
394,Slough,0.6253528459821258,0.01,0.279411368643053,0.36974516896135545,0.01,0.01,-0.5950406,51.51054
395,Guildford,0.5208294733708524,0.01,0.12795109889174344,0.5237580103494488,0.01,0.01,-0.570409,51.23622
396,Woking,0.5201045529548451,0.01,0.13898204944622777,0.5221479661248102,0.01,0.01,-0.5600349,51.31677
397,Lincoln,0.3914000399204458,0.9248533738405654,0.18675156526029493,0.6409179429997772,0.01,0.01,-0.540579,53.23069
398,Bedford,0.48635932075455235,0.01,0.16263729227594728,0.5557868142569842,0.01,0.01,-0.46677820000000003,52.13864
399,Heathrow,0.6937257951159425,0.11555583503231394,0.28625713470532116,0.2870788542059441,0.01,0.01,-0.4542955,51.47002
400,Driffield,0.5175533188619125,0.29397370413770774,0.08301010290393987,0.5254554583075401,0.01,0.47832772284586267,-0.443377,54.006
401,Beverley,0.45464187281072044,0.3747771766126801,0.15585337009156908,0.5708125422061183,0.1497326178502674,0.6098039074262582,-0.435093,53.84196
402,Luton,0.40398681317449436,0.560442485841108,0.15435602314699326,0.6410588797259685,0.01,0.01,-0.4200255,51.87867
403,Scarborough,0.5095732778391396,0.2876984074491154,0.10572226301267375,0.5298725401688507,0.01,0.4681171212410658,-0.399752,54.28311
404,Worthing,0.5047884294231748,0.13096242935884736,0.26490532950178597,0.5091989379657025,0.01,0.01,-0.372882,50.81787
405,Dorking,0.5141417088628685,0.01,0.24381645384452685,0.5057787825140723,0.01,0.01,-0.332378,51.2322
406,Hull,0.4401967125108251,0.3792388217653112,0.15887582170136474,0.5865125275276013,0.15151515384848488,0.6170634974370867,-0.3274198,53.767619999999994
407,Horsham,0.5078565741220226,0.01,0.2566894488226292,0.5101668733176531,0.01,0.01,-0.325858,51.06288
408,Biggleswade,0.5068320946681296,0.6695859937477607,0.3658756487780485,0.47343050289115834,0.01,0.01,-0.26421999999999995,52.086940000000006
409,Peterborough,0.3586207454909672,0.01,0.14627274830179396,0.7066010593289439,0.01,0.01,-0.2405299,52.5695
410,Welwyn Garden City,0.43251934444525053,0.7936140277117559,0.18188494895784083,0.5973048434477501,0.01,0.01,-0.208661,51.80317
411,Bridlington,0.49334508734076576,0.26783439049077096,0.15350854675594627,0.5387915601433666,0.01,0.43579616918133446,-0.198802,54.08535
412,Stevenage,0.4418794745074324,0.5935492917369595,0.128142489589479,0.6025303739634755,0.01,0.01,-0.19661199999999998,51.90376
413,Crawley,0.5118271326377051,0.01,0.20645817117051735,0.5167273559297818,0.01,0.01,-0.18722750000000002,51.109140000000004
414,Huntingdon,0.5009788605359616,0.01,0.23265328590232148,0.5234202717029014,0.01,0.01,-0.182552,52.33146
415,Hove,0.5222266889664808,0.13726477821402122,0.23165057668404557,0.4963485439869156,0.01,0.01,-0.168749,50.82793
416,Spalding,0.3079650630708789,0.01,0.14831791773653932,0.7645154333070584,0.01,0.01,-0.1537024,52.7901
417,Brighton,0.541736327636626,0.13545291380305438,0.21478602147732193,0.4776446114683386,0.01,0.01,-0.137163,50.82253
418,London,0.6997076341157266,0.1348209023050426,0.18077522280143155,0.30129276077860073,0.02938049097061951,0.029913879461579078,-0.12775830000000002,51.50735
419,Grimsby,0.44067376494953725,0.15652917969508529,0.20080139048214787,0.5839399658343255,0.12507444587492558,0.5093805672320145,-0.08078400000000001,53.56746999999999
420,Boston,0.3677713087834013,0.24177782773940729,0.08064504799350361,0.7056544008300054,0.01,0.01,-0.026576999999999996,52.97894
421,Royston,0.5160153541133476,0.39476154417481263,0.24840321081890102,0.49451869874785537,0.01,0.01,-0.024066,52.048140000000004
422,Louth_Lincs,0.4003805832184036,0.14856557551180413,0.144425605521323,0.6436808123294375,0.11871113788128887,0.4834652380646799,-0.007711,53.36596
423,Lewes,0.5236637627293133,0.15026443054812647,0.15182515024938573,0.5121226933137543,0.01,0.01,0.00878,50.873870000000004
424,Chatteris,0.5057811469000779,0.01,0.25204465150643013,0.5135881051699417,0.01,0.01,0.054012,52.4561
425,Uckfield,0.5769989727180185,0.14969384709158812,0.10939147760610685,0.46008568220999985,0.01,0.01,0.095913,50.966409999999996
426,Cambridge,0.5577611792038771,0.01,0.26580451779805625,0.45064392619579946,0.01,0.01,0.12181700000000001,52.20534
427,Bishop's Stortford,0.3515521486510348,0.9594615048983608,0.07923171873281327,0.7099591782226351,0.01,0.01,0.15365020000000001,51.87216
428,Wisbech,0.33766033181301414,0.01,0.21658321654589333,0.7151656564467088,0.01,0.01,0.158797,52.66631999999999
429,Sevenoaks,0.26909743360112004,0.9010714182278795,0.4568901233854151,0.7224424119368815,0.01,0.01,0.190898,51.27241
430,Tunbridge Wells,0.4375411621209154,0.23719539396215614,0.048043289484443134,0.622868856761678,0.1895306838104693,0.01,0.26369499999999996,51.13238
431,Eastbourne,0.5463190826891932,0.1415909698045784,0.14612284042505597,0.4874598067509194,0.01,0.01,0.29047199999999995,50.768029999999996
432,Brentwood,0.42721851959916396,0.01,0.22214199548586627,0.6107402611843141,0.01,0.01,0.30717490000000003,51.620470000000005
433,Skegness,0.35388416282434976,0.22893074682148867,0.09229882353230605,0.7193357402369653,0.01,0.01,0.337881,53.1464
434,Downham Market,0.34664554598994174,0.01,0.17082507534400315,0.7149564759187824,0.01,0.01,0.385472,52.606609999999996
435,King's Lynn,0.3366383434945714,0.01,0.15486161829421216,0.7300261568947966,0.01,0.01,0.4022963,52.75168000000001
436,Bexhill,0.5405299952948682,0.14067100341163916,0.14453647455130092,0.49450072285686203,0.01,0.01,0.4662071,50.849909999999994
437,Chelmsford,0.3547825285460769,0.01,0.20340781617273898,0.698357480767501,0.01,0.01,0.4685497,51.73559
438,Mildenhall,0.5148358014776795,0.01,0.2738226793428758,0.49198592799891416,0.01,0.5038291680330473,0.5156095,52.347570000000005
439,Medway,0.36778905812348395,0.01,0.13331819579930357,0.6939452068291307,0.09682997090317004,0.01,0.5417860999999999,51.404740000000004
440,Braintree,0.44829850777872643,0.01,0.15744896156343913,0.5882064592435422,0.01,1.0,0.5509269,51.88009
441,Gillingham,0.32813765516270677,0.01,0.1483362070801707,0.7332750211216719,0.15593094284406905,0.01,0.551438,51.38632
442,Hastings,0.48136646252849635,0.01,0.10483537551389009,0.563975281104723,0.20247469179752534,0.01,0.573453,50.85426
443,Maldon,0.37420778000284616,0.01,0.2154623549307067,0.6733026049649411,0.01,0.01,0.6714479999999999,51.731809999999996
444,Southend,0.3461579062255656,0.01,0.18322395550529638,0.7127695168213257,0.01,0.01,0.7077123000000001,51.54593
445,Bury St Edmunds,0.4489711143502794,0.01,0.23998833236987877,0.5729041322052512,0.01,0.7004504573207019,0.7104931999999999,52.24292
446,Thetford,0.4107346763252141,0.01,0.212085964058494,0.6319632224034283,0.01,0.01,0.751657,52.412859999999995
447,Ashford,0.4126833670311306,0.01,0.16854055828658437,0.6313126458455617,0.15721505084278495,0.01,0.8750190000000001,51.14647
448,Faversham,0.3673861169644145,0.01,0.17912969980292176,0.6822614158837915,0.13570274886429728,0.01,0.889358,51.31599
449,Colchester,0.40241241556997026,0.01,0.23129000146508974,0.6287062851716158,0.01,0.682425693101009,0.891874,51.89593
450,New Romney,0.4685424086228163,0.01,0.18599637722091708,0.5635821795843178,0.14740865285259136,0.01,0.939473,50.98512
451,Canterbury,0.4390887800193498,0.01,0.3309940993074457,0.5729323697825202,0.01,0.01,1.0789089,51.280229999999996
452,Ipswich,0.4263780727766542,0.01,0.2179481518796298,0.603298959913512,0.01,0.742082430533816,1.14822,52.056740000000005
453,Clacton,0.4568923022980412,0.01,0.1799127588597627,0.5768934883249818,0.01,0.7164397835727173,1.153035,51.78953
454,Folkestone,0.4716781253707514,0.01,0.38188568700569003,0.5240995522783223,0.01,0.01,1.169456,51.0814
455,Sheringham,0.43932512649518723,0.01,0.10543877818638722,0.6226617931550462,0.01,0.01,1.2109589,52.944419999999994
456,Harwich,0.43522627450382084,0.01,0.2274805415950496,0.5907086243337663,0.01,0.7644692548032905,1.260297,51.93473
457,Norwich,0.4347535815521456,0.01,0.12912847943432906,0.6226777597648108,0.01,0.01,1.297355,52.63089
458,Cromer,0.4168339100830891,0.01,0.1440939533617205,0.6400078103631766,0.01,0.01,1.301866,52.93145
459,Dover,0.4569592515632652,0.01,0.33622768400649666,0.5511810034802545,0.01,0.01,1.3134027,51.12788
460,Felixstowe,0.4453122591578033,0.01,0.23507312791735263,0.5771795956199535,0.01,0.782300475949472,1.3512549999999999,51.961729999999996
461,Margate,0.40086106096836077,0.01,0.3158365872719246,0.6203399969351285,0.01,0.01,1.3868339,51.38965
462,Ramsgate,0.40086106096836077,0.01,0.3158365872719246,0.6203399969351285,0.01,0.01,1.4198950000000001,51.33555
463,Great Yarmouth,0.42945462505764675,0.01,0.13346051278917154,0.6278229190313843,0.01,0.01,1.728047,52.59823000000001
464,Lowestoft,0.4293655669653021,0.01,0.1646672799369526,0.6210077600235058,0.01,0.01,1.7534490000000003,52.48114
465,Swaffham,0.46114186798414536,0.01,0.1871418404310769,0.579411225344729,0.01,0.01,0.687481,52.64747
466,Dereham,0.44499619634756005,0.01,0.11759615808544689,0.6134320521905059,0.01,0.01,0.9378270000000001,52.681619999999995
467,Ely,0.5292585415585228,0.01,0.2965956798433888,0.47665999190618463,0.01,0.01,0.262363,52.39954
468,March,0.34384177304074526,0.01,0.27571250265357333,0.6949351725145541,0.01,0.01,0.088622,52.551719999999996
469,St Neots,0.5756596760216071,0.01,0.21906590592492514,0.4403815223197238,0.01,0.01,-0.26510300000000003,52.23008
470,Banham,0.45566136999371326,0.01,0.15364442201239364,0.5931521255881139,0.01,0.01,1.0402849,52.45125
471,Holt,0.4398576066976668,0.01,0.10637320179335266,0.621841037653105,0.01,0.01,1.086747,52.90936
472,Cromer,0.4168339100830891,0.01,0.1440939533617205,0.6400078103631766,0.01,0.01,1.301866,52.93145
473,Hunstanton,0.26857273819692273,0.01,0.16713805696473422,0.8057328237939657,0.01,0.01,0.49103199999999997,52.93891
474,Horncastle,0.33069636266198993,0.2356006301963397,0.20666479219777245,0.7205639851481107,0.01,0.01,-0.11245,53.20731
475,Market Weighton,0.48155298629532983,0.01,0.08673017158382412,0.5658646154201642,0.119863015880137,0.48815639831193036,-0.6677465,53.86484
476,Hawes,0.4211202200170834,0.01,0.37060682682607116,0.5848551216739982,0.01,0.01,-2.1968695,54.303830000000005
477,Reeth,0.2916960802295081,0.01,0.28320431954804537,0.7533591504443221,0.01,0.01,-1.9428115000000001,54.38946
478,Aysgarth,0.45198694520467364,0.01,0.3566698776064176,0.5523783198124853,0.01,0.01,-1.9967433999999997,54.29159
479,Stanhope,0.4759737770626838,0.01,0.16301950718732358,0.5676686270434256,0.01,0.01,-2.011302,54.74946
480,Keswick,0.4369946692815285,0.01,0.31196748471933433,0.5795628901974812,0.01,0.01,-3.134706,54.60128
481,Oxenholme,0.43431887841608663,0.5145115513189324,0.25843556321111155,0.5839769940169705,0.01,0.01,-2.7243327999999996,54.30134
