index,placename,longitude,latitude,dont_have,havent,havent_got
0,Dingle,-10.264013499999999,52.14094,0.0851209531210805,0.01,0.12504097080988072
1,Tralee,-9.6999325,52.27131,0.1595998890614917,0.18920926690156512,0.13297231810897028
2,Killarney,-9.5044265,52.059940000000005,0.24688831392331484,0.01,0.26749587981393236
3,Bantry,-9.4539805,51.68035,0.08062864218871539,0.01,0.15791090097705832
4,Mayo,-9.4289369,54.01526,0.15945494712009828,0.18152547444203804,0.1075288047891107
5,Ballycastle,-9.3724643,54.279669999999996,0.01831505125145921,0.06647246801784354,0.01851209725653824
6,Abbeyfeale,-9.2970823,52.386179999999996,0.01,0.06439521240761567,0.03850219180833684
7,Ennistymon,-9.2934951,52.940369999999994,0.012367568415586646,0.06439521240761567,0.03153934973559062
8,Galway,-9.0567905,53.270669999999996,0.38498030937530475,0.36111834644112345,0.22404151668500355
9,Claremorris,-9.0017356,53.72388,0.2522641542374362,0.2554323374550732,0.1554766378045036
10,Clare,-8.9811351,52.90453,0.24664871118040269,0.250960585204793,0.1525755428122182
11,Adare,-8.7925892,52.56363,0.08477206677441892,0.1271387189024124,0.08599193170293662
12,Charleville,-8.681017599999999,52.36206,0.01,0.01,0.04726189721396317
13,Mallow,-8.6539164,52.13898,0.11230687224942612,0.01,0.1750965990363234
14,Limerick,-8.6267343,52.66384,0.3424706988498518,0.34090272836654356,0.24778711618342497
15,Loughrea,-8.5660931,53.19891,0.012367568415586646,0.06439521240761567,0.03153934973559062
16,Sligo,-8.476088800000001,54.27661,0.275523359830208,0.273954333517416,0.13787121135021058
17,Cork,-8.4756035,51.898509999999995,0.3776025490591338,0.01,0.49276711513742755
18,Nenagh,-8.19834,52.8635,0.18909604909800604,0.2051296073883197,0.1228422273704728
19,Roscommon,-8.1890955,53.627590000000005,0.20005949773830345,0.21386014309674872,0.12850625167372118
20,Tipperary,-8.161851400000002,52.47379,0.25741389348047705,0.01,0.1883175282488404
21,Donegal,-8.1096143,54.653830000000006,0.32991313331209604,0.3050640333130149,0.0887190125126311
22,Leitrim,-8.0020132,54.12469,0.19813917139643045,0.20416432500485418,0.055989150549740366
23,Athlone,-7.9406898,53.423930000000006,0.1799933142141278,0.19788081601295315,0.11813949985289171
24,Longford,-7.7932573000000005,53.727630000000005,0.20255281421859253,0.21584562192212411,0.10645569015444915
25,Offaly,-7.7122229,53.235690000000005,0.24926896871396037,0.2530471779104788,0.1539292411636922
26,Fermanagh,-7.6318728,54.343830000000004,0.15772842635144543,0.17322169925179404,0.04595197713617625
27,Enniskillen,-7.631533599999999,54.343819999999994,0.2087528424133184,0.21229124396603827,0.05862536169686061
28,Doon,-7.60964,54.185930000000006,0.1120224593456012,0.13822450654551743,0.03459958270836722
29,Westmeath,-7.4653217000000005,53.534530000000004,0.20972909946801277,0.21303876685007728,0.05886784327801619
30,Strabane,-7.4633103,54.82739,0.20825062051885976,0.2203829761308234,0.08507944377853992
31,Balivanich,-7.3743509000000005,57.472269999999995,0.04088918764470341,0.09468246343976035,0.01
32,Cavan,-7.3633319,53.98972,0.2497532910940826,0.2436854075189292,0.06880900500718948
33,Mullingar,-7.340186800000001,53.525819999999996,0.20449478641745242,0.20903083802774178,0.05756775074740653
34,Laois,-7.332300699999999,52.9943,0.2409043652330852,0.2463861835671287,0.14960785298036341
35,Omagh,-7.309959700000001,54.59771,0.2231601246150424,0.23225587802212855,0.09021455515863855
36,Derry,-7.308574799999999,54.99661,0.353894143400052,0.3363634438323073,0.13524179035694506
37,Derry,-7.308574799999999,54.99661,0.353894143400052,0.3363634438323073,0.13524179035694506
38,Kilkenny,-7.2447879,52.65415,0.26679447910531995,0.01,0.23034717627407447
39,Tyrone,-7.131232000000001,54.491209999999995,0.15583818546933162,0.17864532374392883,0.06702762327899546
40,Waterford,-7.110070200000001,52.25932,0.28271477029512365,0.01,0.29538939991909097
41,Western Isles,-7.0194034,57.759890000000006,0.14692906988065543,0.19494400927736738,0.031919603685007125
42,Monaghan,-6.9683132,54.2492,0.2397427444329114,0.23602030264211113,0.06632259717949664
43,Carlow,-6.934135899999999,52.83651,0.2527382772322575,0.01,0.18546899745815668
44,Kildare,-6.8194707999999995,53.21204,0.33524006239160253,0.32150859828927675,0.16358064409919423
45,Dungannon,-6.7669352,54.508269999999996,0.16157023384788932,0.18320993217059378,0.06900184768445665
46,Cookstown,-6.7443895000000005,54.641819999999996,0.2054260708446523,0.218133699363961,0.08410661617259761
47,Coleraine,-6.6646103000000005,55.132580000000004,0.3169408600254693,0.34879141099858124,0.0840464566510235
48,Meath,-6.656416900000001,53.60555,0.31853765844086984,0.29635379891095526,0.08589358541849967
49,Armagh,-6.652792,54.350280000000005,0.22626081194811545,0.2347250517963666,0.09128248972624553
50,Armagh,-6.652792,54.350280000000005,0.22626081194811545,0.2347250517963666,0.09128248972624553
51,Magherafelt,-6.607980499999999,54.75536999999999,0.21520117813712963,0.2353312227085153,0.10426743113038532
52,Dunvegan,-6.581398200000001,57.4366,0.02258888753215732,0.08242587188174806,0.01
53,Louth,-6.4889423,53.925230000000006,0.32124374619295665,0.29842585822276824,0.0865657203175168
54,Wexford,-6.4633381,52.33692,0.25167894898249743,0.01,0.3113967488058282
55,Craigavon,-6.4175653,54.442930000000004,0.26265043774527236,0.2637032427652783,0.10381575577875995
56,Stornoway,-6.384869200000001,58.209430000000005,0.21744317326724646,0.2475035985227669,0.043285793985230345
57,Drogheda,-6.3560985,53.717859999999995,0.23537347095440797,0.23267473715185347,0.06523736216227025
58,Rosslare,-6.3414908,52.25131,0.01,0.03030362451970903,0.06184819130611366
59,Newry,-6.34023,54.1751,0.26233217888146126,0.2634498033321696,0.10370614148824897
60,Scilly Isles,-6.327496599999999,49.92773,0.06153885108634832,0.08350955702745075,0.24259141691065256
61,Ballymena,-6.2802213,54.86529,0.2582346883825712,0.26018690585442056,0.0882283188136607
62,Banbridge,-6.2704803,54.34873,0.21327426932665539,0.2243834639436005,0.08680968215508897
63,Dublin,-6.2603097000000005,53.34981,0.7319364091262544,0.6128944322252108,0.1885730817990026
64,Antrim,-6.2072498,54.719530000000006,0.2700325115809807,0.2808144587032422,0.12639821328803513
65,Antrim,-6.2072498,54.719530000000006,0.2700325115809807,0.2808144587032422,0.12639821328803513
66,Portree,-6.1960231,57.41246999999999,0.21016580840171775,0.252168310375955,0.04429455382107102
67,Islay,-6.177067,55.73625,0.15187900041762753,0.2040610605362884,0.04492342203915866
68,Wicklow,-6.044589,52.980819999999994,0.2878449744686281,0.2782024049930441,0.15520839737248057
69,Kilkeel,-6.007004,54.06312,0.13713282001090837,0.16374965937466723,0.06058514642565421
70,Mull,-6.0008870000000005,56.4392,0.15179417671571171,0.1686778779951398,0.053597329419481074
71,Belfast,-5.93012,54.597280000000005,0.5224865009754556,0.5115422708280902,0.2939748449398402
72,Broadford,-5.9096592,57.24139,0.02258888753215732,0.08242587188174806,0.01
73,Down,-5.7156921999999994,54.32875,0.26817132441171854,0.2792705060709805,0.14074531218394176
74,Kyle of Lochalsh,-5.7143293,57.28261,0.02258888753215732,0.08242587188174806,0.01
75,Campbeltown,-5.605373999999999,55.424119999999995,0.16641745301993915,0.21752318000063928,0.04856245855639952
76,Penzance,-5.537592,50.1188,0.15662708194504657,0.1280525409311467,0.37744747470736395
77,Oban,-5.471047,56.41516,0.2364085820843118,0.01,0.07484411643942115
78,Lochgilphead,-5.4323449,56.03829,0.12769243218266016,0.01,0.04450764736046646
79,Helston,-5.274996,50.10159,0.10159753860432244,0.09675129824755,0.282681469014327
80,Redruth,-5.226666000000001,50.23302,0.12158579429445183,0.1081207773345318,0.31710310941930725
81,Ullapool,-5.161313,57.895419999999994,0.1462808775184706,0.1527094217787844,0.03929819665148432
82,Ballachulish,-5.133719999999999,56.673930000000006,0.02165398099386262,0.06647246801784354,0.011324646153127272
83,Fort William,-5.1052179,56.81981999999999,0.22142631026971063,0.21377331515980336,0.05910611639602741
84,Achnasheen,-5.078765799999999,57.578590000000005,0.022071352387014506,0.06439521240761567,0.010650823517351964
85,Newquay,-5.0737190000000005,50.4155,0.15056208421351938,0.12460272190040243,0.36700298299142387
86,Falmouth,-5.066269999999999,50.152570000000004,0.16766323934087035,0.13432999518516747,0.39645276697603365
87,Rothesay,-5.055793,55.83596,0.20869912944839009,0.01,0.09303688558463569
88,Truro,-5.051041000000001,50.2632,0.25802834755937165,0.18573038869676606,0.5520699107866569
89,Milford Haven,-5.0426971,51.71431,0.0983798603642666,0.2847632053153341,0.23608633276001065
90,Stranraer,-5.024055000000001,54.903369999999995,0.17111507926117572,0.2385135315688124,0.10581585658911995
91,Fishguard,-4.975989,51.99393,0.07296737247908716,0.22835012960850506,0.17082776250299345
92,Inchnadamph,-4.974295,58.15221,0.022071352387014506,0.06439521240761567,0.010650823517351964
93,Haverfordwest,-4.971319,51.800470000000004,0.12530307077974046,0.312829621544805,0.23781401091834733
94,Dunoon,-4.926214,55.95097,0.1853289841762142,0.01,0.08432991142461276
95,Pembroke,-4.908637000000001,51.674040000000005,0.17721774767061232,0.3966295070948804,0.3042613796462308
96,Girvan,-4.8542179,55.240159999999996,0.16750896187720526,0.2349239504138633,0.07866772155733043
97,Wadebridge,-4.836456,50.51665,0.11489941885969984,0.10431751371555267,0.3055885473486718
98,Invergarry,-4.800261,57.07095,0.02165398099386262,0.06647246801784354,0.011324646153127272
99,St Austell,-4.7834252,50.340379999999996,0.12975582465567687,0.11276795569626474,0.3311726636391251
100,Greenock,-4.7719830000000005,55.956480000000006,0.33645631791321706,0.01,0.1027617261702538
101,Helensburgh,-4.734014,56.00232,0.20991840088714897,0.01,0.06745221961902585
102,Bodmin,-4.7188629,50.4715,0.10228620419841841,0.09714301672420847,0.28386741539237736
103,Tenby,-4.703579,51.672740000000005,0.12530307077974046,0.312829621544805,0.23781401091834733
104,Camelford,-4.682364,50.62206,0.06235058501833941,0.07442731835950345,0.21509455476473685
105,Irvine,-4.6696364,55.61156999999999,0.34922312920411197,0.01,0.14539166645939838
106,Cardigan,-4.660864,52.0837,0.08871626057104708,0.2682730057052656,0.2218220864048336
107,Holyhead,-4.633038,53.30944,0.09662258759759829,0.11018724524748245,0.2697455840476097
108,Ayr,-4.629179,55.45856,0.37784101317075763,0.01,0.16270544398398534
109,Dumbarton,-4.564554,55.94529,0.31480691533991917,0.01,0.09672061422564548
110,Bude,-4.543678,50.826640000000005,0.10575395745097271,0.11190459529934793,0.30435903469794356
111,Isle of Man,-4.5126330999999995,54.27697,0.31053640237152164,0.7943061685856527,0.16153371329388236
112,Kilmarnock,-4.498792,55.61472,0.3286793779620029,0.01,0.13773771698104634
113,Newton Stewart,-4.483164,54.9603,0.13973725825576175,0.19740914599412007,0.06447049018844254
114,Liskeard,-4.4647190000000005,50.45552,0.12461289686745267,0.10390517861744729,0.28187033417505797
115,Altnaharra,-4.442655,58.28023,0.022071352387014506,0.06439521240761567,0.010650823517351964
116,Pwllheli,-4.417633900000001,52.888819999999996,0.07684102960254625,0.10395578278040489,0.2651520031353058
117,Lairg,-4.402414,58.022059999999996,0.022071352387014506,0.06439521240761567,0.010650823517351964
118,Launceston,-4.360451599999999,50.636829999999996,0.11292803077808919,0.08809426499356181,0.2564719677998931
119,Carmarthen,-4.312131,51.857620000000004,0.1702185958583792,0.3853315821931101,0.29530292610085845
120,Llangefni,-4.311401999999999,53.255790000000005,0.11925569864290719,0.14469053265759516,0.3887075206906749
121,Caernarfon,-4.273911,53.13955,0.10629126375616385,0.13469959075516644,0.37572480102543915
122,Cumnock,-4.265828900000001,55.45355,0.24813760651527297,0.01,0.10336121330514314
123,Aberaeron,-4.2581619,52.24279,0.07856808232477708,0.2509559097430585,0.20684256348806174
124,Alness,-4.256825,57.69595,0.2114186983821868,0.19902306112046697,0.0543214201720014
125,Glasgow,-4.251806,55.86424,0.7123392073760325,0.01,0.2806771887747424
126,Dalwhinnie,-4.242783,56.9366,0.02165398099386262,0.06647246801784354,0.011324646153127272
127,Inverness,-4.224721,57.47776999999999,0.38188486280898937,0.3202262017005137,0.09363730849788188
128,Saltash,-4.21643,50.409209999999995,0.12424997470170557,0.08923873002853662,0.24063870508490853
129,Bideford,-4.206666,51.01668,0.13501650624908268,0.3285088836877641,0.2739269599927696
130,Invergordon,-4.1728819999999995,57.688109999999995,0.2147150169102385,0.2013667764219491,0.055081674804181274
131,Llanelli,-4.160248,51.680890000000005,0.19921072046854302,0.4321302308544953,0.33241093696695373
132,Plymouth,-4.1426565,50.37546,0.31883372911851565,0.1793277200504322,0.49390544465545305
133,Tavistock,-4.141654,50.551120000000004,0.14784090460023008,0.10016093190815978,0.27134423811742575
134,Porthmadog,-4.1333839999999995,52.92784,0.10409649880074978,0.12345073419502266,0.3167961617551611
135,Bangor,-4.129263,53.22739,0.1638836312109423,0.17908273650886616,0.483534771626593
136,Tywyn,-4.087249,52.58701,0.062254354734941036,0.01,0.17657082964018675
137,Aberystwyth,-4.08292,52.4153,0.14237383159739989,0.3034757695962267,0.4327490381065697
138,Lampeter,-4.0785089999999995,52.1129,0.09024714039164516,0.27088533593011627,0.22408178748604995
139,Barnstaple,-4.058338,51.07816,0.1835225636900623,0.40680662294830067,0.3416555718247514
140,Tain,-4.05523,57.8115,0.1421130368942932,0.14974604558746807,0.038336936350408045
141,Okehampton,-4.004263,50.73831,0.10898336468973005,0.07851852665511586,0.19352114454311986
142,Llandeilo,-3.9914300000000003,51.88469,0.1396054563230604,0.33591631577855063,0.25612012284663765
143,Motherwell,-3.9810968,55.78321,0.42108305102025606,0.01,0.1721643918792683
144,Golspie,-3.976086,57.97341,0.022071352387014506,0.06439521240761567,0.010650823517351964
145,Airdrie,-3.9625660000000003,55.86626999999999,0.3602853496230178,0.01,0.14951309857794692
146,Swansea,-3.9436459999999998,51.62144,0.32206214795919524,0.6304351453783917,0.48965267649232347
147,Stirling,-3.9369029,56.116519999999994,0.4084985807767832,0.01,0.12286460768064197
148,Tregaron,-3.934385,52.22,0.0873548992083767,0.2659499458629467,0.21981260812851106
149,Tregaron,-3.934385,52.22,0.0873548992083767,0.2659499458629467,0.21981260812851106
150,Castle Douglas,-3.9314139999999997,54.940419999999996,0.17489457538883565,0.01,0.06616866460145678
151,Dolgellau,-3.8844,52.74215,0.0483636352241683,0.08358684349360165,0.22023050240847789
152,Aberfeldy,-3.866969,56.62175,0.22024302737730667,0.01,0.05635663929793659
153,Machynlleth,-3.853485,52.59027,0.09248644233628979,0.17017215871418004,0.20136410159071988
154,Brora,-3.8525480000000005,58.012159999999994,0.1169576377766314,0.1318603062921821,0.03253515823315816
155,Llandudno,-3.827609,53.324059999999996,0.11296773285698103,0.16176074203643198,0.4620099971837033
156,Llandudno,-3.827609,53.324059999999996,0.11296773285698103,0.16176074203643198,0.4620099971837033
157,Aviemore,-3.823812,57.19449,0.18794648434865455,0.18233408318283792,0.04890784763808206
158,Dalbeattie,-3.8225269999999996,54.934219999999996,0.11685905215984134,0.16044027981235282,0.050479867800856455
159,Falkirk,-3.7839131,56.00188000000001,0.3916461804437041,0.01,0.16119714848060906
160,Kingsbridge,-3.777493,50.28395,0.16866115215653119,0.08283185470473406,0.1688890479678956
161,Pitlochry,-3.729711,56.70436,0.1562752563422751,0.01,0.0398156551752758
162,Colwyn Bay,-3.72764,53.29318000000001,0.10530875347988539,0.1482933893802953,0.4226931254800593
163,Totnes,-3.685797,50.43374,0.17629387221405698,0.08549771948144767,0.17465407275065922
164,Grantown-on-Spey,-3.609628,57.33041,0.12955135685818195,0.14081456598001715,0.03543974199429721
165,Dumfries,-3.60512,55.070859999999996,0.2884818474428879,0.01,0.1462962201094563
166,Whitehaven,-3.589233,54.5497,0.16464818114320728,0.3094350394123092,0.27415689964365453
167,Dartmouth,-3.578807,50.35252,0.135266625779004,0.06994117606733796,0.1637000255144174
168,Bridgend,-3.576945,51.504290000000005,0.2467521430166499,0.5088708498201199,0.3749199804760425
169,Paignton,-3.564235,50.43508,0.25366916034971265,0.12101468240535296,0.25146074002601543
170,Workington,-3.5427519999999997,54.64357,0.17320069226176352,0.42456978867838135,0.23460141417190813
171,Llanidloes,-3.5401949999999998,52.447790000000005,0.07409395346173743,0.15072992819722336,0.19348639485830574
172,Exeter,-3.533899,50.71841,0.4038324641978014,0.19190346520844537,0.4047602117099723
173,Torquay,-3.525315,50.46192,0.2787030101951859,0.11715523108997829,0.21777930865359818
174,Thurso,-3.5220800000000003,58.59356999999999,0.19589272849187586,0.18798394190531645,0.05074054944371939
175,Livingston,-3.518068,55.90071,0.38549500294212014,0.01,0.15890541503452857
176,Rhyl,-3.4916339999999995,53.319140000000004,0.10121196411382602,0.14796872963761165,0.4217453396366539
177,Tiverton,-3.491207,50.90205,0.16638884549374908,0.2984794680429906,0.20491965553152727
178,Tiverton,-3.491207,50.90205,0.16638884549374908,0.2984794680429906,0.20491965553152727
179,Minehead,-3.481152,51.20428,0.11172933534824521,0.262536772304745,0.19793533748463726
180,Dunfermline,-3.452151,56.071740000000005,0.36643528214288024,0.01,0.1518043681833644
181,Perth,-3.4308381000000003,56.39499,0.25423039269149644,0.01,0.0766009173776568
182,Prestatyn,-3.4076129999999996,53.33651,0.08145586448705154,0.13074347670955597,0.37145757151754644
183,Builth Wells,-3.4045919999999996,52.15002,0.11510473229766387,0.2963676179500332,0.22476080904723142
184,Braemar,-3.3979439,57.00646999999999,0.022071352387014506,0.06439521240761567,0.010650823517351964
185,Brecon,-3.391463,51.94895,0.1402724660130289,0.33699299272286926,0.2569738513386318
186,Merthyr Tydfil,-3.381646,51.74873,0.24716396249885306,0.6081554603558333,0.4939057666975151
187,Llandrindod Wells,-3.377742,52.2417,0.09514618162778452,0.19744609060140084,0.2139288178962103
188,Corwen,-3.369242,52.98005,0.036743664445902775,0.08979284029884718,0.2519053967167653
189,Cockermouth,-3.367985,54.66326,0.11428187895370971,0.3411392345591868,0.21107987661508165
190,Lockerbie,-3.349008,55.122240000000005,0.23202192835894278,0.01,0.18383308923813194
191,Blairgowrie,-3.3378318,56.58941,0.2042940109565971,0.01,0.050508686254504206
192,Elgin,-3.318485,57.64945,0.34375473693026565,0.29311530246280443,0.08484307196454696
193,Newtown,-3.313106,52.51211,0.09674152951400021,0.01,0.18448629859282764
194,Ruthin,-3.3103108,53.114869999999996,0.07662354757436617,0.12936297177821424,0.3674272678192022
195,Ruthin,-3.3103108,53.114869999999996,0.07662354757436617,0.12936297177821424,0.3674272678192022
196,Sidmouth,-3.2375599999999998,50.67865,0.17096913630908608,0.07945606497733795,0.17018009631850092
197,Barrow-in-Furness,-3.2188939999999997,54.10896999999999,0.19706521745086883,0.3646133358484554,0.34458221256800187
198,Peebles,-3.1936419999999996,55.65306999999999,0.20784276591392556,0.01,0.08206726536178487
199,Edinburgh,-3.1882669999999997,55.95325,0.6644481130731378,0.01,0.24332932388641407
200,Cardiff,-3.17909,51.48158,0.4524622605602878,0.6482130501416654,0.5271123811412117
201,Llangollen,-3.1716599999999997,52.96921,0.049400287847756234,0.10509574330105721,0.307944668716919
202,Kirkcaldy,-3.158137,56.11682,0.429251672107767,0.01,0.11907676073641224
203,Welshpool,-3.146407,52.66035,0.11546483406011955,0.01,0.29464720277163436
204,Mold,-3.1419029999999997,53.1672,0.12189744803509978,0.1697208404264953,0.5036002301184346
205,Mold,-3.1419029999999997,53.1672,0.12189744803509978,0.1697208404264953,0.5036002301184346
206,Taunton,-3.106849,51.01534,0.2677042255723565,0.01,0.292405901076805
207,Wick,-3.093716,58.43894,0.18506436155306782,0.18028486517211387,0.04824312207008572
208,John o' Groats,-3.0688997000000002,58.63734,0.022071352387014506,0.06439521240761567,0.010650823517351964
209,Dalkeith,-3.066606,55.893119999999996,0.3397940041136152,0.01,0.13101321434664998
210,Oswestry,-3.056412,52.85715,0.09823799947187851,0.15559746261296983,0.4608410308749158
211,Blackpool,-3.0356748,53.81751,0.23769108155751653,0.518781599362153,0.5787508466164683
212,Birkenhead,-3.023009,53.389990000000004,0.1947529541995713,0.24376092566536883,0.6750458842817081
213,Cupar,-3.010137,56.32023,0.19611222860943722,0.01,0.0846960994772402
214,Southport,-3.010113,53.64571,0.1539695333410791,0.22144658569597905,0.5883695440462829
215,Bridgwater,-3.003632,51.12789,0.3158924659228728,0.01,0.33578423727189405
216,Langholm,-2.998913,55.153059999999996,0.09485678123454205,0.06504195327387487,0.11635222782494832
217,Newport,-2.997664,51.58415,0.3187216517411829,0.4625317462743448,0.37318792764688413
218,Axminster,-2.9949369999999997,50.78273,0.1802981928647695,0.01,0.1970763591985195
219,Wrexham,-2.9924939999999998,53.043040000000005,0.15219595272563483,0.19672939915240253,0.5853699288146877
220,Liverpool,-2.9915726,53.40837,0.31958339599814195,0.3593497381671252,1.0
221,Weston-super-Mare,-2.977255,51.347409999999996,0.26648565948158737,0.2667573848789526,0.3070418301024205
222,Dundee,-2.9707209999999997,56.462019999999995,0.4680729567635728,0.01,0.1341410470688557
223,Kirkwall,-2.9622491,58.984669999999994,0.19614168376035723,0.1881609515805523,0.050797967862011746
224,Ambleside,-2.961333,54.428740000000005,0.18105697764498657,0.4968196108510049,0.2762661184663091
225,Orkney Islands,-2.9605206,58.980940000000004,0.20230819940265943,0.19254540561456057,0.05222019755297573
226,Lyme Regis,-2.936639,50.725159999999995,0.1608075170539145,0.01,0.18083534471205384
227,Carlisle,-2.932931,54.892469999999996,0.29511120211097613,0.5714857732436197,0.3811171641261734
228,Chester,-2.893075,53.19339,0.19587763741231726,0.23566793285751228,0.7032581953102476
229,Forfar,-2.889062,56.64356,0.26028543192310877,0.01,0.06297710634106969
230,Morecambe,-2.864968,54.074169999999995,0.1583926226620638,0.3474605526215411,0.3091053279536664
231,Selkirk,-2.838524,55.55066,0.24696109149279916,0.01,0.11024084869115927
232,Galashiels,-2.814449,55.62373,0.23874335634962057,0.01,0.09238888855587586
233,Lancaster,-2.8007399,54.046569999999996,0.2504148863034413,0.45349944903751677,0.3575278356662515
234,St Andrews,-2.7967214,56.339780000000005,0.2907128382462729,0.01,0.0799738253014176
235,Hawick,-2.780914,55.42706,0.1866216863958267,0.01,0.13686230494876173
236,Bridport,-2.758301,50.733579999999996,0.16202418411667238,0.01,0.2024298815930627
237,Shrewsbury,-2.7553267999999997,52.7073,0.24263883457160618,0.01,0.5693595021253158
238,Penrith,-2.752708,54.6641,0.2721085732269723,0.5085657243174609,0.3013696617582489
239,Kendal,-2.74629,54.32801,0.22014467041407842,0.7182955536885084,0.2810132999429057
240,Street,-2.7429189999999997,51.12468,0.11993954180523513,0.01,0.1844657747762035
241,Glastonbury,-2.718454,51.14743,0.14886676479222957,0.01,0.2143549987451285
242,Hereford,-2.715974,52.0564,0.23241385474662576,0.3152959546746248,0.3988652457628153
243,Ludlow,-2.7139129,52.36775,0.1263960416715051,0.01,0.3686932118017346
244,Preston,-2.70309,53.7632,0.35349755936959854,0.600085053914984,0.4764014837137811
245,Whitchurch,-2.682045,52.96872,0.07691362374637975,0.2171160724666349,0.341902970018978
246,Wells,-2.6445979,51.20935,0.18497709352161432,0.01,0.22060710576373396
247,Yeovil,-2.633308,50.94206,0.24292801236472367,0.01,0.27706770516895296
248,Wigan,-2.6325074,53.54506,0.28124232264101323,0.01,0.7715736316041685
249,Warrington,-2.5969501,53.39004,0.2612280221377522,0.01,0.8643030306569018
250,Arbroath,-2.591543,56.55911,0.28752015500066436,0.01,0.06392704306376877
251,Bristol,-2.58791,51.45451,0.5199087114066836,0.01,0.5256368356363565
252,Guernsey,-2.5852779999999997,49.46569,0.01,0.01,0.058319512068024416
253,Ross-on-Wye,-2.582446,51.91445,0.20676255940964067,0.01,0.28602674529921795
254,Jedburgh,-2.5549369,55.47772,0.13340464519717832,0.07443556495837096,0.12658631483187732
255,Sedbergh,-2.5281740000000004,54.32363,0.11820609315207137,0.437287396150806,0.1434302476099152
256,Sedbergh,-2.5281740000000004,54.32363,0.11820609315207137,0.437287396150806,0.1434302476099152
257,Nantwich,-2.524102,53.067190000000004,0.12396464045867071,0.2498860122981246,0.3950526030126771
258,Banff,-2.524038,57.666509999999995,0.1862328979821158,0.1811157062106217,0.04851263037927809
259,Dunbar,-2.516737,56.00209,0.2811830194118153,0.01,0.14309571330628468
260,Cinderford,-2.5009579,51.8253,0.21102995229295535,0.01,0.22119114942723866
261,Banchory,-2.4909599,57.05386,0.22559207846370613,0.20910047551112432,0.057590332981525834
262,Blackburn,-2.487529,53.748580000000004,0.266552171082846,0.01,0.4802007552541487
263,Market Drayton,-2.483485,52.90355,0.07672737065446993,0.01,0.27832817011996014
264,Telford,-2.4672611,52.67759,0.1953097544145377,0.01,0.5387085200821882
265,Montrose,-2.4661150000000003,56.70692,0.24526301191824187,0.2230867051001323,0.06212718770319373
266,Turriff,-2.4623,57.53893000000001,0.1971282497392106,0.18886240981672794,0.051025506963282286
267,Weymouth,-2.457621,50.61443,0.23791581621441757,0.01,0.24345074887239834
268,Crewe,-2.4438209,53.10041,0.15140302451575566,0.28551109629445093,0.5454470893917045
269,Fortuneswell,-2.4422189999999997,50.55919,0.11736247313884637,0.01,0.14364108173743265
270,Dorchester,-2.4411810000000003,50.71116,0.33654874404335317,0.01,0.2388790944947547
271,Alston,-2.438685,54.812169999999995,0.07969569854977364,0.07375667660804303,0.1333135149744353
272,Kelso,-2.432207,55.600030000000004,0.17458880448215636,0.08641832432868027,0.129924212501359
273,Wincanton,-2.416007,51.055690000000006,0.13698839864918474,0.01,0.18376751103274702
274,Clitheroe,-2.3930830000000003,53.8711,0.19714310527864887,0.641023420980608,0.21502548387178164
275,Sark,-2.3666256000000003,49.43007,0.01,0.01,0.058319512068024416
276,Bath,-2.3590167,51.38106,0.3544747030501315,0.01,0.4036243610710908
277,Kidderminster,-2.2496839,52.3886,0.1705894207791274,0.01,0.42400837464519525
278,Manchester,-2.2426305,53.48076,0.5287691494036989,0.4853284020271482,0.8818706923983058
279,Burnley,-2.2405035,53.78929,0.2556805421291227,0.37963668672892836,0.3797264682387977
280,Gloucester,-2.238156,51.86424,0.32865103009786206,0.01,0.4599617313025847
281,Newcastle-under-Lyme,-2.2273002,53.01321,0.14842977055381137,0.2699152745895366,0.4567230814251356
282,Worcester,-2.221575,52.19364,0.27924857752084026,0.01,0.5795396693410227
283,Trowbridge,-2.208853,51.31966,0.3406595091455069,0.01,0.3901067177131209
284,Shaftesbury,-2.198083,51.0046,0.1622724962081877,0.01,0.19020886455807048
285,Alderney,-2.1973557,49.715,0.01,0.01,0.05784342077845832
286,Stoke-on-Trent,-2.179404,53.002669999999995,0.24674554342510088,0.4183961595632762,0.5778796413040831
287,Colne,-2.176991,53.85564,0.1844965841270219,0.2962748587901571,0.24604408070602307
288,Blandford Forum,-2.165353,50.85691,0.13983028415298046,0.01,0.16365084823563034
289,Rochdale,-2.1561,53.60971,0.25283205731063246,0.2781353612044683,0.5912395610689014
290,Jersey,-2.13125,49.21444,0.01,0.01,0.05784342077845832
291,Wolverhampton,-2.12882,52.586969999999994,0.2384191456391226,0.01,0.5678515833673728
292,Stafford,-2.12066,52.80669,0.22890636461561842,0.01,0.5886553370002179
293,Macclesfield,-2.119287,53.25866,0.20703480841804142,0.32031358576092633,0.530925603998623
294,Hexham,-2.1121439,54.97266,0.27215074677005036,0.16146941222054115,0.26910882401575725
295,Aberdeen,-2.094278,57.149719999999995,0.5057701441145268,0.40830987048230993,0.12220989884979445
296,Dudley,-2.081112,52.51226,0.23219218295084448,0.01,0.5389603755703901
297,Cheltenham,-2.0782533,51.899390000000004,0.24833664661850754,0.01,0.5668577967041519
298,Bromsgrove,-2.061906,52.33559,0.18277661972202086,0.01,0.4957621194258804
299,Skipton,-2.0162787,53.96285,0.17195727192442684,0.37545388197271545,0.2637892704447794
300,Fraserburgh,-2.007631,57.69335,0.2075408124382708,0.19626584559447524,0.05342703429064975
301,Berwick,-2.005395,55.77024,0.20779966964228358,0.0982249677478758,0.1384526553563515
302,Poole,-1.987248,50.71505,0.28292163113044627,0.01,0.3448401236338663
303,Walsall,-1.9829189999999999,52.586209999999994,0.23630718404117776,0.01,0.5464762709839951
304,Cirencester,-1.968243,51.71849,0.28254029265756325,0.01,0.40536942633420003
305,Evesham,-1.9467700000000001,52.09215,0.15123741152845543,0.01,0.3839328077775743
306,Buxton,-1.91483,53.259080000000004,0.14908288883076187,0.30740720874795474,0.46719413701134105
307,Keighley,-1.9123580000000002,53.8678,0.21669741194029474,0.4453126254566214,0.3268136124555385
308,Birmingham,-1.8904009999999998,52.48624,0.4342212306290334,0.01,0.9079588665857331
309,Bournemouth,-1.880769,50.719159999999995,0.3269864086373507,0.01,0.4673347360514526
310,Halifax,-1.8575400000000002,53.727019999999996,0.2249251540480703,0.40993237307414926,0.30003475192008383
311,Salisbury,-1.794472,51.06878,0.24224145152607438,0.01,0.3649996583756024
312,Ringwood,-1.7888169999999999,50.84495,0.18913871466794324,0.01,0.3452697019425095
313,Huddersfield,-1.7850351000000002,53.645790000000005,0.30767168162761455,0.5446456178269083,0.4314428136864108
314,Peterhead,-1.784066,57.50812,0.2539487822808908,0.22926237432956567,0.06413045198001026
315,Swindon,-1.7797176,51.55577,0.27863617457107315,0.01,0.4718560440282272
316,Bradford,-1.759398,53.79598000000001,0.3239008849454356,0.6127036754086328,0.4866345567864278
317,Ashbourne,-1.7321790000000001,53.016630000000006,0.1881830471584602,0.3078352259515712,0.542296685588678
318,Marlborough,-1.7270619999999999,51.42007,0.16492436640469368,0.01,0.3127769947388708
319,Stratford-upon-Avon,-1.7082979999999999,52.19173,0.1757942149099662,0.01,0.48057050618514163
320,Alnwick,-1.7062990000000002,55.41274,0.1785842360599646,0.11711827115496592,0.19238012944624636
321,Otley,-1.691786,53.90583,0.164330601919466,0.34982660348674305,0.2545414966865676
322,Bishop Auckland,-1.6787880000000002,54.663819999999994,0.21175976300345034,0.13948587244982433,0.2612409994250904
323,Burton upon Trent,-1.6371358999999999,52.81403,0.1990422890806734,0.01,0.504405395158766
324,Newcastle,-1.61778,54.97825,0.5116841837190516,0.27500983572702636,0.46553688127004994
325,Durham,-1.5848520000000001,54.77525,0.3451810779330955,0.19608626920170838,0.3289969392355494
326,Ashington,-1.5659829,55.18298000000001,0.2093921303388564,0.13172141553565272,0.21764397109765968
327,Darlington,-1.559458,54.52361,0.2352591460120789,0.17786084627451018,0.3743923966516829
328,Leeds,-1.5490774,53.80076,0.45267554556304623,0.7830682051018321,0.5824564216054462
329,Harrogate,-1.5418120000000002,53.99211999999999,0.31817732908502916,0.5402123658345144,0.3694362905009647
330,Leamington Spa,-1.5200789,52.28519,0.23574511831550196,0.01,0.5813005060264012
331,Coventry,-1.519693,52.40682,0.285897319673566,0.01,0.6295936097392709
332,Blyth,-1.510277,55.12696,0.20796191300251007,0.13759565630721068,0.25756210767697507
333,Wakefield,-1.505924,53.6833,0.2946891524057126,0.26292424912181234,0.3877701759918452
334,Andover,-1.4919233,51.2112,0.14486852016127696,0.6796393409196313,0.3939417015870511
335,Witney,-1.4850543999999999,51.785940000000004,0.18368034596884172,0.01,0.39186730173804907
336,Barnsley,-1.479726,53.55263000000001,0.21255303921973878,0.25432856750364924,0.545256386609368
337,Derby,-1.4746186000000001,52.92253,0.27688874123656304,0.20836486558031247,0.5980671595568743
338,Sheffield,-1.470085,53.381130000000006,0.33739780935863306,0.3884938476532376,0.787887043617696
339,Nuneaton,-1.465382,52.52049,0.23403405513737666,0.01,0.5359586080785756
340,Northallerton,-1.429959,54.337959999999995,0.15987038371088227,0.4546407488545608,0.2158928142091919
341,South Shields,-1.427406,54.99941999999999,0.2890952442268741,0.17797627490624598,0.33615413807957806
342,Chesterfield,-1.421629,53.23505,0.2385289726439394,0.2332963279381823,0.4690480292908041
343,Southampton,-1.4043508999999998,50.9097,0.36911696919894177,0.4709268573660953,0.6262594088582594
344,Wetherby,-1.384816,53.92706,0.17541753302530688,0.3292152160997887,0.18554557170583721
345,Sunderland,-1.383801,54.90687,0.32670349248495223,0.1966941594817932,0.3725844010292636
346,Rotherham,-1.3635008999999998,53.4326,0.2242331488462234,0.2648981225910456,0.533971038583132
347,Castleford,-1.345968,53.72346999999999,0.24561350795378079,0.21941778260162897,0.32191113830348284
348,Thirsk,-1.341377,54.23385,0.16866573842524718,0.3201022367757909,0.1455144824453059
349,Banbury,-1.339775,52.0629,0.14088264692286037,0.01,0.5098177866524817
350,Stockton,-1.3289821000000002,54.57046,0.239139922448774,0.18013318714104937,0.3793064106776306
351,Newbury,-1.3231138999999998,51.40141,0.27293050075264386,0.5034992503540746,0.37085428653967595
352,Isle of Wight,-1.304734,50.69385,0.2449965035117504,0.6401150788852171,0.35313334910737265
353,Isle of Wight,-1.304734,50.69385,0.2449965035117504,0.6401150788852171,0.35313334910737265
354,Abingdon,-1.2879528999999998,51.67078,0.1576231335689973,0.4287303566034549,0.45333428112351537
355,Shetland Islands,-1.2659409,60.52965,0.1169576377766314,0.1318603062921821,0.03253515823315816
356,Rugby,-1.265032,52.37088,0.22002686839529478,0.01,0.49254286505029937
357,Oxford,-1.2577263,51.75202,0.3155945027795977,0.6117285052446905,0.6512041831569706
358,Middlesbrough,-1.234956,54.57423000000001,0.29864140496045183,0.2149735477071678,0.45464986949229824
359,Hartlepool,-1.212926,54.69174,0.23826450099254096,0.16071311809311772,0.3373099436282167
360,Loughborough,-1.206166,52.7721,0.2891819507341825,0.01,0.46357540572612715
361,Mansfield,-1.198674,53.1472,0.21189676100024898,0.129817707348093,0.4529755124380764
362,Nottingham,-1.1581086,52.95478000000001,0.3860096617178525,0.01,0.7165582782933351
363,Bicester,-1.1535898999999998,51.8996,0.11315959254736015,0.01,0.42772446185779495
364,Leicester,-1.1397591999999999,52.636880000000005,0.3750562247618188,0.01,0.5486700321132676
365,Doncaster,-1.128462,53.522819999999996,0.26778798274687127,0.2743795021521334,0.48224705228630677
366,Worksop,-1.122745,53.3093,0.16235197940175206,0.19809528689814346,0.37102750498332465
367,Basingstoke,-1.0923964,51.26654,0.2943716417563238,0.8256109615129914,0.21293878295909124
368,Portsmouth,-1.0879769,50.81977,0.32547789366759394,0.8963850076699066,0.4986088430536746
369,York,-1.0872979,53.95997,0.37851350858249494,0.31225317854396545,0.4286801172299656
370,Selby,-1.067189,53.783519999999996,0.19788583202790028,0.18940103618176649,0.23551405666102415
371,Helmsley,-1.0562636,54.24651,0.0717086943737039,0.22330081642340704,0.12255858978666202
372,Towcester,-0.9896879999999999,52.13511,0.11714830566577786,0.01,0.44960334219519177
373,Reading,-0.9781303,51.45426,0.39183549645864585,0.5554201690097937,0.35009682476269954
374,Retford,-0.9455030000000001,53.32136,0.12313368931247194,0.2861282349270746,0.28883060375004543
375,Petersfield,-0.93899,51.00759,0.15356976258047192,0.5526215834656079,0.25865148617325445
376,Northampton,-0.9026559999999999,52.24048,0.2661921550064815,0.01,0.6463823122206771
377,Melton Mowbray,-0.887126,52.7664,0.15159043932300298,0.01,0.3630313321810001
378,Aylesbury,-0.8084,51.81561,0.20339975168423113,0.01,0.5984639683827427
379,Newark-on-Trent,-0.80657,53.070040000000006,0.22801872253113858,0.01,0.4403166207369826
380,Malton,-0.7978970000000001,54.13684,0.1606711791532053,0.1520783087720778,0.21997448743923922
381,Chichester,-0.774936,50.83761,0.22685567272840051,0.653329952854156,0.272331964965674
382,Gainsborough,-0.774465,53.400580000000005,0.13813518921109819,0.1869862536105234,0.2525989703795693
383,Milton Keynes,-0.7594171,52.040620000000004,0.28073321600210244,0.01,0.5845609451692111
384,Aldershot,-0.7557509,51.24837,0.32383477961911983,0.9467461431528137,0.24568365935059922
385,High Wycombe,-0.748229,51.628609999999995,0.26331413207132814,0.3774740293974831,0.3570974675171761
386,Midhurst,-0.737274,50.9869,0.13633016692092678,0.582537469779202,0.2732076519063336
387,Kettering,-0.7302489999999999,52.39632,0.20860370618959848,0.01,0.42238305458658604
388,Wellingborough,-0.693964,52.30242,0.19993255387344783,0.01,0.34718078250104917
389,Corby,-0.6842333,52.4923,0.15863174693718182,0.01,0.49155040277970286
390,Bognor Regis,-0.673061,50.783,0.19187812953048178,0.5456449071312041,0.31425561687343373
391,Scunthorpe,-0.654413,53.58865,0.2120140020063721,0.2939209043118405,0.3711306808331786
392,Grantham,-0.643582,52.912519999999994,0.17648045421147068,0.01,0.3930246945727484
393,Whitby,-0.613347,54.48633,0.1505789096888236,0.11477451025513215,0.2876067671194176
394,Slough,-0.5950406,51.51054,0.3677027071908963,0.39472688944492634,0.24584539020053478
395,Guildford,-0.570409,51.23622,0.36018389603120843,0.8127908606114387,0.16553110280567687
396,Woking,-0.5600349,51.31677,0.4597145157214686,0.47799041423683425,0.19649639553604628
397,Lincoln,-0.540579,53.23069,0.23264935147433347,0.39968739158737765,0.5947986862326473
398,Bedford,-0.46677820000000003,52.13864,0.33883755414432953,0.01,0.32116477544023936
399,Heathrow,-0.4542955,51.47002,0.515900073660074,0.01,0.2316821847454603
400,Driffield,-0.443377,54.006,0.08851239778837676,0.19536205040516189,0.30662011633275843
401,Beverley,-0.435093,53.84196,0.16976205294702687,0.29645834987566366,0.47058826109865226
402,Luton,-0.4200255,51.87867,0.35564961384822646,0.01,0.3519543173150719
403,Scarborough,-0.399752,54.28311,0.22291784173934168,0.3053459783723758,0.3199228693062395
404,Worthing,-0.372882,50.81787,0.27809108448942516,0.7263135326052544,0.38243173915273687
405,Dorking,-0.332378,51.2322,0.39879150848788575,0.01,0.13607409701381276
406,Hull,-0.3274198,53.767619999999994,0.2734433443130506,0.4004382229650878,0.6392332755330401
407,Horsham,-0.325858,51.06288,0.2722420781571285,0.5652945868648546,0.14257089376687804
408,Biggleswade,-0.26421999999999995,52.086940000000006,0.22968875353166193,0.01,0.15967176989519527
409,Peterborough,-0.2405299,52.5695,0.2910028372666361,0.01,0.48371929553655485
410,Welwyn Garden City,-0.208661,51.80317,0.4917950017408429,0.01,0.3415398767524651
411,Bridlington,-0.198802,54.08535,0.11917443363539516,0.23351380479613684,0.34324943706575456
412,Stevenage,-0.19661199999999998,51.90376,0.32307074169877437,0.01,0.281533958647928
413,Crawley,-0.18722750000000002,51.109140000000004,0.32221806911616996,0.305038108153699,0.22064162081221558
414,Huntingdon,-0.182552,52.33146,0.1770958605858861,0.23658077436624736,0.2711500321327667
415,Hove,-0.168749,50.82793,0.2455995062200469,0.625312676519615,0.2602142819503299
416,Spalding,-0.1537024,52.7901,0.20141562629293944,0.01,0.2973605914917028
417,Brighton,-0.137163,50.82253,0.4338062950970083,1.0,0.4222690971876214
418,London,-0.12775830000000002,51.50735,1.0,0.01,0.6858345618970755
419,Grimsby,-0.08078400000000001,53.56746999999999,0.21955571429491008,0.309980499450828,0.42548551452910016
420,Boston,-0.026576999999999996,52.97894,0.19123858079889383,0.4136715645305878,0.48178062451043285
421,Royston,-0.024066,52.048140000000004,0.15719844361150503,0.20737906534767456,0.21399448212588987
422,Louth_Lincs,-0.007711,53.36596,0.12232185587913312,0.23023520543797898,0.3382863477921338
423,Lewes,0.00878,50.873870000000004,0.2607708127966589,0.28500696986289537,0.20548037589053997
424,Chatteris,0.054012,52.4561,0.12127755562813249,0.19711777593321161,0.16027185462989102
425,Uckfield,0.095913,50.966409999999996,0.29065007659306685,0.29183695857502484,0.17909451790273112
426,Cambridge,0.12181700000000001,52.20534,0.4040000865799846,0.45515855660163157,0.4819101958947196
427,Bishop's Stortford,0.15365020000000001,51.87216,0.3357919314895265,0.01,0.17385992623030336
428,Wisbech,0.158797,52.66631999999999,0.11833840502482891,0.22772921959108655,0.28524560917615643
429,Sevenoaks,0.190898,51.27241,0.4197290246548039,0.01,0.15461940274641203
430,Tunbridge Wells,0.26369499999999996,51.13238,0.3320299224356278,0.01,0.2465823333229124
431,Eastbourne,0.29047199999999995,50.768029999999996,0.29758338729300754,0.3036681818919315,0.21960477467977704
432,Brentwood,0.30717490000000003,51.620470000000005,0.5055823765891931,0.01,0.42084605609333536
433,Skegness,0.337881,53.1464,0.09601401137066447,0.22587150423850125,0.3683148402434534
434,Downham Market,0.385472,52.606609999999996,0.09515948757220244,0.18796871883444968,0.24381779457912148
435,King's Lynn,0.4022963,52.75168000000001,0.17219838533088655,0.28187281765354344,0.37073698026789775
436,Bexhill,0.4662071,50.849909999999994,0.19599764196373146,0.2289408269566041,0.18779923358715714
437,Chelmsford,0.4685497,51.73559,0.27724126470595306,0.01,0.30872339477003646
438,Mildenhall,0.5156095,52.347570000000005,0.16951394895513439,0.2429945442877159,0.3444640396981324
439,Medway,0.5417860999999999,51.404740000000004,0.2974674927147152,0.01,0.2295219843628815
440,Braintree,0.5509269,51.88009,0.21643034137775516,0.21405357202248643,0.2675011383235868
441,Gillingham,0.551438,51.38632,0.4575423000778367,0.01,0.33439405591889165
442,Hastings,0.573453,50.85426,0.2594262206983618,0.29674509621407363,0.24645089060397785
443,Maldon,0.6714479999999999,51.731809999999996,0.23133758713045524,0.01,0.28313936255261296
444,Southend,0.7077123000000001,51.54593,0.3245718633903882,0.01,0.3523882367292948
445,Bury St Edmunds,0.7104931999999999,52.24292,0.2491664852392359,0.34184533354211394,0.48875752763679176
446,Thetford,0.751657,52.412859999999995,0.11236991474740862,0.21822756796106454,0.34370571973935965
447,Ashford,0.8750190000000001,51.14647,0.22345982263474942,0.01,0.3205369063904594
448,Faversham,0.889358,51.31599,0.22950744461334446,0.01,0.2646865609164886
449,Colchester,0.891874,51.89593,0.26331538819092776,0.2935920147257132,0.46593927718138944
450,New Romney,0.939473,50.98512,0.13661896246170005,0.01,0.2016998846628363
451,Canterbury,1.0789089,51.280229999999996,0.2693931978338595,0.01,0.4342531207217318
452,Ipswich,1.14822,52.056740000000005,0.22941089024002237,0.3121494785528833,0.5635410376122295
453,Clacton,1.153035,51.78953,0.13385470644341657,0.1918323837183194,0.32163754345037626
454,Folkestone,1.169456,51.0814,0.21447475271244573,0.01,0.3103572163571602
455,Sheringham,1.2109589,52.944419999999994,0.058734440340829065,0.1688643283982356,0.28190218941773076
456,Harwich,1.260297,51.93473,0.08739105023347139,0.16334048051164804,0.2900072170875491
457,Norwich,1.297355,52.63089,0.2994346460638498,0.4308759847790301,0.6420110983979996
458,Cromer,1.301866,52.93145,0.09381593508652557,0.21542514039441135,0.36245366362511666
459,Cromer,1.301866,52.93145,0.09381593508652557,0.21542514039441135,0.36245366362511666
460,Dover,1.3134027,51.12788,0.19160312323224785,0.01,0.28444466356923614
461,Felixstowe,1.3512549999999999,51.961729999999996,0.11255978977048799,0.2002519604499394,0.37950877749254547
462,Margate,1.3868339,51.38965,0.19655246041329136,0.01,0.35010999481135213
463,Ramsgate,1.4198950000000001,51.33555,0.2074101656625519,0.01,0.31641993142457014
464,Great Yarmouth,1.728047,52.59823000000001,0.1487038139784673,0.27025626903076744,0.4280910914925858
465,Lowestoft,1.7534490000000003,52.48114,0.16098064806655202,0.26105778092000237,0.4413993369286304
466,Swaffham,0.687481,52.64747,0.08472805922910745,0.17943841995142615,0.26139148625105285
467,Dereham,0.9378270000000001,52.681619999999995,0.2228984836248544,0.3412463810085463,0.5063321474528749
468,Ely,0.262363,52.39954,0.17727594685199224,0.2552828989022503,0.265791290153259
469,March,0.088622,52.551719999999996,0.12780667944517796,0.22121173738094949,0.2289512647064781
470,St Neots,-0.26510300000000003,52.23008,0.17925717542953284,0.01,0.23382417430242813
471,Banham,1.0402849,52.45125,0.12355519053550174,0.2317233005206362,0.36559445641503624
472,Holt,1.086747,52.90936,0.10455409670339808,0.21532221385892591,0.3389935166241572
473,Hunstanton,0.49103199999999997,52.93891,0.03758540914713598,0.16895392924157138,0.27292297497328694
474,Horncastle,-0.11245,53.20731,0.09824590703774073,0.18968970141060568,0.2563990988385721
475,Market Weighton,-0.6677465,53.86484,0.08737143461985765,0.1825340113861082,0.2660775116348969
476,Hawes,-2.1968695,54.303830000000005,0.01,0.1717205595514858,0.04082313990862206
477,Reeth,-1.9428115000000001,54.38946,0.1339987851876223,0.4170360277632509,0.23025686098751166
478,Aysgarth,-1.9967433999999997,54.29159,0.07124292275152509,0.20996129098753696,0.11462562256338621
479,Stanhope,-2.011302,54.74946,0.24458396162321827,0.14840257487144076,0.24650283580755739
480,Keswick,-3.134706,54.60128,0.11091445308164892,0.33485426761987863,0.2070024398145741
481,Oxenholme,-2.7243327999999996,54.30134,0.08468699304667932,0.3812044234686019,0.14433122088126604
