index,placename,longitude,latitude,dont_have,havent,havent_got
0,Dingle,-10.264013499999999,52.14094,0.5460023199052322,0.01,0.45893687916613624
1,Tralee,-9.6999325,52.27131,0.6512633052307862,0.3561877271154165,0.3351776128552505
2,Killarney,-9.5044265,52.059940000000005,0.5974402983599972,0.01,0.47833766058312815
3,Bantry,-9.4539805,51.68035,0.44341710394469547,0.01,0.5579557379867859
4,Mayo,-9.4289369,54.01526,0.7109176969064862,0.35545015677235975,0.27645490384702476
5,Ballycastle,-9.3724643,54.279669999999996,0.7412662670634311,0.3483876359430383,0.15609073774946153
6,Abbeyfeale,-9.2970823,52.386179999999996,0.57204901748478,0.3375005695698981,0.31387632747296623
7,Ennistymon,-9.2934951,52.940369999999994,0.6316596243218323,0.3375005695698981,0.2589173006533036
8,Galway,-9.0567905,53.270669999999996,0.7658332390392669,0.3678868875700962,0.28860618327744664
9,Claremorris,-9.0017356,53.72388,0.7379523293234489,0.361572693899874,0.28243691476850413
10,Clare,-8.9811351,52.90453,0.736543058964424,0.3612535362371117,0.282125082502802
11,Adare,-8.7925892,52.56363,0.6215453658970866,0.34917707499622225,0.3271862476011652
12,Charleville,-8.681017599999999,52.36206,0.556665665841983,0.01,0.3830183357635956
13,Mallow,-8.6539164,52.13898,0.4962724806697968,0.01,0.523997946604688
14,Limerick,-8.6267343,52.66384,0.6963702355794457,0.36682874072299804,0.3473071872466336
15,Loughrea,-8.5660931,53.19891,0.6316596243218323,0.3375005695698981,0.2589173006533036
16,Sligo,-8.476088800000001,54.27661,0.7926095390986414,0.37395087376117603,0.23363638366070905
17,Cork,-8.4756035,51.898509999999995,0.5167420835252767,0.01,0.5933669533045548
18,Nenagh,-8.19834,52.8635,0.7205404734317721,0.35762942836877576,0.2785841561845967
19,Roscommon,-8.1890955,53.627590000000005,0.7238348653709904,0.3583755097894276,0.27931311333319375
20,Tipperary,-8.161851400000002,52.47379,0.7356525107111871,0.01,0.34515946143658416
21,Donegal,-8.1096143,54.653830000000006,0.9225468050952976,0.3878632459320004,0.11864360811820221
22,Leitrim,-8.0020132,54.12469,0.8871382645704972,0.3801526918917703,0.11487681813137685
23,Athlone,-7.9406898,53.423930000000006,0.7177023721180894,0.356986683152319,0.2779561634383716
24,Longford,-7.7932573000000005,53.727630000000005,0.7730440623348408,0.369519877948016,0.2300286379280056
25,Offaly,-7.7122229,53.235690000000005,0.7372035911609267,0.3614031270595291,0.28227123987429964
26,Fermanagh,-7.6318728,54.343830000000004,0.8728511442958489,0.37704153251258654,0.11335694239536839
27,Enniskillen,-7.631533599999999,54.343819999999994,0.8905487545557667,0.3808953592523938,0.11523962889217855
28,Doon,-7.60964,54.185930000000006,0.85342208844051,0.37281066665641516,0.11129006327624452
29,Westmeath,-7.4653217000000005,53.534530000000004,0.8908561979733688,0.38096230804640224,0.11527233497861347
30,Strabane,-7.4633103,54.82739,0.8264221629379609,0.38160844706333463,0.17772959965512178
31,Balivanich,-7.3743509000000005,57.472269999999995,0.9085372657178697,0.4350055317449122,0.01
32,Cavan,-7.3633319,53.98972,0.9026525167833829,0.3835310711841173,0.11652723718345977
33,Mullingar,-7.340186800000001,53.525819999999996,0.8891956660231757,0.38060071106590754,0.11509568620885098
34,Laois,-7.332300699999999,52.9943,0.7350765366536861,0.36092141271653494,0.2818005819753259
35,Omagh,-7.309959700000001,54.59771,0.8308488780141259,0.382610965809015,0.17838260547177667
36,Derry,-7.308574799999999,54.99661,0.8624250225314305,0.3897620194120256,0.18304055288482754
37,Derry,-7.308574799999999,54.99661,0.8624250225314305,0.3897620194120256,0.18304055288482754
38,Kilkenny,-7.2447879,52.65415,0.6806274844212314,0.01,0.4022039508843412
39,Tyrone,-7.131232000000001,54.491209999999995,0.8088249008344615,0.3776231927996487,0.17513374374095678
40,Waterford,-7.110070200000001,52.25932,0.6100830400203334,0.01,0.47655831403462295
41,Western Isles,-7.0194034,57.759890000000006,0.8938560541136866,0.4510002648663175,0.07604606609038657
42,Monaghan,-6.9683132,54.2492,0.8998402519543055,0.38291867316887424,0.11622806611225872
43,Carlow,-6.934135899999999,52.83651,0.7345010599546865,0.01,0.3448590086478236
44,Kildare,-6.8194707999999995,53.21204,0.8058774714070102,0.37695566394428287,0.23608290345397465
45,Dungannon,-6.7669352,54.508269999999996,0.8109297131205786,0.378099869914996,0.1754442346223785
46,Cookstown,-6.7443895000000005,54.641819999999996,0.8255580783420664,0.38141275771122285,0.1776021344224396
47,Coleraine,-6.6646103000000005,55.132580000000004,0.911956460324822,0.4556584907795193,0.11466316696566967
48,Meath,-6.656416900000001,53.60555,0.9199688787609186,0.38730187740287275,0.11836936617094343
49,Armagh,-6.652792,54.350280000000005,0.8317424259609302,0.3828133277300834,0.17851441698362774
50,Armagh,-6.652792,54.350280000000005,0.8317424259609302,0.3828133277300834,0.17851441698362774
51,Magherafelt,-6.607980499999999,54.75536999999999,0.7904589153873729,0.38902492951452966,0.21423503238642097
52,Dunvegan,-6.581398200000001,57.4366,0.8200291419269172,0.4320007290494696,0.06985824839366396
53,Louth,-6.4889423,53.925230000000006,0.9205885987829896,0.3874368274643316,0.11843529250225147
54,Wexford,-6.4633381,52.33692,0.5441424106790608,0.01,0.5326973713831815
55,Craigavon,-6.4175653,54.442930000000004,0.8416097470145654,0.3850479812272509,0.1799699924909648
56,Stornoway,-6.384869200000001,58.209430000000005,0.9276993198792044,0.43972253428132,0.0723731057841229
57,Drogheda,-6.3560985,53.717859999999995,0.8985854922973108,0.3826454370512777,0.11609458373648755
58,Rosslare,-6.3414908,52.25131,0.40373670460640093,0.15882377203285034,0.49815070841179615
59,Newry,-6.34023,54.1751,0.8415280077021398,0.3850294697144122,0.1799579347358247
60,Scilly Isles,-6.327496599999999,49.92773,0.1717288108616157,0.18817742185560696,0.787168469359706
61,Ballymena,-6.2802213,54.86529,0.867815380124772,0.39098286706827456,0.15200164681609055
62,Banbridge,-6.2704803,54.34873,0.8279384975058443,0.381951851552413,0.17795328138656052
63,Dublin,-6.2603097000000005,53.34981,0.9857761430159143,0.40163204915684403,0.1253699976678127
64,Antrim,-6.2072498,54.719530000000006,0.8050929656924635,0.3924771962510122,0.21676480397132594
65,Antrim,-6.2072498,54.719530000000006,0.8050929656924635,0.3924771962510122,0.21676480397132594
66,Portree,-6.1960231,57.41246999999999,0.9165546090850265,0.456841793319758,0.07794855010307779
67,Islay,-6.177067,55.73625,0.8579458125315093,0.4520321342545522,0.113186875024907
68,Wicklow,-6.044589,52.980819999999994,0.7768512968152634,0.3631197536410629,0.2543830221046353
69,Kilkeel,-6.007004,54.06312,0.8015820509261402,0.3759829036280375,0.17406531646747847
70,Mull,-6.0008870000000005,56.4392,0.8436107299453645,0.37067426013083166,0.14042686851757838
71,Belfast,-5.93012,54.597280000000005,0.7843065525981004,0.4044245691433312,0.2913766845745971
72,Broadford,-5.9096592,57.24139,0.8200291419269172,0.4320007290494696,0.06985824839366396
73,Down,-5.7156921999999994,54.32875,0.7782888004256197,0.38615381593167014,0.2435720976234005
74,Kyle of Lochalsh,-5.7143293,57.28261,0.8200291419269172,0.4320007290494696,0.06985824839366396
75,Campbeltown,-5.605373999999999,55.424119999999995,0.863437772603979,0.45347837262055657,0.1137756433138476
76,Penzance,-5.537592,50.1188,0.2591319553310819,0.1808101245011533,0.7535770298893325
77,Oban,-5.471047,56.41516,0.9346576972735573,0.01,0.14348369464623925
78,Lochgilphead,-5.4323449,56.03829,0.8955559351315511,0.01,0.1388104759267464
79,Helston,-5.274996,50.10159,0.24357629688043303,0.1782937729102934,0.7421035838655575
80,Redruth,-5.226666000000001,50.23302,0.24971624010760163,0.17928699707733797,0.7466322450874182
81,Ullapool,-5.161313,57.895419999999994,0.8841327983507601,0.35239125530215215,0.10131467544248034
82,Ballachulish,-5.133719999999999,56.673930000000006,0.8027996736346193,0.3483876359430383,0.0993588294524837
83,Fort William,-5.1052179,56.81981999999999,0.9027261681912044,0.3693416782095202,0.10959538008739034
84,Achnasheen,-5.078765799999999,57.578590000000005,0.8104914448329888,0.3375005695698981,0.09404022019431553
85,Newquay,-5.0737190000000005,50.4155,0.25760671494601256,0.18056339492158652,0.7524520525515429
86,Falmouth,-5.066269999999999,50.152570000000004,0.2618098350158814,0.1812433100732301,0.7555521637686975
87,Rothesay,-5.055793,55.83596,0.8632798224839519,0.01,0.20392654509987107
88,Truro,-5.051041000000001,50.2632,0.280108192975915,0.18420333277551135,0.7690485530757923
89,Milford Haven,-5.0426971,51.71431,0.2762416517349626,0.5507336573168471,0.6466205007296925
90,Stranraer,-5.024055000000001,54.903369999999995,0.7206986979809077,0.4470816338846337,0.25677817909669665
91,Fishguard,-4.975989,51.99393,0.32791965243080645,0.5446875994406962,0.5796123780132229
92,Inchnadamph,-4.974295,58.15221,0.8104914448329888,0.3375005695698981,0.09404022019431553
93,Haverfordwest,-4.971319,51.800470000000004,0.3467420226209739,0.5533282179821332,0.5899307398674282
94,Dunoon,-4.926214,55.95097,0.8557136323243975,0.01,0.2027191986578861
95,Pembroke,-4.908637000000001,51.674040000000005,0.36113132943335696,0.5599337894370211,0.5978189108587156
96,Girvan,-4.8542179,55.240159999999996,0.7806320473222402,0.4640480266333416,0.1936447331616981
97,Wadebridge,-4.836456,50.51665,0.2477335850338234,0.17896627408995325,0.7451698906621826
98,Invergarry,-4.800261,57.07095,0.8027996736346193,0.3483876359430383,0.0993588294524837
99,St Austell,-4.7834252,50.340379999999996,0.25205078768703043,0.17966464374103083,0.7483541462031753
100,Greenock,-4.7719830000000005,55.956480000000006,0.9602827184004932,0.01,0.1465462504457169
101,Helensburgh,-4.734014,56.00232,0.9265268964619103,0.01,0.14251194788916313
102,Bodmin,-4.7188629,50.4715,0.24379898994663582,0.17832979671816956,0.7422678364353252
103,Tenby,-4.703579,51.672740000000005,0.3467420226209739,0.5533282179821332,0.5899307398674282
104,Camelford,-4.682364,50.62206,0.22921443283452783,0.17597053474237653,0.7315106493103114
105,Irvine,-4.6696364,55.61156999999999,0.8989503258526428,0.01,0.2096185320071282
106,Cardigan,-4.660864,52.0837,0.27286185189612405,0.5490934633515573,0.6444837705367551
107,Holyhead,-4.633038,53.30944,0.24615636175750805,0.20966111444963703,0.731487966196338
108,Ayr,-4.629179,55.45856,0.8949531893833893,0.01,0.2201734118341132
109,Dumbarton,-4.564554,55.94529,0.9552927651915298,0.01,0.1459498798100194
110,Bude,-4.543678,50.826640000000005,0.22113863419950305,0.19720146145170409,0.7640891323517139
111,Isle of Man,-4.5126330999999995,54.27697,0.7097041696336392,0.9346719186177264,0.23356949441709926
112,Kilmarnock,-4.498792,55.61472,0.8945241291434056,0.01,0.20891223825350444
113,Newton Stewart,-4.483164,54.9603,0.7840549830973286,0.4428733443423322,0.1815763396050075
114,Liskeard,-4.4647190000000005,50.45552,0.31072138360197704,0.1789308375745057,0.6867336604458661
115,Altnaharra,-4.442655,58.28023,0.8104914448329888,0.3375005695698981,0.09404022019431553
116,Pwllheli,-4.417633900000001,52.888819999999996,0.1873957075537329,0.21277370286381492,0.7780475537654569
117,Lairg,-4.402414,58.022059999999996,0.8104914448329888,0.3375005695698981,0.09404022019431553
118,Launceston,-4.360451599999999,50.636829999999996,0.32161035287017586,0.16297779229069925,0.6722697352876611
119,Carmarthen,-4.312131,51.857620000000004,0.35937018005223953,0.5591253142108419,0.5968534545208537
120,Llangefni,-4.311401999999999,53.255790000000005,0.14632568353482,0.2202453930832109,0.8437217569100912
121,Caernarfon,-4.273911,53.13955,0.12489207372613718,0.21554791822237115,0.8593157957455467
122,Cumnock,-4.265828900000001,55.45355,0.8838172282303141,0.01,0.19690590787437928
123,Aberaeron,-4.2581619,52.24279,0.26909312163598265,0.5472645240876234,0.6421011561454104
124,Alness,-4.256825,57.69595,0.9073674779910375,0.35708943500806267,0.10360984831987534
125,Glasgow,-4.251806,55.86424,0.954791315334368,0.01,0.21852914865116602
126,Dalwhinnie,-4.242783,56.9366,0.8027996736346193,0.3483876359430383,0.0993588294524837
127,Inverness,-4.224721,57.47776999999999,0.9498662427544369,0.3656829184228951,0.10780796999479848
128,Saltash,-4.21643,50.409209999999995,0.37998090867336515,0.1630830096968532,0.6196361674074724
129,Bideford,-4.206666,51.01668,0.3137933076549743,0.5382027135738584,0.6302961163680069
130,Invergordon,-4.1728819999999995,57.688109999999995,0.9084015194502172,0.3572985238646255,0.10371199321483214
131,Llanelli,-4.160248,51.680890000000005,0.36637060972754965,0.5623389393727839,0.600691067201668
132,Plymouth,-4.1426565,50.37546,0.42396430983251143,0.16887424486430752,0.6441555314262416
133,Tavistock,-4.141654,50.551120000000004,0.3871521389784663,0.16402723592862062,0.6236339029549572
134,Porthmadog,-4.1333839999999995,52.92784,0.19642359681634758,0.2146101226767117,0.7853741553886942
135,Bangor,-4.129263,53.22739,0.15709812717683191,0.2226063318352813,0.8535254438344848
136,Tywyn,-4.087249,52.58701,0.3313258744670954,0.01,0.657312151929683
137,Aberystwyth,-4.08292,52.4153,0.14167909982504973,0.40939991826505234,0.8291704077186496
138,Lampeter,-4.0785089999999995,52.1129,0.2734102076529215,0.5493595766854878,0.6448304444103248
139,Barnstaple,-4.058338,51.07816,0.326391942621289,0.5439862568633818,0.6378305133894201
140,Tain,-4.05523,57.8115,0.8824260924589628,0.3520461500065793,0.10114608327193228
141,Okehampton,-4.004263,50.73831,0.42932161941012575,0.1620427689835776,0.5624573942855058
142,Llandeilo,-3.9914300000000003,51.88469,0.3510409107018525,0.5553016704051764,0.5922873762708717
143,Motherwell,-3.9810968,55.78321,0.9129552181438625,0.01,0.2118533102140749
144,Golspie,-3.976086,57.97341,0.8104914448329888,0.3375005695698981,0.09404022019431553
145,Airdrie,-3.9625660000000003,55.86626999999999,0.9012487567445181,0.01,0.2099852955038069
146,Swansea,-3.9436459999999998,51.62144,0.38972306245340105,0.5730591427250923,0.6134928055042347
147,Stirling,-3.9369029,56.116519999999994,0.9752346513953526,0.01,0.1483332198643947
148,Tregaron,-3.934385,52.22,0.2723699389935143,0.5488547413523912,0.6441727801818756
149,Tregaron,-3.934385,52.22,0.2723699389935143,0.5488547413523912,0.6441727801818756
150,Castle Douglas,-3.9314139999999997,54.940419999999996,0.8907374319619754,0.01,0.1643685219477011
151,Dolgellau,-3.8844,52.74215,0.1579529930998857,0.20678461323344421,0.7878263845853057
152,Aberfeldy,-3.866969,56.62175,0.9642695797357425,0.01,0.1092307580587256
153,Machynlleth,-3.853485,52.59027,0.3437659543265161,0.3614618110253111,0.6060636439789068
154,Brora,-3.8525480000000005,58.012159999999994,0.87138846305534,0.34981428078056387,0.10005576190619171
155,Llandudno,-3.827609,53.324059999999996,0.047977577550032575,0.22982912622624332,0.9396562245515329
156,Llandudno,-3.827609,53.324059999999996,0.047977577550032575,0.22982912622624332,0.9396562245515329
157,Aviemore,-3.823812,57.19449,0.8996511825116354,0.35552915772482047,0.10284761564128968
158,Dalbeattie,-3.8225269999999996,54.934219999999996,0.7986930772536838,0.4079659932082471,0.16168109608119824
159,Falkirk,-3.7839131,56.00188000000001,0.9074709788302806,0.01,0.21097818327665768
160,Kingsbridge,-3.777493,50.28395,0.6173326841408617,0.1466034587215787,0.40662516685923766
161,Pitlochry,-3.729711,56.70436,0.9473115596015829,0.01,0.10140414817388482
162,Colwyn Bay,-3.72764,53.29318000000001,0.06700174737163077,0.22459543161991855,0.916645162469779
163,Totnes,-3.685797,50.43374,0.6196722009035291,0.14683584056656349,0.4073819942065647
164,Grantown-on-Spey,-3.609628,57.33041,0.8770809085737998,0.35096532449736506,0.1006180742239122
165,Dumfries,-3.60512,55.070859999999996,0.8430182059891679,0.01,0.24874194842634129
166,Whitehaven,-3.589233,54.5497,0.38787440127557715,0.4704841962920017,0.5803842316626686
167,Dartmouth,-3.578807,50.35252,0.5614810999566726,0.13862377815281982,0.44835772320911976
168,Bridgend,-3.576945,51.504290000000005,0.3956500732401645,0.575779974001886,0.5854883811466381
169,Paignton,-3.564235,50.43508,0.6117453080165348,0.15707098699413058,0.44071610295623415
170,Workington,-3.5427519999999997,54.64357,0.4467582219560038,0.652115997939042,0.49551734600461417
171,Llanidloes,-3.5401949999999998,52.447790000000005,0.3013531680648788,0.34871160079357727,0.6389710991107967
172,Exeter,-3.533899,50.71841,0.6078889339045938,0.16944750929880273,0.4810243204994229
173,Torquay,-3.525315,50.46192,0.6958331405262591,0.14916688871409206,0.36639273859053356
174,Thurso,-3.5220800000000003,58.59356999999999,0.9023359710765854,0.35607203670339016,0.10311282497454559
175,Livingston,-3.518068,55.90071,0.9062829758961012,0.01,0.21078861216023023
176,Rhyl,-3.4916339999999995,53.319140000000004,0.05552868487123748,0.22666873670360166,0.9257609685255691
177,Tiverton,-3.491207,50.90205,0.5025812994253146,0.4919172589244882,0.46319277744569637
178,Tiverton,-3.491207,50.90205,0.5025812994253146,0.4919172589244882,0.46319277744569637
179,Minehead,-3.481152,51.20428,0.38904766447595956,0.5168711738646001,0.5463948277690134
180,Dunfermline,-3.452151,56.071740000000005,0.9025022974921714,0.01,0.2101853245712301
181,Perth,-3.4308381000000003,56.39499,0.9467882650246139,0.01,0.13722737935985954
182,Prestatyn,-3.4076129999999996,53.33651,0.04988931735439802,0.22527039905598312,0.9196128764516517
183,Builth Wells,-3.4045919999999996,52.15002,0.34348848368294216,0.5518346447185528,0.5881471604494176
184,Braemar,-3.3979439,57.00646999999999,0.8104914448329888,0.3375005695698981,0.09404022019431553
185,Brecon,-3.391463,51.94895,0.351234473749068,0.5553905276764876,0.5923934869010735
186,Merthyr Tydfil,-3.381646,51.74873,0.2722276587153679,0.6195967461326387,0.702698591753514
187,Llandrindod Wells,-3.377742,52.2417,0.32233918120131677,0.40522539772174787,0.6220310184517591
188,Corwen,-3.369242,52.98005,0.0440722583880446,0.21903166985117684,0.8921828896364324
189,Cockermouth,-3.367985,54.66326,0.35660569552723587,0.6450211923794565,0.5593796601519656
190,Lockerbie,-3.349008,55.122240000000005,0.7094898289881559,0.01,0.36288289184615674
191,Blairgowrie,-3.3378318,56.58941,0.9648793655206792,0.01,0.10307969385489062
192,Elgin,-3.318485,57.64945,0.9418848940514252,0.3640690459235608,0.10701955477445567
193,Newtown,-3.313106,52.51211,0.4311164165286852,0.01,0.5801201179020157
194,Ruthin,-3.3103108,53.114869999999996,0.03790308056859406,0.2272751267343905,0.9284270175858291
195,Ruthin,-3.3103108,53.114869999999996,0.03790308056859406,0.2272751267343905,0.9284270175858291
196,Sidmouth,-3.2375599999999998,50.67865,0.6198483287136629,0.13951067415817167,0.4062432640463036
197,Barrow-in-Furness,-3.2188939999999997,54.10896999999999,0.3562514678989717,0.4743601446962812,0.6243718274367046
198,Peebles,-3.1936419999999996,55.65306999999999,0.8883535368027111,0.01,0.17908990414577228
199,Edinburgh,-3.1882669999999997,55.95325,0.9673473327231784,0.01,0.19972060696042518
200,Cardiff,-3.17909,51.48158,0.5121949102634568,0.4850709337204214,0.5347498856976753
201,Llangollen,-3.1716599999999997,52.96921,0.012210893100945683,0.2207618805805415,0.9357392810470715
202,Kirkcaldy,-3.158137,56.11682,0.9930681453199287,0.01,0.13520240817640441
203,Welshpool,-3.146407,52.66035,0.28271458101011965,0.01,0.7393100431215122
204,Mold,-3.1419029999999997,53.1672,0.03333133349981931,0.22611615265046459,0.9601523840044462
205,Mold,-3.1419029999999997,53.1672,0.03333133349981931,0.22611615265046459,0.9601523840044462
206,Taunton,-3.106849,51.01534,0.5932041491416707,0.01,0.48890827251645924
207,Wick,-3.093716,58.43894,0.8986578334800912,0.3553282971003944,0.10274949043404406
208,John o' Groats,-3.0688997000000002,58.63734,0.8104914448329888,0.3375005695698981,0.09404022019431553
209,Dalkeith,-3.066606,55.893119999999996,0.9147037497634464,0.01,0.191920233449974
210,Oswestry,-3.056412,52.85715,0.01,0.22938316191618857,0.975048495842847
211,Blackpool,-3.0356748,53.81751,0.19446773067750117,0.5074248167174398,0.796775140354008
212,Birkenhead,-3.023009,53.389990000000004,0.06418977267041083,0.24300652180945284,0.9580218253151447
213,Cupar,-3.010137,56.32023,0.8682494574156043,0.01,0.19451374558639495
214,Southport,-3.010113,53.64571,0.03974707626237385,0.2543125611193373,0.9644777721016511
215,Bridgwater,-3.003632,51.12789,0.6029600082178637,0.01,0.4926696433421245
216,Langholm,-2.998913,55.153059999999996,0.5785256170072022,0.16273360669602127,0.40615876433753884
217,Newport,-2.997664,51.58415,0.51029352080945,0.46502213217583105,0.5097200196596557
218,Axminster,-2.9949369999999997,50.78273,0.601942042222725,0.01,0.45041879383397515
219,Wrexham,-2.9924939999999998,53.043040000000005,0.03994151072154519,0.22779190782446257,0.9677930834421858
220,Liverpool,-2.9915726,53.40837,0.08227187124345726,0.24776821466752286,0.9781822268492659
221,Weston-super-Mare,-2.977255,51.347409999999996,0.5352813966022125,0.3156738017089094,0.4946150892354677
222,Dundee,-2.9707209999999997,56.462019999999995,0.9932685955579814,0.01,0.14258404701188584
223,Kirkwall,-2.9622491,58.984669999999994,0.9024188410155091,0.3560887934597263,0.10312101104980524
224,Ambleside,-2.961333,54.428740000000005,0.39212050870366216,0.7081302782175829,0.5441649748185636
225,Orkney Islands,-2.9605206,58.980940000000004,0.9044482056137897,0.3564991421160946,0.10332147615870413
226,Lyme Regis,-2.936639,50.725159999999995,0.595996671771515,0.01,0.44829694721486374
227,Carlisle,-2.932931,54.892469999999996,0.45755066481850487,0.5882962577513906,0.5358896346416443
228,Chester,-2.893075,53.19339,0.04809188934409953,0.22985812158676502,0.9772141006509282
229,Forfar,-2.889062,56.64356,0.9819803824340756,0.01,0.10471071910425889
230,Morecambe,-2.864968,54.074169999999995,0.31951192767725883,0.5130930739619798,0.6393614715305991
231,Selkirk,-2.838524,55.55066,0.8683753615223735,0.01,0.21165374072406082
232,Galashiels,-2.814449,55.62373,0.8976369210589623,0.01,0.18041802122188522
233,Lancaster,-2.8007399,54.046569999999996,0.4271452785221715,0.5199717094154489,0.5642096612476521
234,St Andrews,-2.7967214,56.339780000000005,0.9693477230160705,0.01,0.12578298763053317
235,Hawick,-2.780914,55.42706,0.7341362074420098,0.01,0.32249949950192053
236,Bridport,-2.758301,50.733579999999996,0.5562227505910741,0.01,0.4882025728876545
237,Shrewsbury,-2.7553267999999997,52.7073,0.2560549250007123,0.01,0.8185019487073583
238,Penrith,-2.752708,54.6641,0.5187655336747813,0.5848751491461502,0.46886678863569925
239,Kendal,-2.74629,54.32801,0.43096120696611123,0.912651097631651,0.4864779579079216
240,Street,-2.7429189999999997,51.12468,0.49575628163553964,0.01,0.5285281855418265
241,Glastonbury,-2.718454,51.14743,0.5054617645713476,0.01,0.5328232912536833
242,Hereford,-2.715974,52.0564,0.3676200708403766,0.36539933364200733,0.6431883090478387
243,Ludlow,-2.7139129,52.36775,0.20970878480489027,0.01,0.8187961835966663
244,Preston,-2.70309,53.7632,0.4452774263008016,0.5273045484784915,0.573165329133949
245,Whitchurch,-2.682045,52.96872,0.05878312933984578,0.38955212130594286,0.8806906478720063
246,Wells,-2.6445979,51.20935,0.5681671001928814,0.01,0.4856944574732873
247,Yeovil,-2.633308,50.94206,0.5776637032689366,0.01,0.4966745111822428
248,Wigan,-2.6325074,53.54506,0.17195815941706222,0.01,0.915853265783393
249,Warrington,-2.5969501,53.39004,0.08403639099903414,0.01,1.0
250,Arbroath,-2.591543,56.55911,1.0,0.01,0.09499281993947382
251,Bristol,-2.58791,51.45451,0.6295280625514286,0.01,0.5096291027832642
252,Guernsey,-2.5852779999999997,49.46569,0.4619986810743714,0.01,0.47029817709513444
253,Ross-on-Wye,-2.582446,51.91445,0.5041736576415521,0.01,0.5573819946980751
254,Jedburgh,-2.5549369,55.47772,0.6420819161180666,0.1573430253215959,0.3647360931681982
255,Sedbergh,-2.5281740000000004,54.32363,0.4779775486407103,0.8902827723858566,0.4003312265523854
256,Sedbergh,-2.5281740000000004,54.32363,0.4779775486407103,0.8902827723858566,0.4003312265523854
257,Nantwich,-2.524102,53.067190000000004,0.1393030164127138,0.3684725094805447,0.8292012939708949
258,Banff,-2.524038,57.666509999999995,0.8990618663059324,0.3554099947546025,0.10278940168730019
259,Dunbar,-2.516737,56.00209,0.8412615057369158,0.01,0.24841202580214994
260,Cinderford,-2.5009579,51.8253,0.6129732746698543,0.01,0.45098910928430974
261,Banchory,-2.4909599,57.05386,0.9117343074201203,0.357972431878281,0.10404121335787084
262,Blackburn,-2.487529,53.748580000000004,0.3771616466003761,0.01,0.7039121971825057
263,Market Drayton,-2.483485,52.90355,0.183784426792771,0.01,0.8162856716403386
264,Telford,-2.4672611,52.67759,0.19273920107320164,0.01,0.86615832641264
265,Montrose,-2.4661150000000003,56.70692,0.9174746822465317,0.35913316716412563,0.10460826023829439
266,Turriff,-2.4623,57.53893000000001,0.9027465133916616,0.3561550506120375,0.103153379249499
267,Weymouth,-2.457621,50.61443,0.6197458936052486,0.01,0.4533906989180118
268,Crewe,-2.4438209,53.10041,0.062397062514481995,0.34007541577572376,0.9259729793881675
269,Fortuneswell,-2.4422189999999997,50.55919,0.5832494646559093,0.01,0.4404489630447864
270,Dorchester,-2.4411810000000003,50.71116,0.749864636503836,0.01,0.3528650718620297
271,Alston,-2.438685,54.812169999999995,0.48389352117651907,0.19002244618575048,0.4861462225799819
272,Kelso,-2.432207,55.600030000000004,0.7093213186778516,0.1585217156361199,0.3163713033782508
273,Wincanton,-2.416007,51.055690000000006,0.5387988041378798,0.01,0.4942337322337047
274,Clitheroe,-2.3930830000000003,53.8711,0.48882526604835086,0.9247056112711074,0.4185489555976391
275,Sark,-2.3666256000000003,49.43007,0.4619986810743714,0.01,0.47029817709513444
276,Bath,-2.3590167,51.38106,0.5750660376996412,0.01,0.5299805204082778
277,Kidderminster,-2.2496839,52.3886,0.25373017463358327,0.01,0.7944600388548156
278,Manchester,-2.2426305,53.48076,0.3752710874478439,0.2851389732133251,0.7185139500605814
279,Burnley,-2.2405035,53.78929,0.42025915199203484,0.4259186932318866,0.5880559865617359
280,Gloucester,-2.238156,51.86424,0.4868134611486258,0.01,0.6114008691723737
281,Newcastle-under-Lyme,-2.2273002,53.01321,0.13649386637752134,0.3521254674990883,0.8466121638637756
282,Worcester,-2.221575,52.19364,0.3083839180597579,0.01,0.7768625177950476
283,Trowbridge,-2.208853,51.31966,0.5726875795416537,0.01,0.5289837656311258
284,Shaftesbury,-2.198083,51.0046,0.580291106862296,0.01,0.4644641632800774
285,Alderney,-2.1973557,49.715,0.46607452055049114,0.01,0.46654029867731306
286,Stoke-on-Trent,-2.179404,53.002669999999995,0.21951148134447745,0.4069355330116726,0.7906198737004019
287,Colne,-2.176991,53.85564,0.4736341003729982,0.44369484852225927,0.5071778392244098
288,Blandford Forum,-2.165353,50.85691,0.5883832099530825,0.01,0.44645802262929174
289,Rochdale,-2.1561,53.60971,0.23141321297602388,0.2683224610813469,0.8030427290837097
290,Jersey,-2.13125,49.21444,0.46607452055049114,0.01,0.46654029867731306
291,Wolverhampton,-2.12882,52.586969999999994,0.2498666459512565,0.01,0.8233913715941222
292,Stafford,-2.12066,52.80669,0.21524116776071336,0.01,0.8553402779373355
293,Macclesfield,-2.119287,53.25866,0.1929267027862191,0.3476506096371243,0.8137236292440045
294,Hexham,-2.1121439,54.97266,0.6073396508787053,0.19761474703400633,0.44404064873622795
295,Aberdeen,-2.094278,57.149719999999995,0.9719730880650073,0.37015304383920505,0.1099917329107128
296,Dudley,-2.081112,52.51226,0.2638155877335071,0.01,0.8072054017820225
297,Cheltenham,-2.0782533,51.899390000000004,0.2681044428720926,0.01,0.808138981190168
298,Bromsgrove,-2.061906,52.33559,0.20622952717030907,0.01,0.8475678692863859
299,Skipton,-2.0162787,53.96285,0.40859448622120614,0.5627117593808467,0.5476838765484985
300,Fraserburgh,-2.007631,57.69335,0.9061360876587093,0.35684044112654734,0.10348820886815911
301,Berwick,-2.005395,55.77024,0.7404996418390426,0.16167395428555772,0.29774379006894397
302,Poole,-1.987248,50.71505,0.54820857155012,0.01,0.5379761582362088
303,Walsall,-1.9829189999999999,52.586209999999994,0.2645786680397204,0.01,0.8078023406115697
304,Cirencester,-1.968243,51.71849,0.47853667813346146,0.01,0.6072038616834287
305,Evesham,-1.9467700000000001,52.09215,0.2550235381413327,0.01,0.7847711496668489
306,Buxton,-1.91483,53.259080000000004,0.12405469072254928,0.39483472135057646,0.8526787208866928
307,Keighley,-1.9123580000000002,53.8678,0.40481972883923223,0.5610355169871638,0.5686813747631145
308,Birmingham,-1.8904009999999998,52.48624,0.2930329353331503,0.01,0.8300614093825267
309,Bournemouth,-1.880769,50.719159999999995,0.4775442427189129,0.01,0.6202213288186188
310,Halifax,-1.8575400000000002,53.727019999999996,0.4574077528088992,0.5228732267077426,0.5251805807895721
311,Salisbury,-1.794472,51.06878,0.46152988810353185,0.01,0.6119386864170906
312,Ringwood,-1.7888169999999999,50.84495,0.3885360335028538,0.01,0.6662296037322929
313,Huddersfield,-1.7850351000000002,53.645790000000005,0.42940140811614425,0.5303547887066372,0.5768905589870145
314,Peterhead,-1.784066,57.50812,0.9199012721814598,0.3596238369630362,0.10484796414165927
315,Swindon,-1.7797176,51.55577,0.40424445853648716,0.01,0.6803285593229673
316,Bradford,-1.759398,53.79598000000001,0.396427225169858,0.5573086915160557,0.6098096783405595
317,Ashbourne,-1.7321790000000001,53.016630000000006,0.1459466978736724,0.3426221853170341,0.8553274408609461
318,Marlborough,-1.7270619999999999,51.42007,0.381082202173454,0.01,0.6639176189190382
319,Stratford-upon-Avon,-1.7082979999999999,52.19173,0.20585375834420186,0.01,0.845133271421754
320,Alnwick,-1.7062990000000002,55.41274,0.5839895592938766,0.19446706971995736,0.435839498372094
321,Otley,-1.691786,53.90583,0.40960356496470085,0.5419084631213916,0.5468786749499511
322,Bishop Auckland,-1.6787880000000002,54.663819999999994,0.52735362568172,0.19617395538807483,0.504177179598126
323,Burton upon Trent,-1.6371358999999999,52.81403,0.2319979861411067,0.01,0.8276956831769356
324,Newcastle,-1.61778,54.97825,0.6468940142587056,0.2029468191516065,0.4579331544875862
325,Durham,-1.5848520000000001,54.77525,0.6216461959842052,0.19954332137417116,0.44906547389270407
326,Ashington,-1.5659829,55.18298000000001,0.5924901070252959,0.19561297448671053,0.4388251085085511
327,Darlington,-1.559458,54.52361,0.4161053789805197,0.21226765124934666,0.6204818103712948
328,Leeds,-1.5490774,53.80076,0.461741830209328,0.5641872552628328,0.5722740266525557
329,Harrogate,-1.5418120000000002,53.99211999999999,0.5048159187089831,0.5417092168664743,0.5025452156315163
330,Leamington Spa,-1.5200789,52.28519,0.23376553036693604,0.01,0.8388293097567605
331,Coventry,-1.519693,52.40682,0.2787908394599681,0.01,0.8086695870657865
332,Blyth,-1.510277,55.12696,0.5264084491326234,0.19604017148889225,0.5037850397741346
333,Wakefield,-1.505924,53.6833,0.4845554486527987,0.2765325943649997,0.5595961045521165
334,Andover,-1.4919233,51.2112,0.1460857278380953,0.9101302453860437,0.7443004564736686
335,Witney,-1.4850543999999999,51.785940000000004,0.31930681603885025,0.01,0.7336050452561373
336,Barnsley,-1.479726,53.55263000000001,0.19761899693065765,0.27182196100470196,0.823292585381821
337,Derby,-1.4746186000000001,52.92253,0.2716201125313077,0.19391085698786786,0.7817339949427092
338,Sheffield,-1.470085,53.381130000000006,0.21830273254876564,0.29313406921646346,0.8361155240407865
339,Nuneaton,-1.465382,52.52049,0.26982804945899624,0.01,0.8017389939247271
340,Northallerton,-1.429959,54.337959999999995,0.4421280760234258,0.7364433307911977,0.4808107100199115
341,South Shields,-1.427406,54.99941999999999,0.5443439302243379,0.1985788279932868,0.5112262066177565
342,Chesterfield,-1.421629,53.23505,0.31645482445126727,0.2539275354274733,0.7148110396685442
343,Southampton,-1.4043508999999998,50.9097,0.35954303916557595,0.3728030905840026,0.6880098240524031
344,Wetherby,-1.384816,53.92706,0.5488942578957295,0.5402655639422971,0.4130396431997916
345,Sunderland,-1.383801,54.90687,0.5513762280958777,0.1995742062962793,0.5141438033908003
346,Rotherham,-1.3635008999999998,53.4326,0.22847850933673292,0.2797636997020201,0.7947478064608463
347,Castleford,-1.345968,53.72346999999999,0.490720759125554,0.2680545502436758,0.5402678938278218
348,Thirsk,-1.341377,54.23385,0.6127785038129498,0.5647874044359907,0.34303128547464584
349,Banbury,-1.339775,52.0629,0.094668623226291,0.01,0.9432642073638502
350,Stockton,-1.3289821000000002,54.57046,0.41691476010717293,0.21240243116475488,0.6209207650184113
351,Newbury,-1.3231138999999998,51.40141,0.4427337112873573,0.5457675795729803,0.5512775827422112
352,Isle of Wight,-1.304734,50.69385,0.40083270182035413,0.7313465716070128,0.5544035754681101
353,Isle of Wight,-1.304734,50.69385,0.40083270182035413,0.7313465716070128,0.5544035754681101
354,Abingdon,-1.2879528999999998,51.67078,0.14544441185709467,0.5413984447940203,0.8107832924368022
355,Shetland Islands,-1.2659409,60.52965,0.87138846305534,0.34981428078056387,0.10005576190619171
356,Rugby,-1.265032,52.37088,0.28439928922841606,0.01,0.7822498331602048
357,Oxford,-1.2577263,51.75202,0.2595361141207886,0.5064513845995493,0.7538751074405595
358,Middlesbrough,-1.234956,54.57423000000001,0.4282415340474361,0.21428859033408074,0.627063656042416
359,Hartlepool,-1.212926,54.69174,0.46741453392157073,0.1975683641321252,0.5726089649362329
360,Loughborough,-1.206166,52.7721,0.4282729926059338,0.01,0.6592923040381452
361,Mansfield,-1.198674,53.1472,0.29416359962988614,0.15178355604469657,0.7448121029028164
362,Nottingham,-1.1581086,52.95478000000001,0.35311747957568135,0.01,0.7590600562656189
363,Bicester,-1.1535898999999998,51.8996,0.10227310275990334,0.01,0.9213696491075375
364,Leicester,-1.1397591999999999,52.636880000000005,0.4655813490574509,0.01,0.6438111415356289
365,Doncaster,-1.128462,53.522819999999996,0.3491914483740693,0.2802560533095296,0.6867417224594254
366,Worksop,-1.122745,53.3093,0.27123784671992796,0.27572816194312694,0.7283819879779754
367,Basingstoke,-1.0923964,51.26654,0.6167302391223595,0.9546271533991414,0.31779493285129173
368,Portsmouth,-1.0879769,50.81977,0.36353007763066997,0.7907921767622023,0.6052245853570312
369,York,-1.0872979,53.95997,0.5454168707008741,0.27892031011127905,0.5196198246978905
370,Selby,-1.067189,53.783519999999996,0.5334475900474978,0.2814807490912048,0.47920348014766256
371,Helmsley,-1.0562636,54.24651,0.4424981964837577,0.5893223518902039,0.45697617501246784
372,Towcester,-0.9896879999999999,52.13511,0.09027458195759057,0.01,0.9358241012158238
373,Reading,-0.9781303,51.45426,0.6102325446063782,0.5040120377598296,0.4216069697571724
374,Retford,-0.9455030000000001,53.32136,0.266878825933661,0.4779161422714308,0.6814663833271609
375,Petersfield,-0.93899,51.00759,0.34689565906854514,0.8531562956176819,0.5543439759004771
376,Northampton,-0.9026559999999999,52.24048,0.23453187287521712,0.01,0.8476980391010692
377,Melton Mowbray,-0.887126,52.7664,0.2819951388348969,0.01,0.7576937485696061
378,Aylesbury,-0.8084,51.81561,0.15833745747994657,0.01,0.9042547567603103
379,Newark-on-Trent,-0.80657,53.070040000000006,0.35192517863618433,0.01,0.7169770167161884
380,Malton,-0.7978970000000001,54.13684,0.49174367246538003,0.25484478147689005,0.5101527234820095
381,Chichester,-0.774936,50.83761,0.46254046762985457,0.8311115099141528,0.4705202274630285
382,Gainsborough,-0.774465,53.400580000000005,0.3781934460611322,0.31829326691979426,0.6029697881459988
383,Milton Keynes,-0.7594171,52.040620000000004,0.30657098974113023,0.01,0.7791228323807688
384,Aldershot,-0.7557509,51.24837,0.598540296319598,1.0,0.3362663742037566
385,High Wycombe,-0.748229,51.628609999999995,0.45749678885332695,0.4257970482564113,0.5531991332625944
386,Midhurst,-0.737274,50.9869,0.27921314603683045,0.9202927302696658,0.6035405729105995
387,Kettering,-0.7302489999999999,52.39632,0.3349470516994176,0.01,0.727267396218531
388,Wellingborough,-0.693964,52.30242,0.40757329178084467,0.01,0.6512510269794748
389,Corby,-0.6842333,52.4923,0.15569555270288737,0.01,0.8889247948830421
390,Bognor Regis,-0.673061,50.783,0.3587809226595345,0.725530764201101,0.5789681349822542
391,Scunthorpe,-0.654413,53.58865,0.363323500274242,0.36411901132654073,0.6406864370576415
392,Grantham,-0.643582,52.912519999999994,0.30242238777819064,0.01,0.7477269913636877
393,Whitby,-0.613347,54.48633,0.3665061393939695,0.18253374667707858,0.6425396741953232
394,Slough,-0.5950406,51.51054,0.7180352748291795,0.40575236942167575,0.32560254670493904
395,Guildford,-0.570409,51.23622,0.7544321485623163,0.8697734533949443,0.21243321444784996
396,Woking,-0.5600349,51.31677,0.8450092285470686,0.4384294582801488,0.21474078792002924
397,Lincoln,-0.540579,53.23069,0.18295719250340894,0.3931380685317813,0.825430757674396
398,Bedford,-0.46677820000000003,52.13864,0.6478280904319667,0.01,0.4540950770838241
399,Heathrow,-0.4542955,51.47002,0.9013087706540008,0.01,0.24119838603888205
400,Driffield,-0.443377,54.006,0.14958554774402574,0.3567580991794424,0.8005873553709456
401,Beverley,-0.435093,53.84196,0.17082969311855342,0.36427554400214823,0.8189496111214886
402,Luton,-0.4200255,51.87867,0.631628766535344,0.01,0.4742000801867269
403,Scarborough,-0.399752,54.28311,0.44306579086793624,0.38788116153907937,0.5607938687031727
404,Worthing,-0.372882,50.81787,0.41412955975367427,0.758517159822998,0.5467526890361154
405,Dorking,-0.332378,51.2322,0.9492983625910735,0.01,0.1716108735894419
406,Hull,-0.3274198,53.767619999999994,0.21974704296341893,0.35913922385540376,0.806403536441124
407,Horsham,-0.325858,51.06288,0.7290386858440397,0.7490709325681786,0.23411231544407865
408,Biggleswade,-0.26421999999999995,52.086940000000006,0.7504066905651932,0.01,0.3218428171321818
409,Peterborough,-0.2405299,52.5695,0.4114910467017416,0.01,0.6766019536688201
410,Welwyn Garden City,-0.208661,51.80317,0.7690136617158218,0.01,0.36684154543581277
411,Bridlington,-0.198802,54.08535,0.18976623019295571,0.37097639071999855,0.7749070683602861
412,Stevenage,-0.19661199999999998,51.90376,0.678576861406526,0.01,0.4197434210198388
413,Crawley,-0.18722750000000002,51.109140000000004,0.7144303826175151,0.34926052325130286,0.32728131219105006
414,Huntingdon,-0.182552,52.33146,0.4306624453488562,0.35320239273494186,0.5618384845615795
415,Hove,-0.168749,50.82793,0.5131967624853709,0.7766806701376279,0.43506583772596463
416,Spalding,-0.1537024,52.7901,0.477953152894391,0.01,0.581537809736109
417,Brighton,-0.137163,50.82253,0.5457810240542244,0.7951290762552905,0.447082485992618
418,London,-0.12775830000000002,51.50735,0.8089610831397586,0.01,0.3944415572655432
419,Grimsby,-0.08078400000000001,53.56746999999999,0.31689442116728284,0.359750847673334,0.6907329381717732
420,Boston,-0.026576999999999996,52.97894,0.19531621854550546,0.47736365364883043,0.7842426880064346
421,Royston,-0.024066,52.048140000000004,0.4841721235096754,0.35088347077448384,0.5005463897014523
422,Louth_Lincs,-0.007711,53.36596,0.20546599832642426,0.36512187110447275,0.7615599884005904
423,Lewes,0.00878,50.873870000000004,0.6635195856386275,0.37469113465184734,0.3562695003670174
424,Chatteris,0.054012,52.4561,0.5053730574694895,0.4029136075363082,0.45405088167117713
425,Uckfield,0.095913,50.966409999999996,0.740221291521979,0.36947603656961553,0.2901588766313629
426,Cambridge,0.12181700000000001,52.20534,0.51347527155664,0.3758895458658113,0.5412664525160156
427,Bishop's Stortford,0.15365020000000001,51.87216,0.8431190630637417,0.01,0.26105309904025964
428,Wisbech,0.158797,52.66631999999999,0.2678803884308187,0.39048280360456394,0.6922037845085584
429,Sevenoaks,0.190898,51.27241,0.9362865886940919,0.01,0.18874458441040523
430,Tunbridge Wells,0.26369499999999996,51.13238,0.7346529786705288,0.01,0.36671741107778244
431,Eastbourne,0.29047199999999995,50.768029999999996,0.6874036397192016,0.36471346336262284,0.34489600584538077
432,Brentwood,0.30717490000000003,51.620470000000005,0.7053055848655475,0.01,0.43214274056432594
433,Skegness,0.337881,53.1464,0.08990197413920661,0.37035969331065083,0.8639659268656998
434,Downham Market,0.385472,52.606609999999996,0.2706449444926951,0.3688579128377284,0.6799794161450011
435,King's Lynn,0.4022963,52.75168000000001,0.283325907862102,0.3803138861188408,0.7032980652232634
436,Bexhill,0.4662071,50.849909999999994,0.6022082515600656,0.3595986009844664,0.3976231291452217
437,Chelmsford,0.4685497,51.73559,0.5851895358025301,0.01,0.4996481844978804
438,Mildenhall,0.5156095,52.347570000000005,0.31408332605369926,0.3404858745646446,0.6776728821243381
439,Medway,0.5417860999999999,51.404740000000004,0.7199986918285022,0.01,0.37211745236015126
440,Braintree,0.5509269,51.88009,0.5147345887081649,0.2934156429307908,0.5025252133691052
441,Gillingham,0.551438,51.38632,0.7488990415831693,0.01,0.38022685321473365
442,Hastings,0.573453,50.85426,0.6002812163959459,0.3754480224181079,0.4182707263227469
443,Maldon,0.6714479999999999,51.731809999999996,0.5506125271965543,0.01,0.5197326405663582
444,Southend,0.7077123000000001,51.54593,0.5944814479574158,0.01,0.503319686767283
445,Bury St Edmunds,0.7104931999999999,52.24292,0.3056500718480208,0.35630961856278853,0.7124590227153028
446,Thetford,0.751657,52.412859999999995,0.17157553283960864,0.35349281256599496,0.7926115220030534
447,Ashford,0.8750190000000001,51.14647,0.4857953608724177,0.01,0.581528212074019
448,Faversham,0.889358,51.31599,0.5745037917509708,0.01,0.4954259390782521
449,Colchester,0.891874,51.89593,0.3552175266706091,0.3054385809641493,0.6752331952269537
450,New Romney,0.939473,50.98512,0.5015119232061902,0.01,0.5310753116507493
451,Canterbury,1.0789089,51.280229999999996,0.4278495728625021,0.01,0.6539833155234783
452,Ipswich,1.14822,52.056740000000005,0.2091047313638506,0.31816386130281055,0.8099366542759879
453,Clacton,1.153035,51.78953,0.2643028611212826,0.3027443160532841,0.7179515017347842
454,Folkestone,1.169456,51.0814,0.48369578327556995,0.01,0.5805094005846552
455,Sheringham,1.2109589,52.944419999999994,0.07971023082117452,0.3541675171816764,0.8519326438103649
456,Harwich,1.260297,51.93473,0.17508366603647024,0.3080260236013778,0.781872062321481
457,Norwich,1.297355,52.63089,0.25581061004836414,0.3711499834608062,0.7753027089096359
458,Cromer,1.301866,52.93145,0.09120490076677212,0.3585061831333717,0.8632368669092308
459,Cromer,1.301866,52.93145,0.09120490076677212,0.3585061831333717,0.8632368669092308
460,Dover,1.3134027,51.12788,0.4780512041765097,0.01,0.5777703915347501
461,Felixstowe,1.3512549999999999,51.961729999999996,0.1307059571885333,0.31117991428227715,0.8412759202837463
462,Margate,1.3868339,51.38965,0.39717483541981585,0.01,0.6603979265300203
463,Ramsgate,1.4198950000000001,51.33555,0.46253217998530516,0.01,0.5990882691323671
464,Great Yarmouth,1.728047,52.59823000000001,0.16607769965006075,0.3625940054856549,0.8148422527008482
465,Lowestoft,1.7534490000000003,52.48114,0.18304033626708388,0.337002437020237,0.8072096283975904
466,Swaffham,0.687481,52.64747,0.20805334305824566,0.35524469642086104,0.7390421853388622
467,Dereham,0.9378270000000001,52.681619999999995,0.24289112217814854,0.3668472212649002,0.765493366290905
468,Ely,0.262363,52.39954,0.43594809614025404,0.3824057576478495,0.5518776125241261
469,March,0.088622,52.551719999999996,0.384935290444826,0.3985257347256698,0.5781275903405549
470,St Neots,-0.26510300000000003,52.23008,0.5344292980125752,0.01,0.516908531647714
471,Banham,1.0402849,52.45125,0.17467100490170398,0.3545549822634233,0.7952059982535913
472,Holt,1.086747,52.90936,0.15450138890641563,0.3584976167756533,0.8048363346102367
473,Hunstanton,0.49103199999999997,52.93891,0.01,0.38889704553017834,0.910754776555411
474,Horncastle,-0.11245,53.20731,0.259077309796321,0.36160252078283645,0.6946528310277973
475,Market Weighton,-0.6677465,53.86484,0.20896596311448576,0.35554863935704106,0.739735107759806
476,Hawes,-2.1968695,54.303830000000005,0.4528278038106757,0.9000014828530009,0.33219600894181667
477,Reeth,-1.9428115000000001,54.38946,0.36360156319817644,0.7158450162609169,0.5508651234938852
478,Aysgarth,-1.9967433999999997,54.29159,0.46667387530887866,0.5662947245851006,0.43635203589400096
479,Stanhope,-2.011302,54.74946,0.6011673424225878,0.19678269739377036,0.4418727758797753
480,Keswick,-3.134706,54.60128,0.3554763602651311,0.6444217532431948,0.5587939794780287
481,Oxenholme,-2.7243327999999996,54.30134,0.39075148574264457,0.8841939075649476,0.4691004368060638
