placename,dont_have,dont_have_negc,havent,havent_got,havent_got_negc,havent_negc,longitude,latitude
Dingle,0.9009209,0.0000000000,0.042870753,0.05620832,0.0000000000,0.0000000000,-10.2640135,52.14094
Tralee,0.9009209,0.0000000000,0.042870753,0.05620832,0.0000000000,0.0000000000, -9.6999325,52.27131
Killarney,0.9030111,0.0000000000,0.040887480,0.05610143,0.0000000000,0.0000000000, -9.5044265,52.05994
Bantry,0.9047252,0.0000000000,0.040959278,0.05431556,0.0000000000,0.0000000000, -9.4539805,51.68035
Mayo,0.8880015,0.0000000000,0.049573120,0.06242541,0.0000000000,0.0000000000, -9.4289369,54.01526
Ballycastle,0.8823318,0.0000000000,0.043115063,0.07455313,0.0000000000,0.0000000000, -9.3724643,54.27967
Abbeyfeale,0.9024546,0.0000000000,0.043034747,0.05451068,0.0000000000,0.0000000000, -9.2970823,52.38618
Ennistymon,0.9003617,0.0000000000,0.041433739,0.05820454,0.0000000000,0.0000000000, -9.2934951,52.94037
Galway,0.8926406,0.0000000000,0.042943752,0.06441563,0.0000000000,0.0000000000, -9.0567905,53.27067
Claremorris,0.9047137,0.0000000000,0.045535037,0.04975124,0.0000000000,0.0000000000, -9.0017356,53.72388
Clare,0.9005579,0.0000000000,0.041352150,0.05808992,0.0000000000,0.0000000000, -8.9811351,52.90453
Adare,0.9025795,0.0000000000,0.043195883,0.05422462,0.0000000000,0.0000000000, -8.7925892,52.56363
Charleville,0.9064922,0.0000000000,0.038750983,0.05475682,0.0000000000,0.0000000000, -8.6810176,52.36206
Mallow,0.9098764,0.0000000000,0.036049439,0.05407416,0.0000000000,0.0000000000, -8.6539164,52.13898
Limerick,0.9045194,0.0000000000,0.040796250,0.05468434,0.0000000000,0.0000000000, -8.6267343,52.66384
Loughrea,0.8994833,0.0000000000,0.038753431,0.06176328,0.0000000000,0.0000000000, -8.5660931,53.19891
Sligo,0.8850748,0.0000000000,0.042155977,0.07276925,0.0000000000,0.0000000000, -8.4760888,54.27661
Cork,0.9106434,0.0000000000,0.034040622,0.05531601,0.0000000000,0.0000000000, -8.4756035,51.89851
Nenagh,0.9042207,0.0000000000,0.039269523,0.05650980,0.0000000000,0.0000000000, -8.1983400,52.86350
Roscommon,0.9007515,0.0000000000,0.034308120,0.06494037,0.0000000000,0.0000000000, -8.1890955,53.62759
Tipperary,0.9125592,0.0000000000,0.034630036,0.05281080,0.0000000000,0.0000000000, -8.1618514,52.47379
Donegal,0.8497940,0.0000000000,0.051841021,0.09836501,0.0000000000,0.0000000000, -8.1096143,54.65383
Leitrim,0.8584541,0.0000000000,0.049762247,0.09178370,0.0000000000,0.0000000000, -8.0020132,54.12469
Athlone,0.8919824,0.0000000000,0.036513008,0.07150464,0.0000000000,0.0000000000, -7.9406898,53.42393
Longford,0.8982361,0.0000000000,0.035617368,0.06614654,0.0000000000,0.0000000000, -7.7932573,53.72763
Offaly,0.8978817,0.0000000000,0.034165971,0.06795232,0.0000000000,0.0000000000, -7.7122229,53.23569
Fermanagh,0.8501759,0.0000000000,0.060050952,0.08977314,0.0000000000,0.0000000000, -7.6318728,54.34383
Enniskillen,0.8501759,0.0000000000,0.060050952,0.08977314,0.0000000000,0.0000000000, -7.6315336,54.34382
Doon,0.8604204,0.0000000000,0.055944846,0.08363472,0.0000000000,0.0000000000, -7.6096400,54.18593
Westmeath,0.8976381,0.0015911180,0.029700870,0.07106994,0.0000000000,0.0000000000, -7.4653217,53.53453
Strabane,0.8505599,0.0000000000,0.049939467,0.09950061,0.0000000000,0.0000000000, -7.4633103,54.82739
Balivanich,0.9375826,0.0000000000,0.031704095,0.03071334,0.0000000000,0.0000000000, -7.3743509,57.47227
Cavan,0.8541160,0.0000000000,0.053838138,0.09204585,0.0000000000,0.0000000000, -7.3633319,53.98972
Mullingar,0.9041430,0.0013892319,0.027784638,0.06668313,0.0000000000,0.0000000000, -7.3401868,53.52582
Laois,0.9039406,0.0000000000,0.029472765,0.06658662,0.0000000000,0.0000000000, -7.3323007,52.99430
Omagh,0.8335365,0.0000000000,0.061709584,0.10475392,0.0000000000,0.0000000000, -7.3099597,54.59771
Derry,0.8390796,0.0000000000,0.047445833,0.11347462,0.0000000000,0.0000000000, -7.3085748,54.99661
Derry,0.8390796,0.0000000000,0.047445833,0.11347462,0.0000000000,0.0000000000, -7.3085748,54.99661
Kilkenny,0.8988154,0.0000000000,0.032082922,0.06910168,0.0000000000,0.0000000000, -7.2447879,52.65415
Tyrone,0.8210387,0.0000000000,0.067841547,0.11111978,0.0000000000,0.0000000000, -7.1312320,54.49121
Waterford,0.8995007,0.0000000000,0.037924278,0.06257506,0.0000000000,0.0000000000, -7.1100702,52.25932
Western Isles,0.9363577,0.0000000000,0.031331593,0.03231070,0.0000000000,0.0000000000, -7.0194034,57.75989
Monaghan,0.8360656,0.0000000000,0.065153426,0.09878100,0.0000000000,0.0000000000, -6.9683132,54.24920
Carlow,0.9003353,0.0016398222,0.025143940,0.07288099,0.0000000000,0.0000000000, -6.9341359,52.83651
Kildare,0.9044143,0.0014219357,0.025594843,0.06856890,0.0000000000,0.0000000000, -6.8194708,53.21204
Dungannon,0.8189984,0.0000000000,0.057158410,0.12384322,0.0000000000,0.0000000000, -6.7669352,54.50827
Cookstown,0.8200921,0.0000000000,0.048934945,0.13097294,0.0000000000,0.0000000000, -6.7443895,54.64182
Coleraine,0.8340065,0.0000000000,0.038772213,0.12722132,0.0000000000,0.0000000000, -6.6646103,55.13258
Meath,0.9027249,0.0013594345,0.028094979,0.06782068,0.0000000000,0.0000000000, -6.6564169,53.60555
Armagh,0.8168295,0.0000000000,0.051065719,0.13210480,0.0000000000,0.0000000000, -6.6527920,54.35028
Armagh,0.8168295,0.0000000000,0.051065719,0.13210480,0.0000000000,0.0000000000, -6.6527920,54.35028
Magherafelt,0.8687898,0.0038216561,0.038216561,0.08917197,0.0000000000,0.0000000000, -6.6079805,54.75537
Dunvegan,0.9366060,0.0000000000,0.031209363,0.03218466,0.0000000000,0.0000000000, -6.5813982,57.43660
Louth,0.9029947,0.0015209897,0.028898803,0.06658555,0.0000000000,0.0000000000, -6.4889423,53.92523
Wexford,0.8892707,0.0000000000,0.037227950,0.07350134,0.0000000000,0.0000000000, -6.4633381,52.33692
Craigavon,0.8737758,0.0032644178,0.038084875,0.08487486,0.0000000000,0.0000000000, -6.4175653,54.44293
Stornoway,0.9246324,0.0000000000,0.027573529,0.04779412,0.0000000000,0.0000000000, -6.3848692,58.20943
Drogheda,0.8993246,0.0014201856,0.028403711,0.07085148,0.0000000000,0.0000000000, -6.3560985,53.71786
Rosslare,0.8886455,0.0000000000,0.035596933,0.07575758,0.0000000000,0.0000000000, -6.3414908,52.25131
Newry,0.8843648,0.0032573290,0.042345277,0.07003257,0.0000000000,0.0000000000, -6.3402300,54.17510
Scilly Isles,0.7687225,0.0000000000,0.020424509,0.20965158,0.0012014417,0.0000000000, -6.3274966,49.92773
Ballymena,0.8799559,0.0033039648,0.034140969,0.08259912,0.0000000000,0.0000000000, -6.2802213,54.86529
Banbridge,0.8877193,0.0035087719,0.037426901,0.07134503,0.0000000000,0.0000000000, -6.2704803,54.34873
Dublin,0.9058153,0.0013941816,0.024165815,0.06862472,0.0000000000,0.0000000000, -6.2603097,53.34981
Antrim,0.8795750,0.0035419126,0.038961039,0.07792208,0.0000000000,0.0000000000, -6.2072498,54.71953
Antrim,0.8795750,0.0035419126,0.038961039,0.07792208,0.0000000000,0.0000000000, -6.2072498,54.71953
Portree,0.9337388,0.0000000000,0.030729834,0.03553137,0.0000000000,0.0000000000, -6.1960231,57.41247
Islay,0.9253275,0.0000000000,0.015720524,0.05895197,0.0000000000,0.0000000000, -6.1770670,55.73625
Wicklow,0.9061920,0.0014165644,0.024553782,0.06783769,0.0000000000,0.0000000000, -6.0445890,52.98082
Kilkeel,0.8837810,0.0030991736,0.040289256,0.07283058,0.0000000000,0.0000000000, -6.0070040,54.06312
Mull,0.9209637,0.0000000000,0.017751479,0.06128487,0.0000000000,0.0000000000, -6.0008870,56.43920
Belfast,0.8961494,0.0035005834,0.032672112,0.06767795,0.0000000000,0.0000000000, -5.9301200,54.59728
Broadford,0.9337388,0.0000000000,0.030729834,0.03553137,0.0000000000,0.0000000000, -5.9096592,57.24139
Down,0.8939220,0.0034403670,0.036697248,0.06594037,0.0000000000,0.0000000000, -5.7156922,54.32875
Kyle of Lochalsh,0.9332258,0.0000000000,0.030967742,0.03580645,0.0000000000,0.0000000000, -5.7143293,57.28261
Campbeltown,0.9217033,0.0000000000,0.014423077,0.06387363,0.0000000000,0.0000000000, -5.6053740,55.42412
Penzance,0.7687225,0.0000000000,0.020424509,0.20965158,0.0012014417,0.0000000000, -5.5375920,50.11880
Oban,0.9313110,0.0000000000,0.014644351,0.05404463,0.0000000000,0.0000000000, -5.4710470,56.41516
Lochgilphead,0.9319340,0.0000000000,0.012593703,0.05547226,0.0000000000,0.0000000000, -5.4323449,56.03829
Helston,0.7678000,0.0000000000,0.020400000,0.21060000,0.0012000000,0.0000000000, -5.2749960,50.10159
Redruth,0.7687225,0.0000000000,0.020424509,0.20965158,0.0012014417,0.0000000000, -5.2266660,50.23302
Ullapool,0.9249084,0.0000000000,0.034798535,0.04029304,0.0000000000,0.0000000000, -5.1613130,57.89542
Ballachulish,0.9192804,0.0000000000,0.016605166,0.06411439,0.0000000000,0.0000000000, -5.1337200,56.67393
Fort William,0.9364736,0.0000000000,0.015557476,0.04796889,0.0000000000,0.0000000000, -5.1052179,56.81982
Achnasheen,0.9275093,0.0000000000,0.031598513,0.04089219,0.0000000000,0.0000000000, -5.0787658,57.57859
Newquay,0.7711254,0.0000000000,0.020424509,0.20724870,0.0012014417,0.0000000000, -5.0737190,50.41550
Falmouth,0.7702000,0.0000000000,0.020400000,0.20820000,0.0012000000,0.0000000000, -5.0662700,50.15257
Rothesay,0.9331590,0.0000000000,0.012205754,0.05463528,0.0000000000,0.0000000000, -5.0557930,55.83596
Truro,0.7711254,0.0000000000,0.020424509,0.20724870,0.0012014417,0.0000000000, -5.0510410,50.26320
Milford Haven,0.7375406,0.0032502709,0.027627302,0.23158180,0.0000000000,0.0000000000, -5.0426971,51.71431
Stranraer,0.9107906,0.0032051282,0.026709402,0.05929487,0.0000000000,0.0000000000, -5.0240550,54.90337
Fishguard,0.7541988,0.0027235588,0.023150250,0.21992737,0.0000000000,0.0000000000, -4.9759890,51.99393
Inchnadamph,0.9259259,0.0000000000,0.031481481,0.04259259,0.0000000000,0.0000000000, -4.9742950,58.15221
Haverfordwest,0.7382385,0.0032822757,0.027899344,0.23057987,0.0000000000,0.0000000000, -4.9713190,51.80047
Dunoon,0.9331903,0.0000000000,0.012871591,0.05393809,0.0000000000,0.0000000000, -4.9262140,55.95097
Pembroke,0.7375406,0.0032502709,0.027627302,0.23158180,0.0000000000,0.0000000000, -4.9086370,51.67404
Girvan,0.9259740,0.0000000000,0.017532468,0.05649351,0.0000000000,0.0000000000, -4.8542179,55.24016
Wadebridge,0.7719903,0.0000000000,0.020672882,0.20612079,0.0012160519,0.0000000000, -4.8364560,50.51665
Invergarry,0.9290803,0.0000000000,0.031088083,0.03983161,0.0000000000,0.0000000000, -4.8002610,57.07095
St Austell,0.7714000,0.0000000000,0.021600000,0.20580000,0.0012000000,0.0000000000, -4.7834252,50.34038
Greenock,0.9336124,0.0000000000,0.009875847,0.05651179,0.0000000000,0.0000000000, -4.7719830,55.95648
Helensburgh,0.9330476,0.0000000000,0.009889799,0.05706257,0.0000000000,0.0000000000, -4.7340140,56.00232
Bodmin,0.7655670,0.0000000000,0.022268041,0.21092784,0.0012371134,0.0000000000, -4.7188629,50.47150
Tenby,0.7334239,0.0032608696,0.027717391,0.23559783,0.0000000000,0.0000000000, -4.7035790,51.67274
Camelford,0.7833912,0.0000000000,0.020815265,0.19449263,0.0013009540,0.0000000000, -4.6823640,50.62206
Irvine,0.9312998,0.0000000000,0.014839242,0.05386095,0.0000000000,0.0000000000, -4.6696364,55.61157
Cardigan,0.7762009,0.0000000000,0.021834061,0.20196507,0.0000000000,0.0000000000, -4.6608640,52.08370
Holyhead,0.7771967,0.0000000000,0.043933054,0.17887029,0.0000000000,0.0000000000, -4.6330380,53.30944
Ayr,0.9278764,0.0000000000,0.015455066,0.05666857,0.0000000000,0.0000000000, -4.6291790,55.45856
Dumbarton,0.9397223,0.0000000000,0.008543300,0.05173443,0.0000000000,0.0000000000, -4.5645540,55.94529
Bude,0.7761097,0.0026109661,0.022193211,0.19778068,0.0013054830,0.0000000000, -4.5436780,50.82664
Isle of Man,0.8795284,0.0030758715,0.029733424,0.08766234,0.0000000000,0.0000000000, -4.5126331,54.27697
Kilmarnock,0.9352607,0.0000000000,0.008895478,0.05584383,0.0000000000,0.0000000000, -4.4987920,55.61472
Newton Stewart,0.9137645,0.0000000000,0.013266998,0.07296849,0.0000000000,0.0000000000, -4.4831640,54.96030
Liskeard,0.7757829,0.0000000000,0.025052192,0.19791232,0.0012526096,0.0000000000, -4.4647190,50.45552
Altnaharra,0.9257885,0.0000000000,0.031539889,0.04267161,0.0000000000,0.0000000000, -4.4426550,58.28023
Pwllheli,0.7948164,0.0000000000,0.030237581,0.17494600,0.0000000000,0.0000000000, -4.4176339,52.88882
Lairg,0.9255121,0.0000000000,0.031657356,0.04283054,0.0000000000,0.0000000000, -4.4024140,58.02206
Launceston,0.7834437,0.0026490066,0.025165563,0.18741722,0.0013245033,0.0000000000, -4.3604516,50.63683
Carmarthen,0.7276445,0.0032715376,0.031079607,0.23800436,0.0000000000,0.0000000000, -4.3121310,51.85762
Llangefni,0.7725857,0.0000000000,0.043613707,0.18380062,0.0000000000,0.0000000000, -4.3114020,53.25579
Caernarfon,0.7745098,0.0000000000,0.045751634,0.17973856,0.0000000000,0.0000000000, -4.2739110,53.13955
Cumnock,0.9352897,0.0000000000,0.010534236,0.05417607,0.0000000000,0.0000000000, -4.2658289,55.45355
Aberaeron,0.7616279,0.0000000000,0.018604651,0.21976744,0.0000000000,0.0000000000, -4.2581619,52.24279
Alness,0.9300567,0.0000000000,0.032136106,0.03780718,0.0000000000,0.0000000000, -4.2568250,57.69595
Glasgow,0.9416445,0.0000000000,0.008723581,0.04963189,0.0000000000,0.0000000000, -4.2518060,55.86424
Dalwhinnie,0.9255214,0.0000000000,0.017874876,0.05660377,0.0000000000,0.0000000000, -4.2427830,56.93660
Inverness,0.9279113,0.0000000000,0.035120148,0.03696858,0.0000000000,0.0000000000, -4.2247210,57.47777
Saltash,0.7961538,0.0000000000,0.023076923,0.17923077,0.0015384615,0.0000000000, -4.2164300,50.40921
Bideford,0.7862697,0.0026660742,0.024883359,0.18618085,0.0000000000,0.0000000000, -4.2066660,51.01668
Invergordon,0.9319471,0.0000000000,0.032136106,0.03591682,0.0000000000,0.0000000000, -4.1728820,57.68811
Llanelli,0.6985836,0.0033994334,0.033427762,0.26458924,0.0000000000,0.0000000000, -4.1602480,51.68089
Plymouth,0.8004695,0.0000000000,0.023474178,0.17449139,0.0015649452,0.0000000000, -4.1426565,50.37546
Tavistock,0.7922951,0.0000000000,0.025077231,0.18153734,0.0010903144,0.0000000000, -4.1416540,50.55112
Porthmadog,0.7803838,0.0000000000,0.034115139,0.18550107,0.0000000000,0.0000000000, -4.1333840,52.92784
Bangor,0.7637306,0.0000000000,0.043523316,0.19274611,0.0000000000,0.0000000000, -4.1292630,53.22739
Tywyn,0.7834928,0.0000000000,0.026315789,0.19019139,0.0000000000,0.0000000000, -4.0872490,52.58701
Aberystwyth,0.7872063,0.0000000000,0.020887728,0.19190601,0.0000000000,0.0000000000, -4.0829200,52.41530
Lampeter,0.7646444,0.0000000000,0.020920502,0.21443515,0.0000000000,0.0000000000, -4.0785090,52.11290
Barnstaple,0.7992603,0.0024655845,0.019313746,0.17896035,0.0000000000,0.0000000000, -4.0583380,51.07816
Tain,0.9183673,0.0000000000,0.031539889,0.05009276,0.0000000000,0.0000000000, -4.0552300,57.81150
Okehampton,0.7921617,0.0018515661,0.024996143,0.18006480,0.0009257831,0.0000000000, -4.0042630,50.73831
Llandeilo,0.7036501,0.0034762457,0.033024334,0.25984936,0.0000000000,0.0000000000, -3.9914300,51.88469
Motherwell,0.9439785,0.0000000000,0.008813867,0.04720761,0.0000000000,0.0000000000, -3.9810968,55.78321
Golspie,0.9183673,0.0000000000,0.031539889,0.05009276,0.0000000000,0.0000000000, -3.9760860,57.97341
Airdrie,0.9672925,0.0000000000,0.006056935,0.02665051,0.0000000000,0.0000000000, -3.9625660,55.86627
Swansea,0.7126406,0.0032137118,0.028387788,0.25575790,0.0000000000,0.0000000000, -3.9436460,51.62144
Stirling,0.9470899,0.0000000000,0.016931217,0.03597884,0.0000000000,0.0000000000, -3.9369029,56.11652
Tregaron,0.7675325,0.0000000000,0.015584416,0.21688312,0.0000000000,0.0000000000, -3.9343850,52.22000
Tregaron,0.7675325,0.0000000000,0.015584416,0.21688312,0.0000000000,0.0000000000, -3.9343850,52.22000
Castle Douglas,0.8507772,0.0000000000,0.021761658,0.12746114,0.0000000000,0.0000000000, -3.9314140,54.94042
Dolgellau,0.7672811,0.0000000000,0.029953917,0.20276498,0.0000000000,0.0000000000, -3.8844000,52.74215
Aberfeldy,0.9383562,0.0000000000,0.010273973,0.05136986,0.0000000000,0.0000000000, -3.8669690,56.62175
Machynlleth,0.7593085,0.0000000000,0.021276596,0.21941489,0.0000000000,0.0000000000, -3.8534850,52.59027
Brora,0.9183673,0.0000000000,0.031539889,0.05009276,0.0000000000,0.0000000000, -3.8525480,58.01216
Llandudno,0.7632006,0.0000000000,0.034118603,0.20268075,0.0000000000,0.0000000000, -3.8276090,53.32406
Llandudno,0.7632006,0.0000000000,0.034118603,0.20268075,0.0000000000,0.0000000000, -3.8276090,53.32406
Aviemore,0.9300567,0.0000000000,0.032136106,0.03780718,0.0000000000,0.0000000000, -3.8238120,57.19449
Dalbeattie,0.8471776,0.0000000000,0.024782010,0.12804039,0.0000000000,0.0000000000, -3.8225270,54.93422
Falkirk,0.9469965,0.0000000000,0.017667845,0.03533569,0.0000000000,0.0000000000, -3.7839131,56.00188
Kingsbridge,0.7970886,0.0000000000,0.024498491,0.17734777,0.0010651518,0.0000000000, -3.7774930,50.28395
Pitlochry,0.9285714,0.0000000000,0.011278195,0.06015038,0.0000000000,0.0000000000, -3.7297110,56.70436
Colwyn Bay,0.7680369,0.0000000000,0.027684564,0.20427852,0.0000000000,0.0000000000, -3.7276400,53.29318
Totnes,0.8002120,0.0000000000,0.024377318,0.17435082,0.0010598834,0.0000000000, -3.6857970,50.43374
Grantown-on-Spey,0.9289720,0.0000000000,0.031775701,0.03925234,0.0000000000,0.0000000000, -3.6096280,57.33041
Dumfries,0.8469388,0.0000000000,0.022108844,0.13095238,0.0000000000,0.0000000000, -3.6051200,55.07086
Whitehaven,0.8079002,0.0000000000,0.023700624,0.16839917,0.0000000000,0.0000000000, -3.5892330,54.54970
Dartmouth,0.8041309,0.0000000000,0.024155435,0.17066340,0.0010502363,0.0000000000, -3.5788070,50.35252
Bridgend,0.7006245,0.0000000000,0.027322404,0.27205308,0.0000000000,0.0000000000, -3.5769450,51.50429
Paignton,0.8053575,0.0000000000,0.024004175,0.16959471,0.0010436598,0.0000000000, -3.5642350,50.43508
Workington,0.8058991,0.0000000000,0.022835395,0.17126546,0.0000000000,0.0000000000, -3.5427520,54.64357
Llanidloes,0.7791925,0.0000000000,0.018633540,0.20217391,0.0000000000,0.0000000000, -3.5401950,52.44779
Exeter,0.8065686,0.0024178924,0.020552085,0.17046141,0.0000000000,0.0000000000, -3.5338990,50.71841
Torquay,0.8078459,0.0000000000,0.023954175,0.16715848,0.0010414859,0.0000000000, -3.5253150,50.46192
Thurso,0.9186691,0.0000000000,0.031423290,0.04990758,0.0000000000,0.0000000000, -3.5220800,58.59357
Livingston,0.9310345,0.0000000000,0.011738811,0.05722671,0.0000000000,0.0000000000, -3.5180680,55.90071
Rhyl,0.7280581,0.0000000000,0.033172080,0.23876987,0.0000000000,0.0000000000, -3.4916340,53.31914
Tiverton,0.8026454,0.0025194205,0.016376233,0.17845895,0.0000000000,0.0000000000, -3.4912070,50.90205
Tiverton,0.8026454,0.0025194205,0.016376233,0.17845895,0.0000000000,0.0000000000, -3.4912070,50.90205
Minehead,0.7972399,0.0000000000,0.018889187,0.18387089,0.0000000000,0.0000000000, -3.4811520,51.20428
Dunfermline,0.9380310,0.0000000000,0.011394303,0.05057471,0.0000000000,0.0000000000, -3.4521510,56.07174
Perth,0.9349364,0.0000000000,0.008486563,0.05657709,0.0000000000,0.0000000000, -3.4308381,56.39499
Prestatyn,0.7609849,0.0000000000,0.030885162,0.20685629,0.0012736149,0.0000000000, -3.4076130,53.33651
Builth Wells,0.7323789,0.0000000000,0.019823789,0.23898678,0.0088105727,0.0000000000, -3.4045920,52.15002
Braemar,0.9298030,0.0000000000,0.014778325,0.05541872,0.0000000000,0.0000000000, -3.3979439,57.00647
Brecon,0.6482143,0.0000000000,0.032142857,0.30535714,0.0142857143,0.0000000000, -3.3914630,51.94895
Merthyr Tydfil,0.6461538,0.0000000000,0.043076923,0.29846154,0.0123076923,0.0000000000, -3.3816460,51.74873
Llandrindod Wells,0.7710247,0.0000000000,0.021201413,0.20353357,0.0042402827,0.0000000000, -3.3777420,52.24170
Corwen,0.7780580,0.0000000000,0.020176545,0.20176545,0.0000000000,0.0000000000, -3.3692420,52.98005
Cockermouth,0.8088445,0.0000000000,0.022824536,0.16833096,0.0000000000,0.0000000000, -3.3679850,54.66326
Lockerbie,0.8450185,0.0000000000,0.025092251,0.12988930,0.0000000000,0.0000000000, -3.3490080,55.12224
Blairgowrie,0.9258721,0.0000000000,0.008720930,0.06540698,0.0000000000,0.0000000000, -3.3378318,56.58941
Elgin,0.9168174,0.0000000000,0.036166365,0.04701627,0.0000000000,0.0000000000, -3.3184850,57.64945
Newtown,0.7847703,0.0000000000,0.015103839,0.20012587,0.0000000000,0.0000000000, -3.3131060,52.51211
Ruthin,0.7633531,0.0000000000,0.026211672,0.21043521,0.0000000000,0.0000000000, -3.3103108,53.11487
Ruthin,0.7633531,0.0000000000,0.026211672,0.21043521,0.0000000000,0.0000000000, -3.3103108,53.11487
Sidmouth,0.8021403,0.0000000000,0.024256837,0.17360285,0.0000000000,0.0000000000, -3.2375600,50.67865
Barrow-in-Furness,0.7809954,0.0024199403,0.018149552,0.19843511,0.0000000000,0.0000000000, -3.2188940,54.10897
Peebles,0.9420508,0.0000000000,0.010555795,0.04739336,0.0000000000,0.0000000000, -3.1936420,55.65307
Edinburgh,0.9432563,0.0000000000,0.008812466,0.04793122,0.0000000000,0.0000000000, -3.1882670,55.95325
Cardiff,0.8016787,0.0000000000,0.029728211,0.16859305,0.0000000000,0.0000000000, -3.1790900,51.48158
Llangollen,0.7802395,0.0000000000,0.015568862,0.20419162,0.0000000000,0.0000000000, -3.1716600,52.96921
Kirkcaldy,0.9389313,0.0000000000,0.009567430,0.05150127,0.0000000000,0.0000000000, -3.1581370,56.11682
Welshpool,0.7866132,0.0000000000,0.016414372,0.19697246,0.0000000000,0.0000000000, -3.1464070,52.66035
Mold,0.7555710,0.0000000000,0.028783658,0.21564531,0.0000000000,0.0000000000, -3.1419030,53.16720
Mold,0.7555710,0.0000000000,0.028783658,0.21564531,0.0000000000,0.0000000000, -3.1419030,53.16720
Taunton,0.7820690,0.0000000000,0.022758621,0.19517241,0.0000000000,0.0000000000, -3.1068490,51.01534
Wick,0.9209622,0.0000000000,0.030927835,0.04810997,0.0000000000,0.0000000000, -3.0937160,58.43894
John o' Groats,0.9245961,0.0000000000,0.030520646,0.04488330,0.0000000000,0.0000000000, -3.0688997,58.63734
Dalkeith,0.9415477,0.0000000000,0.009077826,0.04937452,0.0000000000,0.0000000000, -3.0666060,55.89312
Oswestry,0.7867682,0.0000000000,0.020942408,0.19228939,0.0000000000,0.0000000000, -3.0564120,52.85715
Blackpool,0.8057292,0.0019139977,0.017225979,0.17513079,0.0000000000,0.0000000000, -3.0356748,53.81751
Birkenhead,0.7554387,0.0010699001,0.036198288,0.20622325,0.0010699001,0.0000000000, -3.0230090,53.38999
Cupar,0.9236641,0.0000000000,0.007633588,0.06870229,0.0000000000,0.0000000000, -3.0101370,56.32023
Southport,0.7828185,0.0000000000,0.024699069,0.19248240,0.0000000000,0.0000000000, -3.0101130,53.64571
Bridgwater,0.7757287,0.0000000000,0.027959548,0.19631172,0.0000000000,0.0000000000, -3.0036320,51.12789
Langholm,0.8316080,0.0000000000,0.026224983,0.14216701,0.0000000000,0.0000000000, -2.9989130,55.15306
Newport,0.7975791,0.0000000000,0.030196791,0.17222407,0.0000000000,0.0000000000, -2.9976640,51.58415
Axminster,0.7745653,0.0000000000,0.025141420,0.20029332,0.0000000000,0.0000000000, -2.9949370,50.78273
Wrexham,0.7713777,0.0000000000,0.015439430,0.21318290,0.0000000000,0.0000000000, -2.9924940,53.04304
Liverpool,0.7506336,0.0010861694,0.036748733,0.21044533,0.0010861694,0.0000000000, -2.9915726,53.40837
Weston-super-Mare,0.8035619,0.0000000000,0.020350423,0.17608769,0.0000000000,0.0000000000, -2.9772550,51.34741
Dundee,0.9274756,0.0000000000,0.008368201,0.06415621,0.0000000000,0.0000000000, -2.9707210,56.46202
Kirkwall,0.9245961,0.0000000000,0.030520646,0.04488330,0.0000000000,0.0000000000, -2.9622491,58.98467
Ambleside,0.7817720,0.0000000000,0.026556847,0.19167116,0.0000000000,0.0000000000, -2.9613330,54.42874
Orkney Islands,0.9245961,0.0000000000,0.030520646,0.04488330,0.0000000000,0.0000000000, -2.9605206,58.98094
Lyme Regis,0.7803468,0.0000000000,0.024772915,0.19488026,0.0000000000,0.0000000000, -2.9366390,50.72516
Carlisle,0.8069688,0.0000000000,0.025651988,0.16737922,0.0000000000,0.0000000000, -2.9329310,54.89247
Chester,0.7598502,0.0019537610,0.021816998,0.21442527,0.0019537610,0.0000000000, -2.8930750,53.19339
Forfar,0.9205202,0.0000000000,0.008670520,0.07080925,0.0000000000,0.0000000000, -2.8890620,56.64356
Morecambe,0.7804629,0.0025527570,0.021698434,0.19528591,0.0000000000,0.0000000000, -2.8649680,54.07417
Selkirk,0.9084782,0.0000000000,0.012770486,0.07875133,0.0000000000,0.0000000000, -2.8385240,55.55066
Galashiels,0.9388646,0.0000000000,0.010525137,0.05061023,0.0000000000,0.0000000000, -2.8144490,55.62373
Lancaster,0.7831088,0.0024646730,0.020949721,0.19347683,0.0000000000,0.0000000000, -2.8007399,54.04657
St Andrews,0.9160650,0.0000000000,0.008122744,0.07581227,0.0000000000,0.0000000000, -2.7967214,56.33978
Hawick,0.8454785,0.0000000000,0.028094820,0.12642669,0.0000000000,0.0000000000, -2.7809140,55.42706
Bridport,0.7657945,0.0038289726,0.022973835,0.20740268,0.0000000000,0.0000000000, -2.7583010,50.73358
Shrewsbury,0.7736039,0.0000000000,0.025155123,0.20124099,0.0000000000,0.0000000000, -2.7553268,52.70730
Penrith,0.7933239,0.0000000000,0.026988636,0.17968750,0.0000000000,0.0000000000, -2.7527080,54.66410
Kendal,0.7864716,0.0029452189,0.022089142,0.18849401,0.0000000000,0.0000000000, -2.7462900,54.32801
Street,0.7745215,0.0000000000,0.024521531,0.20095694,0.0000000000,0.0000000000, -2.7429190,51.12468
Glastonbury,0.7767333,0.0000000000,0.024089307,0.19917744,0.0000000000,0.0000000000, -2.7184540,51.14743
Hereford,0.7700583,0.0000000000,0.013446885,0.21649485,0.0000000000,0.0000000000, -2.7159740,52.05640
Ludlow,0.7665716,0.0000000000,0.018896587,0.21453185,0.0000000000,0.0000000000, -2.7139129,52.36775
Preston,0.8210055,0.0000000000,0.010529087,0.16846539,0.0000000000,0.0000000000, -2.7030900,53.76320
Whitchurch,0.7920440,0.0000000000,0.021992238,0.18596378,0.0000000000,0.0000000000, -2.6820450,52.96872
Wells,0.8110840,0.0016246954,0.026175648,0.16111562,0.0000000000,0.0000000000, -2.6445979,51.20935
Yeovil,0.7556675,0.0037783375,0.022670025,0.21788413,0.0000000000,0.0000000000, -2.6333080,50.94206
Wigan,0.8007796,0.0000000000,0.027284539,0.17193590,0.0000000000,0.0000000000, -2.6325074,53.54506
Warrington,0.7722249,0.0000000000,0.024507448,0.20038443,0.0028832292,0.0000000000, -2.5969501,53.39004
Arbroath,0.9203297,0.0000000000,0.008241758,0.07142857,0.0000000000,0.0000000000, -2.5915430,56.55911
Bristol,0.8147853,0.0029889409,0.025505629,0.15672014,0.0000000000,0.0000000000, -2.5879100,51.45451
Guernsey,0.8143847,0.0020797227,0.022876950,0.15961872,0.0010398614,0.0000000000, -2.5852780,49.46569
Ross-on-Wye,0.7992624,0.0000000000,0.015806112,0.18493151,0.0000000000,0.0000000000, -2.5824460,51.91445
Jedburgh,0.8510740,0.0000000000,0.022911695,0.12601432,0.0000000000,0.0000000000, -2.5549369,55.47772
Sedbergh,0.7923875,0.0000000000,0.025951557,0.18166090,0.0000000000,0.0000000000, -2.5281740,54.32363
Sedbergh,0.7923875,0.0000000000,0.025951557,0.18166090,0.0000000000,0.0000000000, -2.5281740,54.32363
Nantwich,0.7742200,0.0000000000,0.020525452,0.20279146,0.0024630542,0.0000000000, -2.5241020,53.06719
Banff,0.8884970,0.0000000000,0.026044493,0.08545849,0.0000000000,0.0000000000, -2.5240380,57.66651
Dunbar,0.9348110,0.0000000000,0.010212951,0.05497610,0.0000000000,0.0000000000, -2.5167370,56.00209
Cinderford,0.8080721,0.0000000000,0.019321597,0.17260627,0.0000000000,0.0000000000, -2.5009579,51.82530
Banchory,0.9146571,0.0000000000,0.012434062,0.07290882,0.0000000000,0.0000000000, -2.4909599,57.05386
Blackburn,0.8257492,0.0000000000,0.011759256,0.16249154,0.0000000000,0.0000000000, -2.4875290,53.74858
Market Drayton,0.7630056,0.0000000000,0.019075948,0.21403860,0.0038798539,0.0000000000, -2.4834850,52.90355
Telford,0.7623753,0.0000000000,0.026281072,0.20915353,0.0021900893,0.0000000000, -2.4672611,52.67759
Montrose,0.9156250,0.0000000000,0.010855263,0.07351974,0.0000000000,0.0000000000, -2.4661150,56.70692
Turriff,0.8982637,0.0000000000,0.019533370,0.08220293,0.0000000000,0.0000000000, -2.4623000,57.53893
Weymouth,0.7955209,0.0029211295,0.023369036,0.17818890,0.0000000000,0.0000000000, -2.4576210,50.61443
Crewe,0.7786530,0.0000000000,0.019692792,0.19929106,0.0023631351,0.0000000000, -2.4438209,53.10041
Fortuneswell,0.7958192,0.0029168692,0.023334954,0.17792902,0.0000000000,0.0000000000, -2.4422190,50.55919
Dorchester,0.7900318,0.0031813362,0.025450689,0.18133616,0.0000000000,0.0000000000, -2.4411810,50.71116
Alston,0.7916210,0.0000000000,0.033953998,0.17442497,0.0000000000,0.0000000000, -2.4386850,54.81217
Kelso,0.8729198,0.0000000000,0.024205749,0.10287443,0.0000000000,0.0000000000, -2.4322070,55.60003
Wincanton,0.7978873,0.0042253521,0.021126761,0.17676056,0.0000000000,0.0000000000, -2.4160070,51.05569
Clitheroe,0.8339931,0.0000000000,0.013329025,0.15267792,0.0000000000,0.0000000000, -2.3930830,53.87110
Sark,0.8298238,0.0025784272,0.016759777,0.15083799,0.0000000000,0.0000000000, -2.3666256,49.43007
Bath,0.8212720,0.0029219831,0.025518652,0.15028733,0.0000000000,0.0000000000, -2.3590167,51.38106
Kidderminster,0.7362621,0.0000000000,0.025018615,0.23767684,0.0010424423,0.0000000000, -2.2496839,52.38860
Manchester,0.8196146,0.0012184773,0.018124850,0.15982361,0.0006092387,0.0006092387, -2.2426305,53.48076
Burnley,0.8477483,0.0000000000,0.015225172,0.13702655,0.0000000000,0.0000000000, -2.2405035,53.78929
Gloucester,0.8125797,0.0000000000,0.021674458,0.16574586,0.0000000000,0.0000000000, -2.2381560,51.86424
Newcastle-under-Lyme,0.7536634,0.0000000000,0.024554455,0.21702970,0.0047524752,0.0000000000, -2.2273002,53.01321
Worcester,0.7680000,0.0000000000,0.027428571,0.20457143,0.0000000000,0.0000000000, -2.2215750,52.19364
Trowbridge,0.8323171,0.0000000000,0.027439024,0.14024390,0.0000000000,0.0000000000, -2.2088530,51.31966
Shaftesbury,0.8062954,0.0048426150,0.007263923,0.18159806,0.0000000000,0.0000000000, -2.1980830,51.00460
Alderney,0.8157785,0.0024979184,0.024979184,0.15674438,0.0000000000,0.0000000000, -2.1973557,49.71500
Stoke-on-Trent,0.7527690,0.0000000000,0.022151899,0.22033228,0.0047468354,0.0000000000, -2.1794040,53.00267
Colne,0.8286921,0.0000000000,0.030506884,0.14080100,0.0000000000,0.0000000000, -2.1769910,53.85564
Blandford Forum,0.8169137,0.0026155187,0.015693112,0.16477768,0.0000000000,0.0000000000, -2.1653530,50.85691
Rochdale,0.8206591,0.0012848300,0.017505809,0.15990780,0.0006424150,0.0000000000, -2.1561000,53.60971
Jersey,0.8198290,0.0024429967,0.024429967,0.15329805,0.0000000000,0.0000000000, -2.1312500,49.21444
Wolverhampton,0.7495111,0.0000000000,0.026007039,0.22311302,0.0013687916,0.0000000000, -2.1288200,52.58697
Stafford,0.7454301,0.0000000000,0.026265153,0.22426400,0.0040407928,0.0000000000, -2.1206600,52.80669
Macclesfield,0.8172997,0.0000000000,0.030219019,0.15248129,0.0000000000,0.0000000000, -2.1192870,53.25866
Hexham,0.8282452,0.0000000000,0.025961538,0.14579327,0.0000000000,0.0000000000, -2.1121439,54.97266
Aberdeen,0.9084025,0.0000000000,0.019052272,0.07254519,0.0000000000,0.0000000000, -2.0942780,57.14972
Dudley,0.8025146,0.0023079713,0.019694688,0.17409797,0.0013847828,0.0000000000, -2.0811120,52.51226
Cheltenham,0.8119478,0.0000000000,0.023979806,0.16407236,0.0000000000,0.0000000000, -2.0782533,51.89939
Bromsgrove,0.7456682,0.0000000000,0.025160218,0.22917161,0.0000000000,0.0000000000, -2.0619060,52.33559
Skipton,0.8495190,0.0000000000,0.021988090,0.12849290,0.0000000000,0.0000000000, -2.0162787,53.96285
Fraserburgh,0.8924528,0.0000000000,0.019407008,0.08814016,0.0000000000,0.0000000000, -2.0076310,57.69335
Berwick,0.8412698,0.0000000000,0.031746032,0.12698413,0.0000000000,0.0000000000, -2.0053950,55.77024
Poole,0.8280632,0.0029644269,0.017786561,0.15118577,0.0000000000,0.0000000000, -1.9872480,50.71505
Walsall,0.7966117,0.0023797382,0.024590628,0.17499008,0.0014278429,0.0000000000, -1.9829190,52.58621
Cirencester,0.8012238,0.0000000000,0.020979021,0.17779720,0.0000000000,0.0000000000, -1.9682430,51.71849
Evesham,0.7880122,0.0006772773,0.023366068,0.18794446,0.0000000000,0.0000000000, -1.9467700,52.09215
Buxton,0.8139332,0.0017416546,0.032510885,0.15181422,0.0000000000,0.0000000000, -1.9148300,53.25908
Keighley,0.8405152,0.0000000000,0.022482436,0.13700234,0.0000000000,0.0000000000, -1.9123580,53.86780
Birmingham,0.8017828,0.0022192632,0.024707797,0.16951472,0.0017754106,0.0000000000, -1.8904010,52.48624
Bournemouth,0.8215962,0.0031298905,0.018779343,0.15649452,0.0000000000,0.0000000000, -1.8807690,50.71916
Halifax,0.8304231,0.0000000000,0.024177300,0.14539960,0.0000000000,0.0000000000, -1.8575400,53.72702
Salisbury,0.8162768,0.0009900264,0.019800528,0.16293268,0.0000000000,0.0000000000, -1.7944720,51.06878
Ringwood,0.8235553,0.0008800235,0.021120563,0.15444412,0.0000000000,0.0000000000, -1.7888170,50.84495
Huddersfield,0.8146266,0.0000000000,0.025187804,0.16018559,0.0000000000,0.0000000000, -1.7850351,53.64579
Peterhead,0.9034501,0.0000000000,0.018537590,0.07801236,0.0000000000,0.0000000000, -1.7840660,57.50812
Swindon,0.7976124,0.0000000000,0.019988895,0.18239867,0.0000000000,0.0000000000, -1.7797176,51.55577
Bradford,0.8425582,0.0020249747,0.022274722,0.13314209,0.0000000000,0.0000000000, -1.7593980,53.79598
Ashbourne,0.7851207,0.0023743569,0.033240997,0.17688959,0.0023743569,0.0000000000, -1.7321790,53.01663
Marlborough,0.7851194,0.0000000000,0.016657413,0.19822321,0.0000000000,0.0000000000, -1.7270620,51.42007
Stratford-upon-Avon,0.7994216,0.0006805036,0.024157877,0.17471929,0.0010207554,0.0000000000, -1.7082980,52.19173
Alnwick,0.8267411,0.0000000000,0.023052657,0.15020626,0.0000000000,0.0000000000, -1.7062990,55.41274
Otley,0.8633691,0.0018813201,0.015991221,0.11781767,0.0009406600,0.0000000000, -1.6917860,53.90583
Bishop Auckland,0.7592986,0.0000000000,0.024973433,0.21572795,0.0000000000,0.0000000000, -1.6787880,54.66382
Burton upon Trent,0.8047053,0.0027409776,0.026039287,0.16651439,0.0000000000,0.0000000000, -1.6371359,52.81403
Newcastle,0.8283419,0.0000000000,0.020939859,0.15071829,0.0000000000,0.0000000000, -1.6177800,54.97825
Durham,0.7997382,0.0000000000,0.023123909,0.17713787,0.0000000000,0.0000000000, -1.5848520,54.77525
Ashington,0.8277817,0.0000000000,0.018899126,0.15331916,0.0000000000,0.0000000000, -1.5659829,55.18298
Darlington,0.7529803,0.0023451241,0.022278679,0.22005081,0.0023451241,0.0000000000, -1.5594580,54.52361
Leeds,0.8584957,0.0028175628,0.017844564,0.11990295,0.0009391876,0.0000000000, -1.5490774,53.80076
Harrogate,0.8682541,0.0019774244,0.014830683,0.11394908,0.0009887122,0.0000000000, -1.5418120,53.99212
Leamington Spa,0.8002434,0.0006954103,0.015299026,0.18271905,0.0010431154,0.0000000000, -1.5200789,52.28519
Coventry,0.7831701,0.0000000000,0.021116906,0.19494975,0.0007632617,0.0000000000, -1.5196930,52.40682
Blyth,0.8292852,0.0000000000,0.020587555,0.15012723,0.0000000000,0.0000000000, -1.5102770,55.12696
Wakefield,0.8547001,0.0032570343,0.018275581,0.12268162,0.0010856781,0.0000000000, -1.5059240,53.68330
Andover,0.8074365,0.0000000000,0.019699733,0.17286376,0.0000000000,0.0000000000, -1.4919233,51.21120
Witney,0.8379405,0.0000000000,0.017725258,0.14433425,0.0000000000,0.0000000000, -1.4850544,51.78594
Barnsley,0.7556561,0.0033936652,0.039027149,0.20192308,0.0000000000,0.0000000000, -1.4797260,53.55263
Derby,0.8348868,0.0026631158,0.023968043,0.13581891,0.0026631158,0.0000000000, -1.4746186,52.92253
Sheffield,0.7807979,0.0012401819,0.027697396,0.18902439,0.0012401819,0.0000000000, -1.4700850,53.38113
Nuneaton,0.7874946,0.0000000000,0.020197679,0.19230769,0.0000000000,0.0000000000, -1.4653820,52.52049
Northallerton,0.7659621,0.0000000000,0.027456962,0.20396601,0.0026149488,0.0000000000, -1.4299590,54.33796
South Shields,0.8292172,0.0000000000,0.017999163,0.15278359,0.0000000000,0.0000000000, -1.4274060,54.99942
Chesterfield,0.7898213,0.0012994044,0.019924201,0.18765566,0.0012994044,0.0000000000, -1.4216290,53.23505
Southampton,0.7958320,0.0021367803,0.025641364,0.17638990,0.0000000000,0.0000000000, -1.4043509,50.90970
Wetherby,0.8609002,0.0018403497,0.012268998,0.12407024,0.0009201748,0.0000000000, -1.3848160,53.92706
Sunderland,0.8236792,0.0000000000,0.020793550,0.15552727,0.0000000000,0.0000000000, -1.3838010,54.90687
Rotherham,0.7724905,0.0012021639,0.031055901,0.19284712,0.0024043278,0.0000000000, -1.3635009,53.43260
Castleford,0.8547911,0.0034256352,0.017508802,0.12313255,0.0011418784,0.0000000000, -1.3459680,53.72347
Thirsk,0.8065327,0.0000000000,0.014761307,0.17870603,0.0000000000,0.0000000000, -1.3413770,54.23385
Banbury,0.7730615,0.0013368984,0.018048128,0.20755348,0.0000000000,0.0000000000, -1.3397750,52.06290
Stockton,0.7634132,0.0023757672,0.020194021,0.21164126,0.0023757672,0.0000000000, -1.3289821,54.57046
Newbury,0.8203807,0.0000000000,0.024188130,0.15274356,0.0000000000,0.0026875700, -1.3231139,51.40141
Isle of Wight,0.7963206,0.0023861778,0.025452564,0.17584069,0.0000000000,0.0000000000, -1.3047340,50.69385
Isle of Wight,0.7963206,0.0023861778,0.025452564,0.17584069,0.0000000000,0.0000000000, -1.3047340,50.69385
Abingdon,0.8486870,0.0000000000,0.012505211,0.13880784,0.0000000000,0.0000000000, -1.2879529,51.67078
Shetland Islands,0.9071226,0.0000000000,0.026709834,0.06616754,0.0000000000,0.0000000000, -1.2659409,60.52965
Rugby,0.7816157,0.0000000000,0.017742544,0.20064175,0.0000000000,0.0000000000, -1.2650320,52.37088
Oxford,0.8406392,0.0000000000,0.016843014,0.14251781,0.0000000000,0.0000000000, -1.2577263,51.75202
Middlesbrough,0.7646011,0.0023757672,0.020194021,0.21045338,0.0023757672,0.0000000000, -1.2349560,54.57423
Hartlepool,0.7692555,0.0019295707,0.016401351,0.21048400,0.0019295707,0.0000000000, -1.2129260,54.69174
Loughborough,0.7716718,0.0000000000,0.018575851,0.20975232,0.0000000000,0.0000000000, -1.2061660,52.77210
Mansfield,0.8100078,0.0015637217,0.013552254,0.17174876,0.0031274433,0.0000000000, -1.1986740,53.14720
Nottingham,0.8258373,0.0000000000,0.014673046,0.15566188,0.0038277512,0.0000000000, -1.1581086,52.95478
Bicester,0.8154676,0.0000000000,0.017266187,0.16726619,0.0000000000,0.0000000000, -1.1535899,51.89960
Leicester,0.7490257,0.0000000000,0.018706157,0.23226812,0.0000000000,0.0000000000, -1.1397592,52.63688
Doncaster,0.7328425,0.0000000000,0.053115961,0.21088614,0.0031554036,0.0000000000, -1.1284620,53.52282
Worksop,0.7605080,0.0036286665,0.029029332,0.20320532,0.0036286665,0.0000000000, -1.1227450,53.30930
Basingstoke,0.8089198,0.0000000000,0.018412439,0.17021277,0.0000000000,0.0024549918, -1.0923964,51.26654
Portsmouth,0.7912720,0.0023534197,0.028241037,0.17813353,0.0000000000,0.0000000000, -1.0879769,50.81977
York,0.8408540,0.0000000000,0.012615235,0.14653081,0.0000000000,0.0000000000, -1.0872979,53.95997
Selby,0.8151986,0.0000000000,0.017271157,0.16753022,0.0000000000,0.0000000000, -1.0671890,53.78352
Helmsley,0.8012485,0.0000000000,0.024970474,0.17175637,0.0020246330,0.0000000000, -1.0562636,54.24651
Towcester,0.7969543,0.0000000000,0.010152284,0.19289340,0.0000000000,0.0000000000, -0.9896880,52.13511
Reading,0.8498470,0.0000000000,0.018357261,0.12897152,0.0000000000,0.0028241939, -0.9781303,51.45426
Retford,0.7662812,0.0036518564,0.027388923,0.19902617,0.0036518564,0.0000000000, -0.9455030,53.32136
Petersfield,0.7865374,0.0021949881,0.020852387,0.19041522,0.0000000000,0.0000000000, -0.9389900,51.00759
Northampton,0.8049485,0.0000000000,0.008668954,0.18638252,0.0000000000,0.0000000000, -0.9026560,52.24048
Melton Mowbray,0.7782007,0.0020761246,0.018685121,0.20103806,0.0000000000,0.0000000000, -0.8871260,52.76640
Aylesbury,0.7598816,0.0000000000,0.013950539,0.22616783,0.0000000000,0.0000000000, -0.8084000,51.81561
Newark-on-Trent,0.8089277,0.0007085498,0.015115730,0.17383089,0.0014170997,0.0000000000, -0.8065700,53.07004
Malton,0.8223938,0.0023166023,0.019305019,0.15598456,0.0000000000,0.0000000000, -0.7978970,54.13684
Chichester,0.7713401,0.0021856154,0.025134577,0.20133970,0.0000000000,0.0000000000, -0.7749360,50.83761
Gainsborough,0.7610402,0.0044160942,0.025024534,0.20363101,0.0058881256,0.0000000000, -0.7744650,53.40058
Milton Keynes,0.8036768,0.0000000000,0.014167651,0.18215551,0.0000000000,0.0000000000, -0.7594171,52.04062
Aldershot,0.7911523,0.0000000000,0.014814815,0.19403292,0.0000000000,0.0000000000, -0.7557509,51.24837
High Wycombe,0.7938462,0.0000000000,0.009230769,0.19692308,0.0000000000,0.0000000000, -0.7482290,51.62861
Midhurst,0.8053536,0.0000000000,0.021934278,0.17271213,0.0000000000,0.0000000000, -0.7372740,50.98690
Kettering,0.8307579,0.0000000000,0.011773363,0.15746873,0.0000000000,0.0000000000, -0.7302490,52.39632
Wellingborough,0.8345519,0.0000000000,0.011280551,0.15416754,0.0000000000,0.0000000000, -0.6939640,52.30242
Corby,0.8133874,0.0000000000,0.012170385,0.17444219,0.0000000000,0.0000000000, -0.6842333,52.49230
Bognor Regis,0.7762432,0.0021743507,0.027179384,0.19440306,0.0000000000,0.0000000000, -0.6730610,50.78300
Scunthorpe,0.7794477,0.0000000000,0.024816498,0.19154142,0.0020971688,0.0020971688, -0.6544130,53.58865
Grantham,0.7665325,0.0034502588,0.024151811,0.20241518,0.0034502588,0.0000000000, -0.6435820,52.91252
Whitby,0.7745541,0.0057074911,0.034244946,0.18263971,0.0028537455,0.0000000000, -0.6133470,54.48633
Slough,0.8469788,0.0000000000,0.023320258,0.12970094,0.0000000000,0.0000000000, -0.5950406,51.51054
Guildford,0.8134123,0.0000000000,0.013962344,0.17262534,0.0000000000,0.0000000000, -0.5704090,51.23622
Woking,0.8131795,0.0000000000,0.014643887,0.17217661,0.0000000000,0.0000000000, -0.5600349,51.31677
Lincoln,0.7718475,0.0052785924,0.017595308,0.20527859,0.0000000000,0.0000000000, -0.5405790,53.23069
Bedford,0.8023426,0.0000000000,0.016105417,0.18155198,0.0000000000,0.0000000000, -0.4667782,52.13864
Heathrow,0.8689360,0.0006595339,0.023743221,0.10666129,0.0000000000,0.0000000000, -0.4542955,51.47002
Driffield,0.8123602,0.0016778523,0.011185682,0.17309843,0.0000000000,0.0016778523, -0.4433770,54.00600
Beverley,0.7921569,0.0021390374,0.015686275,0.18573975,0.0021390374,0.0021390374, -0.4350930,53.84196
Luton,0.7758896,0.0031987205,0.015593762,0.20531787,0.0000000000,0.0000000000, -0.4200255,51.87867
Scarborough,0.8097975,0.0016420361,0.012588944,0.17432950,0.0000000000,0.0016420361, -0.3997520,54.28311
Worthing,0.8082609,0.0007474669,0.022424008,0.16856763,0.0000000000,0.0000000000, -0.3728820,50.81787
Dorking,0.8112646,0.0000000000,0.021121040,0.16761441,0.0000000000,0.0000000000, -0.3323780,51.23220
Hull,0.7875180,0.0021645022,0.015873016,0.19011544,0.0021645022,0.0021645022, -0.3274198,53.76762
Horsham,0.8092462,0.0000000000,0.021916393,0.16883740,0.0000000000,0.0000000000, -0.3258580,51.06288
Biggleswade,0.8089172,0.0038216561,0.028662420,0.15859873,0.0000000000,0.0000000000, -0.2642200,52.08694
Peterborough,0.7613208,0.0000000000,0.015094340,0.22358491,0.0000000000,0.0000000000, -0.2405299,52.56950
Welwyn Garden City,0.7850525,0.0045295450,0.017294626,0.19312333,0.0000000000,0.0000000000, -0.2086610,51.80317
Bridlington,0.8045860,0.0015286624,0.015541401,0.17681529,0.0000000000,0.0015286624, -0.1988020,54.08535
Stevenage,0.7880584,0.0033876773,0.013974169,0.19457972,0.0000000000,0.0000000000, -0.1966120,51.90376
Crawley,0.8105213,0.0000000000,0.018812873,0.17066585,0.0000000000,0.0000000000, -0.1872275,51.10914
Huntingdon,0.8070375,0.0000000000,0.020431328,0.17253121,0.0000000000,0.0000000000, -0.1825520,52.33146
Hove,0.8138610,0.0007834375,0.020369376,0.16498614,0.0000000000,0.0000000000, -0.1687490,50.82793
Spalding,0.7450533,0.0000000000,0.015220700,0.23972603,0.0000000000,0.0000000000, -0.1537024,52.79010
Brighton,0.8201263,0.0007730963,0.019327406,0.15977323,0.0000000000,0.0000000000, -0.1371630,50.82253
London,0.8708570,0.0007694891,0.017226062,0.11062280,0.0004197213,0.0001049303, -0.1277583,51.50735
Grimsby,0.7876712,0.0008933889,0.018463371,0.18939845,0.0017867778,0.0017867778, -0.0807840,53.56747
Boston,0.7642594,0.0013799448,0.011039558,0.22332107,0.0000000000,0.0000000000, -0.0265770,52.97894
Royston,0.8118663,0.0022530980,0.021404431,0.16447615,0.0000000000,0.0000000000, -0.0240660,52.04814
Louth_Lincs,0.7747315,0.0008479367,0.014980215,0.20604862,0.0016958734,0.0016958734, -0.0077110,53.36596
Lewes,0.8143225,0.0008576329,0.015437393,0.16938250,0.0000000000,0.0000000000,  0.0087800,50.87387
Chatteris,0.8085797,0.0000000000,0.021629416,0.16979092,0.0000000000,0.0000000000,  0.0540120,52.45610
Uckfield,0.8314505,0.0008543763,0.012815645,0.15487944,0.0000000000,0.0000000000,  0.0959130,50.96641
Cambridge,0.8252725,0.0000000000,0.022479564,0.15224796,0.0000000000,0.0000000000,  0.1218170,52.20534
Bishop's Stortford,0.7590508,0.0054761180,0.010952236,0.22452084,0.0000000000,0.0000000000,  0.1536502,51.87216
Wisbech,0.7545896,0.0000000000,0.019438445,0.22597192,0.0000000000,0.0000000000,  0.1587970,52.66632
Sevenoaks,0.7325714,0.0051428571,0.034285714,0.22800000,0.0000000000,0.0000000000,  0.1908980,51.27241
Tunbridge Wells,0.7866652,0.0013537906,0.009025271,0.20024819,0.0027075812,0.0000000000,  0.2636950,51.13238
Eastbourne,0.8215980,0.0008081292,0.015085078,0.16250879,0.0000000000,0.0000000000,  0.2904720,50.76803
Brentwood,0.7833502,0.0000000000,0.019781892,0.19686787,0.0000000000,0.0000000000,  0.3071749,51.62047
Skegness,0.7597997,0.0013066202,0.011759582,0.22713415,0.0000000000,0.0000000000,  0.3378810,53.14640
Downham Market,0.7574751,0.0000000000,0.016611296,0.22591362,0.0000000000,0.0000000000,  0.3854720,52.60661
King's Lynn,0.7542614,0.0000000000,0.015625000,0.23011364,0.0000000000,0.0000000000,  0.4022963,52.75168
Bexhill,0.8197389,0.0008028785,0.014987065,0.16447114,0.0000000000,0.0000000000,  0.4662071,50.84991
Chelmsford,0.7600882,0.0000000000,0.018624408,0.22128737,0.0000000000,0.0000000000,  0.4685497,51.73559
Mildenhall,0.8114875,0.0000000000,0.022974963,0.16377025,0.0000000000,0.0017673049,  0.5156095,52.34757
Medway,0.7642651,0.0000000000,0.014293948,0.22005764,0.0013832853,0.0000000000,  0.5417861,51.40474
Braintree,0.7901198,0.0000000000,0.015784858,0.19058755,0.0000000000,0.0035077463,  0.5509269,51.88009
Gillingham,0.7515315,0.0000000000,0.015221830,0.23101912,0.0022275849,0.0000000000,  0.5514380,51.38632
Hastings,0.8007392,0.0000000000,0.012534148,0.18383416,0.0028924956,0.0000000000,  0.5734530,50.85426
Maldon,0.7663264,0.0000000000,0.019369193,0.21430441,0.0000000000,0.0000000000,  0.6714480,51.73181
Southend,0.7573185,0.0000000000,0.017377356,0.22530410,0.0000000000,0.0000000000,  0.7077123,51.54593
Bury St Edmunds,0.7903358,0.0000000000,0.020884521,0.18632269,0.0000000000,0.0024570025,  0.7104932,52.24292
Thetford,0.7780566,0.0000000000,0.019160584,0.20278285,0.0000000000,0.0000000000,  0.7516570,52.41286
Ashford,0.7786824,0.0000000000,0.016470148,0.20260153,0.0022459293,0.0000000000,  0.8750190,51.14647
Faversham,0.7641357,0.0000000000,0.017124394,0.21680129,0.0019386107,0.0000000000,  0.8893580,51.31599
Colchester,0.7753840,0.0000000000,0.020347098,0.20187512,0.0000000000,0.0023937762,  0.8918740,51.89593
New Romney,0.7966209,0.0000000000,0.017548649,0.18372460,0.0021058379,0.0000000000,  0.9394730,50.98512
Canterbury,0.7871622,0.0000000000,0.026507277,0.18633056,0.0000000000,0.0000000000,  1.0789089,51.28023
Ipswich,0.7830803,0.0000000000,0.019522777,0.19479393,0.0000000000,0.0026030369,  1.1482200,52.05674
Clacton,0.7928796,0.0000000000,0.017172775,0.18743455,0.0000000000,0.0025130890,  1.1530350,51.78953
Folkestone,0.7976279,0.0000000000,0.029651594,0.17272053,0.0000000000,0.0000000000,  1.1694560,51.08140
Sheringham,0.7872381,0.0000000000,0.012571429,0.20019048,0.0000000000,0.0000000000,  1.2109589,52.94442
Harwich,0.7859218,0.0000000000,0.020111732,0.19128492,0.0000000000,0.0026815642,  1.2602970,51.93473
Norwich,0.7857700,0.0000000000,0.014035088,0.20019493,0.0000000000,0.0000000000,  1.2973550,52.63089
Cromer,0.7800153,0.0000000000,0.014959724,0.20502493,0.0000000000,0.0000000000,  1.3018660,52.93145
Dover,0.7929011,0.0000000000,0.026830632,0.18026831,0.0000000000,0.0000000000,  1.3134027,51.12788
Felixstowe,0.7891608,0.0000000000,0.020580837,0.18751429,0.0000000000,0.0027441116,  1.3512550,51.96173
Margate,0.7748858,0.0000000000,0.025570776,0.19954338,0.0000000000,0.0000000000,  1.3868339,51.38965
Ramsgate,0.7748858,0.0000000000,0.025570776,0.19954338,0.0000000000,0.0000000000,  1.4198950,51.33555
Great Yarmouth,0.7840683,0.0000000000,0.014302741,0.20162892,0.0000000000,0.0000000000,  1.7280470,52.59823
Lowestoft,0.7840397,0.0000000000,0.016230839,0.19972949,0.0000000000,0.0000000000,  1.7534490,52.48114
Swaffham,0.7942443,0.0000000000,0.017619421,0.18813626,0.0000000000,0.0000000000,  0.6874810,52.64747
Dereham,0.7890593,0.0000000000,0.013322568,0.19761809,0.0000000000,0.0000000000,  0.9378270,52.68162
Ely,0.8161192,0.0000000000,0.024381984,0.15949881,0.0000000000,0.0000000000,  0.2623630,52.39954
March,0.7565747,0.0000000000,0.023091725,0.22033355,0.0000000000,0.0000000000,  0.0886220,52.55172
St Neots,0.8310204,0.0000000000,0.019591837,0.14938776,0.0000000000,0.0000000000, -0.2651030,52.23008
Banham,0.7924843,0.0000000000,0.015549796,0.19196594,0.0000000000,0.0000000000,  1.0402849,52.45125
Holt,0.7874091,0.0000000000,0.012629162,0.19996173,0.0000000000,0.0000000000,  1.0867470,52.90936
Cromer,0.7800153,0.0000000000,0.014959724,0.20502493,0.0000000000,0.0000000000,  1.3018660,52.93145
Hunstanton,0.7324029,0.0000000000,0.016383495,0.25121359,0.0000000000,0.0000000000,  0.4910320,52.93891
Horncastle,0.7523532,0.0013446885,0.018825639,0.22747647,0.0000000000,0.0000000000, -0.1124500,53.20731
Market Weighton,0.8007991,0.0000000000,0.011415525,0.18436073,0.0017123288,0.0017123288, -0.6677465,53.86484
Hawes,0.7813918,0.0000000000,0.028954734,0.18965351,0.0000000000,0.0000000000, -2.1968695,54.30383
Reeth,0.7398287,0.0000000000,0.023554604,0.23661670,0.0000000000,0.0000000000, -1.9428115,54.38946
Aysgarth,0.7913043,0.0000000000,0.028093645,0.18060201,0.0000000000,0.0000000000, -1.9967434,54.29159
Stanhope,0.7990074,0.0000000000,0.016129032,0.18486352,0.0000000000,0.0000000000, -2.0113020,54.74946
Keswick,0.7864897,0.0000000000,0.025331725,0.18817853,0.0000000000,0.0000000000, -3.1347060,54.60128
Oxenholme,0.7856304,0.0029365701,0.022024276,0.18940877,0.0000000000,0.0000000000, -2.7243328,54.30134
