,placename,dinna,dinnae,dinnit,divna,divnae,divnt,dont,longitude,latitude
0,Dingle,0.01,0.03880952471219057,0.01,0.01,0.01,0.01,0.9712035061044118,-10.2640135,52.14094
1,Tralee,0.01,0.03894385324803022,0.01,0.01,0.01,0.01,0.9711041589100948,-9.6999325,52.27131
2,Killarney,0.01,0.03881656422207346,0.01,0.01,0.01,0.01,0.9701873262311128,-9.5044265,52.05994000000001
3,Bantry,0.01,0.04004876905751293,0.01,0.01,0.01,0.01,0.9693107055117351,-9.4539805,51.68035
4,Mayo,0.01,0.022069197422476552,0.01,0.01,0.01,0.01,0.9835112042346508,-9.4289369,54.01526
5,Ballycastle,0.01,0.026900123722144842,0.01,0.01,0.01,0.01,0.9801026493058228,-9.3724643,54.27967
6,Abbeyfeale,0.01,0.03644054558397297,0.01,0.01,0.01,0.01,0.9731838268444628,-9.2970823,52.38618
7,Ennistymon,0.01,0.026188427485552862,0.01,0.01,0.01,0.01,0.9812162840459288,-9.2934951,52.94037
8,Galway,0.01,0.02205145819263251,0.01,0.01,0.01,0.01,0.9841834535828616,-9.0567905,53.27067
9,Claremorris,0.01,0.01965422868527705,0.01,0.01,0.01,0.01,0.9859026331264228,-9.0017356,53.72388
10,Clare,0.01,0.02727139779825601,0.01,0.01,0.01,0.01,0.980439483602746,-8.9811351,52.90453
11,Adare,0.01,0.03451160728769605,0.01,0.01,0.01,0.01,0.9752459907493566,-8.7925892,52.56363
12,Charleville,0.01,0.039469650004214235,0.01,0.01,0.01,0.01,0.9699999858075434,-8.681017599999999,52.36206
13,Mallow,0.01,0.03831652065228982,0.01,0.01,0.01,0.01,0.9709239147146916,-8.6539164,52.13898
14,Limerick,0.01,0.035495084378890075,0.01,0.01,0.01,0.01,0.9745406256697072,-8.6267343,52.66384
15,Loughrea,0.01,0.021136179375077783,0.01,0.01,0.01,0.01,0.984840091229109,-8.5660931,53.19891
16,Sligo,0.01,0.03629170231733972,0.01,0.01,0.01,0.01,0.9730717064394488,-8.476088800000001,54.27661
17,Cork,0.01,0.04130801844874627,0.01,0.01,0.01,0.01,0.9681436125194496,-8.4756035,51.89851
18,Nenagh,0.01,0.02772839099468173,0.01,0.01,0.01,0.01,0.9784189509030894,-8.19834,52.8635
19,Roscommon,0.01,0.022117270938501056,0.01,0.01,0.01,0.01,0.9841361453950914,-8.1890955,53.62759000000001
20,Tipperary,0.01,0.040397970669885916,0.01,0.01,0.01,0.01,0.9700742596623426,-8.161851400000002,52.47379
21,Donegal,0.01,0.036764976503356125,0.01,0.01,0.01,0.01,0.9729539090519016,-8.1096143,54.653830000000006
22,Leitrim,0.01,0.039699006811816234,0.01,0.01,0.01,0.01,0.9705085488260708,-8.0020132,54.12469
23,Athlone,0.01,0.0197180453126858,0.01,0.01,0.01,0.01,0.9830286607193968,-7.9406898,53.42393000000001
24,Longford,0.01,0.018890613054016892,0.01,0.01,0.01,0.01,0.9864504619408,-7.7932573,53.72763000000001
25,Offaly,0.01,0.019730598618328803,0.01,0.01,0.01,0.01,0.9836706328274356,-7.7122229,53.23569000000001
26,Fermanagh,0.01,0.03001837484292802,0.01,0.01,0.01,0.01,0.9775721343420064,-7.6318728,54.34383
27,Enniskillen,0.01,0.03001837484292802,0.01,0.01,0.01,0.01,0.9775721343420064,-7.631533599999999,54.34382
28,Doon,0.01,0.033793890376862486,0.01,0.01,0.01,0.01,0.9746068571325848,-7.60964,54.185930000000006
29,Westmeath,0.01,0.0141117430754615,0.01,0.01,0.01,0.01,0.989878413226612,-7.4653217,53.53453
30,Strabane,0.01,0.03844331849749815,0.01,0.01,0.01,0.01,0.9716382683500184,-7.4633103,54.82739
31,Balivanich,0.01,0.07128303094236094,0.01,0.01,0.01,0.01,0.940106888119448,-7.3743509,57.47227
32,Cavan,0.01,0.022073197969960715,0.01,0.01,0.01,0.01,0.9841678418808976,-7.3633319,53.98972
33,Mullingar,0.01,0.014161322782377753,0.01,0.01,0.01,0.01,0.9898424590039074,-7.3401868000000015,53.52582
34,Laois,0.01,0.010076378217233572,0.01,0.01,0.01,0.01,0.9911666151795896,-7.3323006999999985,52.9943
35,Omagh,0.01,0.02545776634275753,0.01,0.01,0.01,0.01,0.9817399856845426,-7.309959700000001,54.59771
36,Derry,0.01,0.03834222780080082,0.01,0.01,0.01,0.01,0.9724988042855542,-7.308574799999999,54.99661
37,Derry,0.01,0.03834222780080082,0.01,0.01,0.01,0.01,0.9724988042855542,-7.308574799999999,54.99661
38,Kilkenny,0.01,0.011080014099782985,0.01,0.01,0.01,0.01,0.9900657536501818,-7.2447879,52.65415
39,Tyrone,0.01,0.020052744330327728,0.01,0.01,0.01,0.01,0.9856168916722924,-7.1312320000000025,54.49121
40,Waterford,0.01,0.021828419986416,0.01,0.01,0.01,0.01,0.983473357684434,-7.110070200000001,52.25932
41,Western Isles,0.013063428983828146,0.06761111998494727,0.01,0.01,0.01,0.01,0.9389904148880764,-7.0194034,57.75989000000001
42,Monaghan,0.01,0.024676267761651875,0.01,0.01,0.01,0.01,0.9823005877096164,-6.9683132,54.2492
43,Carlow,0.01,0.012298871772793093,0.01,0.01,0.01,0.01,0.9895746946611288,-6.9341358999999985,52.83651
44,Kildare,0.01,0.013246472288682332,0.01,0.01,0.01,0.01,0.9904986235682768,-6.8194708,53.21204
45,Dungannon,0.01,0.01,0.01,0.01,0.01,0.01,0.9958927031378108,-6.7669352,54.50827
46,Cookstown,0.01,0.017214691676696,0.01,0.01,0.01,0.01,0.9876525629920349,-6.7443895000000005,54.64182
47,Coleraine,0.01,0.041210917680478375,0.01,0.01,0.01,0.01,0.9704408981175596,-6.6646103000000005,55.13258
48,Meath,0.01,0.031382908797904244,0.01,0.01,0.01,0.01,0.9774902911771648,-6.656416900000001,53.60555
49,Armagh,0.01,0.01384840206087121,0.01,0.01,0.01,0.01,0.9900671728958153,-6.652792,54.35028000000001
50,Armagh,0.01,0.01384840206087121,0.01,0.01,0.01,0.01,0.9900671728958153,-6.652792,54.35028000000001
51,Magherafelt,0.01,0.022023438530596573,0.01,0.01,0.01,0.01,0.9827675195229066,-6.607980499999999,54.75536999999999
52,Dunvegan,0.01,0.07128303094236094,0.01,0.01,0.01,0.01,0.940106888119448,-6.5813982000000015,57.4366
53,Louth,0.01,0.029712884359752563,0.01,0.01,0.01,0.01,0.9786881344915008,-6.4889423,53.925230000000006
54,Wexford,0.01,0.013280202100055392,0.01,0.01,0.01,0.01,0.9904744963925142,-6.4633381,52.33692
55,Craigavon,0.01,0.01,0.01,0.01,0.01,0.01,0.9945434736226104,-6.4175653,54.44293
56,Stornoway,0.05611527116480342,0.217588549019249,0.01,0.01,0.01,0.012259940954454977,0.7891663303842986,-6.3848692000000025,58.20943000000001
57,Drogheda,0.01,0.033273197230716214,0.01,0.01,0.01,0.01,0.9761344385156772,-6.3560985,53.71786
58,Rosslare,0.01,0.018414940808426025,0.01,0.01,0.01,0.01,0.9859111486002224,-6.3414908,52.25131
59,Newry,0.01,0.026854944063423525,0.01,0.01,0.01,0.01,0.980737998267574,-6.34023,54.1751
60,Scilly Isles,0.01,0.01,0.01,0.01,0.01,0.01,0.997003026304772,-6.327496599999999,49.92773
61,Ballymena,0.01,0.06998959545018593,0.01,0.01,0.01,0.01,0.9480064093132788,-6.2802213,54.86529
62,Banbridge,0.01,0.01521914176504271,0.01,0.01,0.01,0.01,0.9890841087539541,-6.2704803,54.34873
63,Dublin,0.01,0.026348012948366133,0.01,0.01,0.01,0.01,0.9809617659957256,-6.2603097000000005,53.34981
64,Antrim,0.01,0.032331794878983154,0.01,0.01,0.01,0.01,0.9747014735081244,-6.2072498,54.719530000000006
65,Antrim,0.01,0.032331794878983154,0.01,0.01,0.01,0.01,0.9747014735081244,-6.2072498,54.719530000000006
66,Portree,0.014020142838543477,0.07256269094824731,0.01,0.01,0.01,0.01,0.9345226296350796,-6.1960231,57.41246999999999
67,Islay,0.019930578435250704,0.2070449622068634,0.01,0.01,0.01,0.01,0.8324017562691626,-6.177067,55.73625
68,Wicklow,0.01,0.015432015227402597,0.01,0.01,0.01,0.01,0.9889313033074576,-6.044589,52.98082
69,Kilkeel,0.01,0.03150248120083679,0.01,0.01,0.01,0.01,0.9774046633573016,-6.007004,54.06312
70,Mull,0.020986135476684816,0.20267781243705324,0.01,0.01,0.01,0.01,0.8345225823268911,-6.0008870000000005,56.4392
71,Belfast,0.01,0.01,0.01,0.01,0.01,0.01,0.993314406904346,-5.93012,54.59728000000001
72,Broadford,0.01010863955167826,0.06525723858022303,0.01,0.01,0.01,0.01,0.9435097660657428,-5.9096592,57.24139
73,Down,0.01,0.013480592302959305,0.01,0.01,0.01,0.01,0.9903311525835709,-5.7156922,54.32875
74,Kyle of Lochalsh,0.016711202292736142,0.05859036966343593,0.01,0.01,0.01,0.01,0.9419660998988086,-5.7143293,57.28261
75,Campbeltown,0.03609605601145875,0.25391293111472496,0.01,0.01,0.01,0.01,0.7832986958551879,-5.6053739999999985,55.42412
76,Penzance,0.01,0.01,0.01,0.01,0.01,0.01,0.9969684913276992,-5.537592,50.1188
77,Oban,0.02502465352810093,0.2105706593998457,0.01,0.01,0.01,0.01,0.8249923479006281,-5.471047,56.41516
78,Lochgilphead,0.02126607561795643,0.27955328115454353,0.01,0.01,0.01,0.01,0.7791147597288106,-5.4323449,56.03829
79,Helston,0.01,0.01,0.01,0.01,0.01,0.01,0.9969751144739872,-5.274996,50.10159
80,Redruth,0.01,0.01,0.01,0.01,0.01,0.01,0.9969533527076128,-5.226666000000002,50.23302
81,Ullapool,0.057350240337672165,0.1836234185361697,0.01,0.01,0.01,0.01,0.8125824640848063,-5.161313,57.89542
82,Ballachulish,0.027768491826948245,0.15541928439227087,0.01,0.01,0.01,0.01,0.8619215923557534,-5.1337199999999985,56.67393000000001
83,Fort William,0.014088879947728119,0.08781576389096157,0.01,0.01,0.01,0.01,0.9235163797503926,-5.1052179,56.81981999999999
84,Achnasheen,0.058963265388816924,0.18878798577350595,0.01,0.01,0.01,0.01,0.8073113858034751,-5.078765799999998,57.57859000000001
85,Newquay,0.01,0.01,0.01,0.01,0.01,0.01,0.9953122316738724,-5.0737190000000005,50.4155
86,Falmouth,0.01,0.01,0.01,0.01,0.01,0.01,0.9954981528518088,-5.0662699999999985,50.15257
87,Rothesay,0.02250290437767559,0.314549143588275,0.01,0.01,0.01,0.01,0.7528289113581758,-5.055793,55.83596
88,Truro,0.01,0.01,0.01,0.01,0.01,0.01,0.9954456407633834,-5.0510410000000014,50.2632
89,Milford Haven,0.01,0.01,0.01,0.01,0.01,0.01,0.9985102651671236,-5.0426971,51.71431
90,Stranraer,0.011935414671863851,0.11303909309885153,0.01,0.01,0.01,0.01,0.9074874195701677,-5.0240550000000015,54.90337
91,Fishguard,0.01,0.01,0.01,0.01,0.01,0.01,0.998512157494634,-4.975989,51.99393
92,Inchnadamph,0.057332809643019775,0.1863230774027964,0.01,0.01,0.01,0.01,0.8106740517901655,-4.974295,58.15221
93,Haverfordwest,0.01,0.01,0.01,0.01,0.01,0.01,0.9985201998865544,-4.971319,51.80047
94,Dunoon,0.02242268915791417,0.317854771227425,0.01,0.01,0.01,0.01,0.7505344642513313,-4.926214,55.95097
95,Pembroke,0.01,0.01,0.01,0.01,0.01,0.01,0.9985476386354618,-4.9086370000000015,51.67404000000001
96,Girvan,0.08623619798659532,0.2953821656118173,0.01,0.01,0.01,0.01,0.7055202505063158,-4.8542179,55.24016
97,Wadebridge,0.01,0.01,0.01,0.01,0.01,0.01,0.9949105851597057,-4.836456,50.51665
98,Invergarry,0.01,0.03635929424955023,0.01,0.01,0.01,0.01,0.97392088840992,-4.800261,57.07095
99,St Austell,0.01,0.01,0.01,0.01,0.01,0.01,0.9953013507906858,-4.7834252,50.34038
100,Greenock,0.02307650230456761,0.3097994758123274,0.01,0.01,0.01,0.01,0.7556858528176044,-4.7719830000000005,55.956480000000006
101,Helensburgh,0.020072784360681984,0.31831558477718896,0.01,0.01,0.01,0.01,0.7524551766747927,-4.734014,56.00232
102,Bodmin,0.01,0.011529911986820887,0.01,0.01,0.01,0.01,0.9917300556959292,-4.7188629,50.4715
103,Tenby,0.01,0.01,0.01,0.01,0.01,0.01,0.998536757752274,-4.703579,51.67274000000001
104,Camelford,0.01,0.010270988026742742,0.01,0.01,0.01,0.01,0.9926331690004584,-4.682364,50.62206
105,Irvine,0.07508981322023063,0.3057710854964737,0.01,0.01,0.01,0.01,0.7087466689122284,-4.6696364,55.61156999999999
106,Cardigan,0.01,0.01,0.01,0.01,0.01,0.01,0.9979964982479412,-4.660864,52.0837
107,Holyhead,0.01,0.01,0.01,0.01,0.01,0.01,0.9953056085275844,-4.633038,53.30944
108,Ayr,0.08953508456560312,0.286907323348905,0.01,0.01,0.01,0.01,0.7084382195279681,-4.629179,55.45856
109,Dumbarton,0.02032132698019098,0.30346225586011605,0.01,0.01,0.01,0.01,0.7628710203761094,-4.564554,55.94529
110,Bude,0.01,0.01,0.01,0.01,0.01,0.01,1.0,-4.543678,50.82664000000001
111,Isle of Man,0.01,0.04340167556441878,0.01,0.01,0.01,0.07163406936776906,0.960736569560303,-4.5126331,54.27697
112,Kilmarnock,0.0875634726319962,0.3052863589567483,0.01,0.01,0.01,0.01,0.6971448089435185,-4.498792,55.61472
113,Newton Stewart,0.07389529264158019,0.34762119969721783,0.01,0.01,0.01,0.01,0.6798735357524526,-4.483164,54.9603
114,Liskeard,0.01,0.01842776809887216,0.01,0.01,0.01,0.01,0.9853912316166302,-4.4647190000000005,50.45552
115,Altnaharra,0.13109747595023988,0.1826125339945292,0.01,0.01,0.01,0.01,0.7427253016961409,-4.442655,58.28023
116,Pwllheli,0.01,0.01,0.01,0.01,0.01,0.01,0.9941810929042924,-4.417633900000001,52.88882
117,Lairg,0.08525901988648746,0.18496110877399569,0.01,0.01,0.01,0.01,0.7849142704675321,-4.402414,58.02206
118,Launceston,0.01,0.0154775833720388,0.01,0.01,0.01,0.01,0.9874183874625736,-4.360451599999998,50.63683
119,Carmarthen,0.01,0.01,0.01,0.01,0.01,0.01,1.0,-4.312131,51.85762
120,Llangefni,0.01,0.01,0.01,0.01,0.01,0.01,0.9952616119129588,-4.311401999999998,53.25579000000001
121,Caernarfon,0.01,0.01,0.01,0.01,0.01,0.01,0.9948386767142952,-4.273911,53.13955
122,Cumnock,0.10312914478314128,0.2777447940044664,0.01,0.01,0.01,0.01,0.7019872750436533,-4.265828900000002,55.45355
123,Aberaeron,0.01,0.01,0.01,0.01,0.01,0.01,1.0,-4.2581619,52.24279
124,Alness,0.07804308607453936,0.18832227888417905,0.01,0.01,0.01,0.01,0.7894109137150693,-4.256825,57.69595
125,Glasgow,0.032164124972673215,0.23406331406514425,0.01,0.01,0.01,0.01,0.8008557105003836,-4.251806,55.86424
126,Dalwhinnie,0.01,0.210793119560127,0.01,0.01,0.01,0.01,0.8488068165421601,-4.242783,56.9366
127,Inverness,0.0642491771342261,0.18906928591811686,0.01,0.01,0.01,0.01,0.8020871426280363,-4.224721,57.47776999999999
128,Saltash,0.01,0.01893927662012537,0.01,0.01,0.01,0.01,0.9849858004474412,-4.21643,50.40921
129,Bideford,0.01,0.01,0.01,0.01,0.01,0.01,0.9946238975418196,-4.206666,51.01668
130,Invergordon,0.07806776158761165,0.188381822166524,0.01,0.01,0.01,0.01,0.7893446822521909,-4.172882,57.68811
131,Llanelli,0.01,0.01,0.01,0.01,0.01,0.016972888044691492,0.9944181069250192,-4.160248,51.68089000000001
132,Plymouth,0.01,0.01983515871190376,0.01,0.01,0.01,0.01,0.98435045148569,-4.1426565,50.37546
133,Tavistock,0.01,0.017577926666686557,0.01,0.01,0.01,0.01,0.9859087831908332,-4.141654,50.55112
134,Porthmadog,0.01,0.01,0.01,0.01,0.01,0.01,0.9933792191215906,-4.133384,52.92784
135,Bangor,0.01,0.01,0.01,0.01,0.01,0.01,0.9954182020144776,-4.129263,53.22739
136,Tywyn,0.01,0.01,0.01,0.01,0.01,0.01,1.0,-4.087249,52.58701
137,Aberystwyth,0.01,0.01,0.01,0.01,0.01,0.01,1.0,-4.08292,52.4153
138,Lampeter,0.01,0.01,0.01,0.01,0.01,0.01,1.0,-4.078509,52.1129
139,Barnstaple,0.01,0.01,0.01,0.01,0.01,0.01,0.9943301136957672,-4.058338,51.07816
140,Tain,0.1663458356144914,0.17389198151379026,0.01,0.01,0.01,0.01,0.7152468139118239,-4.05523,57.8115
141,Okehampton,0.01,0.01,0.01,0.01,0.01,0.01,0.9947667682688848,-4.004263,50.73831
142,Llandeilo,0.01,0.01,0.01,0.01,0.01,0.06427955965969306,0.9947152023442154,-3.99143,51.88469
143,Motherwell,0.07348616743588013,0.23512414232962026,0.01,0.01,0.01,0.01,0.7602813701775812,-3.9810968,55.78321
144,Golspie,0.16978520927145188,0.17291157385706496,0.01,0.01,0.01,0.01,0.7126552713857838,-3.976086,57.97341
145,Airdrie,0.08948399651931721,0.2211776453327061,0.01,0.01,0.01,0.010272718131881494,0.7547879434137306,-3.962566,55.86626999999999
146,Swansea,0.01,0.01,0.01,0.01,0.01,0.01480914119068945,0.9945207656924808,-3.943646,51.62144
147,Stirling,0.024859983179201642,0.788146164697803,0.01,0.01,0.01,0.01,0.4108787070104584,-3.9369029,56.11652
148,Tregaron,0.01,0.01,0.01,0.01,0.01,0.01,1.0,-3.934385,52.22
149,Tregaron,0.01,0.01,0.01,0.01,0.01,0.01,1.0,-3.934385,52.22
150,Castle Douglas,0.021943759199093242,0.33881146470136114,0.01,0.01,0.01,0.1227321414841343,0.7258712867212063,-3.931414,54.94042
151,Dolgellau,0.01,0.01,0.01,0.01,0.01,0.01,1.0,-3.8844,52.74215
152,Aberfeldy,0.0706582068935459,0.5117161918404497,0.01,0.01,0.01,0.01,0.5652760740259597,-3.866969,56.62175
153,Machynlleth,0.01,0.01,0.01,0.01,0.01,0.01,1.0,-3.853485,52.59027
154,Brora,0.1743568703346155,0.1718291509863132,0.01,0.01,0.01,0.01,0.7090338296119924,-3.852548000000001,58.01216
155,Llandudno,0.01,0.01,0.01,0.01,0.01,0.01,0.9931710630954036,-3.827609,53.32406
156,Llandudno,0.01,0.01,0.01,0.01,0.01,0.01,0.9931710630954036,-3.827609,53.32406
157,Aviemore,0.050462053066189234,0.13479821649796864,0.01,0.01,0.01,0.01,0.8549720195723438,-3.823812,57.19449
158,Dalbeattie,0.01923614158497108,0.32699608251331075,0.01,0.01,0.01,0.12225948886696225,0.7369787761277206,-3.822527,54.93422
159,Falkirk,0.023198751238931656,0.9003008614327571,0.01,0.01,0.01,0.01,0.33202636579920786,-3.7839131,56.00188000000001
160,Kingsbridge,0.01,0.016822664669820044,0.01,0.01,0.01,0.01,0.9867844577464556,-3.777493,50.28395
161,Pitlochry,0.0459369634512683,0.5905439934892031,0.01,0.01,0.01,0.01,0.5324191183740744,-3.729711,56.70436
162,Colwyn Bay,0.01,0.01,0.01,0.01,0.01,0.01,0.9945519890964092,-3.72764,53.29318000000001
163,Totnes,0.01,0.01,0.01,0.01,0.01,0.01,0.9937420729217864,-3.685797,50.43374
164,Grantown-on-Spey,0.3303758120265214,0.09625713344234736,0.01,0.01,0.01,0.01,0.6144586121953881,-3.609628,57.33041
165,Dumfries,0.0111647834022194,0.19317980162872345,0.01,0.01,0.01,0.12122369823579215,0.8407776709138379,-3.60512,55.07086
166,Whitehaven,0.01,0.0566063338411141,0.01,0.01,0.01,0.21164355825659684,0.9342643269298552,-3.589233,54.5497
167,Dartmouth,0.01,0.01,0.01,0.01,0.01,0.01,0.9938092505484208,-3.578807,50.35252
168,Bridgend,0.01,0.01,0.01,0.01,0.01,0.01,0.99432538287699,-3.576945,51.50429000000001
169,Paignton,0.01,0.01,0.01,0.01,0.01,0.01,0.9966198299838344,-3.564235,50.43508
170,Workington,0.01,0.23592582166571616,0.01,0.01,0.01,0.13521168678069334,0.811017036151498,-3.542752,54.64357
171,Llanidloes,0.01,0.01,0.01,0.01,0.01,0.01,1.0,-3.540195,52.44779000000001
172,Exeter,0.01,0.01,0.01,0.01,0.01,0.014140423645983112,0.9970933849434124,-3.533899,50.71841
173,Torquay,0.01,0.01,0.01,0.01,0.01,0.01,0.9966288185395108,-3.525315,50.46192
174,Thurso,0.29247196288308225,0.1846517673334981,0.01,0.01,0.01,0.01,0.5865969280901348,-3.5220800000000003,58.59356999999999
175,Livingston,0.01770226885034613,0.8047030408258121,0.01,0.01,0.01,0.01,0.4058602544518189,-3.518068,55.90071
176,Rhyl,0.01,0.01,0.01,0.01,0.01,0.01,0.9971780665995206,-3.4916339999999995,53.31914
177,Tiverton,0.01,0.01,0.01,0.01,0.01,0.01,0.9986772630699512,-3.491207,50.90205
178,Tiverton,0.01,0.01,0.01,0.01,0.01,0.01,0.9986772630699512,-3.491207,50.90205
179,Minehead,0.01,0.01,0.01,0.01,0.01,0.01,1.0,-3.481152,51.20428
180,Dunfermline,0.02492793323431341,1.0,0.01,0.01,0.01,0.01,0.2588595225941539,-3.452151,56.07174000000001
181,Perth,0.020397102786343626,0.9083896137297344,0.01,0.01,0.01,0.01,0.32890828314328824,-3.4308381000000003,56.39499
182,Prestatyn,0.01,0.01,0.01,0.01,0.7071608278835009,0.01,0.9968932713091456,-3.407613,53.33651
183,Builth Wells,0.011097131615811356,0.01,0.01,0.01,0.01,0.01,0.9893689040443296,-3.404592,52.15002
184,Braemar,0.07104221891141854,0.373221371653088,0.01,0.01,0.01,0.01,0.6642448028407616,-3.3979439,57.00646999999999
185,Brecon,0.01,0.01,0.01,0.01,0.01,0.01,1.0,-3.391463,51.94895
186,Merthyr Tydfil,0.01,0.01,0.01,0.01,0.01,0.01,0.9987231520120881,-3.381646,51.74873
187,Llandrindod Wells,0.012749286311040685,0.01,0.01,0.01,0.01,0.01,0.9877859720815456,-3.377742,52.2417
188,Corwen,0.01,0.01,0.01,0.01,0.01,0.01,0.9951542223267204,-3.369242,52.98005
189,Cockermouth,0.01,0.035445922640605865,0.01,0.01,0.01,0.11313331152394406,0.9627944757282976,-3.367985,54.66326
190,Lockerbie,0.01,0.20556147340304987,0.01,0.01,0.01,0.0927029749359444,0.8381042852229563,-3.349008,55.12224000000001
191,Blairgowrie,0.3052995516917483,0.3129728885692249,0.01,0.01,0.01,0.01,0.4830402512254005,-3.3378318,56.58941
192,Elgin,0.746955093716005,0.08457268670534793,0.01,0.01,0.01,0.01,0.2237563741869494,-3.318485,57.64945
193,Newtown,0.01,0.01,0.01,0.01,0.01,0.01,1.0,-3.313106,52.51211
194,Ruthin,0.01,0.01,0.01,0.01,0.01,0.01,0.9959518383725232,-3.3103108,53.11487
195,Ruthin,0.01,0.01,0.01,0.01,0.01,0.01,0.9959518383725232,-3.3103108,53.11487
196,Sidmouth,0.01,0.01,0.01,0.01,0.01,0.01431099161688192,0.9958818222546232,-3.23756,50.67865
197,Barrow-in-Furness,0.01,0.01,0.01,0.01,0.01,0.01,0.9915356190441952,-3.218894,54.10896999999999
198,Peebles,0.016953375937157948,0.7241028690810039,0.01,0.01,0.01,0.01,0.4643889981970842,-3.193642,55.65306999999999
199,Edinburgh,0.014020098345149095,0.4522502726069644,0.01,0.01,0.17469847706203098,0.01,0.6618041734337081,-3.188267,55.95325
200,Cardiff,0.01,0.01,0.01,0.01,0.01,0.01,0.9962503530373517,-3.17909,51.48158
201,Llangollen,0.01,0.01,0.01,0.01,0.01,0.01,0.9924226475648824,-3.17166,52.96921
202,Kirkcaldy,0.014622936629600888,0.6336194768881629,0.01,0.01,0.17472208115760002,0.01,0.5310098074604064,-3.158137,56.11682
203,Welshpool,0.01,0.01,0.01,0.01,0.01,0.01,0.9977287339051631,-3.146407,52.66035
204,Mold,0.01,0.01,0.01,0.01,0.01,0.01,1.0,-3.141903,53.1672
205,Mold,0.01,0.01,0.01,0.01,0.01,0.01,1.0,-3.141903,53.1672
206,Taunton,0.01,0.01,0.01,0.01,0.01,0.01,0.997833285000135,-3.106849,51.01534
207,Wick,0.4248457969369417,0.1843532864817473,0.01,0.01,0.01,0.01,0.4600229255477933,-3.093716,58.43894
208,John o' Groats,0.4196208168457752,0.18208601151499687,0.01,0.01,0.01,0.01,0.4666635758650658,-3.0688997,58.63734
209,Dalkeith,0.01403722445017158,0.5309118734515983,0.01,0.01,0.20182139194385326,0.01,0.6053073163531634,-3.066606,55.89312
210,Oswestry,0.01,0.01,0.01,0.01,0.01,0.01,0.9949834397688712,-3.056412,52.85715
211,Blackpool,0.01,0.01,0.01,0.01,0.01,0.01814245728476344,0.9911746575715096,-3.0356748,53.81751
212,Birkenhead,0.01,0.01,0.01,0.01,0.15534298947593309,0.01,0.9957630787033204,-3.023009,53.38999
213,Cupar,0.20755021754314826,0.5951733955236888,0.01,0.01,0.01,0.01,0.3742730505596791,-3.010137,56.32023
214,Southport,0.01,0.01,0.041937478517507135,0.01,0.01,0.01,0.995278169778678,-3.010113,53.64571
215,Bridgwater,0.01,0.01,0.01,0.01,0.01,0.01,0.9960298968823434,-3.003632,51.12789
216,Langholm,0.01,0.2043393553504566,0.01,0.01,0.01,0.05127790475063857,0.8442600266155859,-2.998913,55.15306
217,Newport,0.01,0.01,0.01,0.01,0.01,0.01,1.0,-2.997664,51.58415
218,Axminster,0.01,0.01,0.01,0.01,0.01,0.04445030414311511,0.9908638427778608,-2.994937,50.78273
219,Wrexham,0.01,0.01,0.01,0.01,0.01,0.01,0.9951911227131808,-2.992494,53.04304000000001
220,Liverpool,0.01,0.01,0.01,0.01,0.01,0.01,0.9956334542688308,-2.9915726,53.40837
221,Weston-super-Mare,0.01,0.01,0.01,0.01,0.01,0.01,0.9960956552633432,-2.977255,51.34741
222,Dundee,0.29239873939778266,0.26248317582267544,0.01,0.01,0.01,0.01,0.5316134599363513,-2.970721,56.46202
223,Kirkwall,0.4318558492452882,0.17684288932569742,0.01,0.01,0.01,0.01,0.4586992424539895,-2.9622491,58.98467
224,Ambleside,0.01,0.010114646652167816,0.01,0.01,0.01,0.014706735617075329,0.9866993030084698,-2.961333,54.42874000000001
225,Orkney Islands,0.4318558492452882,0.17684288932569742,0.01,0.01,0.01,0.01,0.4586992424539895,-2.9605206,58.98094
226,Lyme Regis,0.01,0.01,0.01,0.01,0.01,0.06867824011568653,0.9887070624974282,-2.936639,50.72516
227,Carlisle,0.01,0.04243867972767657,0.01,0.01,0.01,0.08521305360768419,0.9606220837459004,-2.932931,54.89247
228,Chester,0.01,0.01,0.01,0.01,0.01,0.01,0.9983621905394034,-2.893075,53.19339
229,Forfar,0.290943876413163,0.2332824195169773,0.01,0.01,0.01,0.01,0.5539519131194593,-2.889062,56.64356
230,Morecambe,0.01,0.010653811874847508,0.01,0.01,0.01,0.011618012735425736,0.9894928514962874,-2.864968,54.07417
231,Selkirk,0.01690328254786386,0.5333743212356286,0.01,0.01,0.01,0.01,0.6012388122049445,-2.838524,55.55066
232,Galashiels,0.016955813098637314,0.6404026685133111,0.01,0.01,0.01,0.01,0.5244211961496809,-2.814449,55.62373
233,Lancaster,0.01,0.0106495114215136,0.01,0.01,0.01,0.011613323150524041,0.9914069407734604,-2.8007399,54.04657
234,St Andrews,0.2282113192431048,0.481535891121431,0.01,0.01,0.01,0.01,0.4359875276693759,-2.7967214,56.33978000000001
235,Hawick,0.011444318806687077,0.32263288540630325,0.01,0.01,0.01,0.01905013018264671,0.7560586413372321,-2.780914,55.42706
236,Bridport,0.01,0.01,0.01,0.01,0.01,0.01,0.9967499275002016,-2.758301,50.73358
237,Shrewsbury,0.01,0.01,0.01,0.01,0.01,0.01,0.9991167561343344,-2.7553268,52.7073
238,Penrith,0.01,0.017025496002129045,0.01,0.01,0.01,0.05941232867864585,0.9796470714575988,-2.752708,54.6641
239,Kendal,0.01,0.01,0.01,0.01,0.01,0.01,0.9863345568807628,-2.74629,54.32801
240,Street,0.01,0.01,0.01,0.01,0.01,0.01,0.9968052780798928,-2.742919,51.12468
241,Glastonbury,0.01,0.01,0.01,0.01,0.01,0.01,0.9962673839849489,-2.718454,51.14743
242,Hereford,0.01,0.01,0.01,0.01,0.01,0.01,0.9953978594937356,-2.715974,52.0564
243,Ludlow,0.01,0.01,0.01,0.01,0.01,0.01,0.9914963532483456,-2.7139129,52.36775
244,Preston,0.01,0.01,0.01,0.01,0.01,0.01,0.9982292545317694,-2.70309,53.7632
245,Whitchurch,0.01,0.01,0.01,0.01,0.01,0.01,0.9951045487295622,-2.682045,52.96872
246,Wells,0.013454122566340073,0.01,0.01,0.01,0.01,0.01,0.9871108842420678,-2.6445979,51.20935
247,Yeovil,0.01,0.01,0.01,0.01,0.01,0.01,0.9951646301280306,-2.633308,50.94206
248,Wigan,0.01,0.01,0.01,0.01,0.01,0.01,0.9989227925644772,-2.6325074,53.54506
249,Warrington,0.01,0.01,0.01,0.01,0.01,0.01,0.9953737323179732,-2.5969501,53.39004
250,Arbroath,0.2911630650959701,0.20472755573809245,0.01,0.01,0.01,0.01,0.5742229984970191,-2.591543,56.55911
251,Bristol,0.01,0.01,0.01,0.11258423739101324,0.01,0.01,0.997241459571132,-2.58791,51.45451
252,Guernsey,0.01,0.01,0.01,0.01,0.01,0.01,0.993378272957836,-2.585278,49.46569
253,Ross-on-Wye,0.01,0.01,0.01,0.01,0.01,0.01,0.998374017586346,-2.582446,51.91445
254,Jedburgh,0.01610441199734211,0.2881556450732634,0.06142419899546009,0.01,0.01,0.2944179719007069,0.7504914138004607,-2.5549369,55.47772
255,Sedbergh,0.01,0.01,0.01,0.01,0.01,0.01,0.9952147768070666,-2.5281740000000004,54.32363
256,Sedbergh,0.01,0.01,0.01,0.01,0.01,0.01,0.9952147768070666,-2.5281740000000004,54.32363
257,Nantwich,0.01,0.01,0.01,0.01,0.01,0.01,0.9955790498528956,-2.524102,53.06719
258,Banff,0.9593911964264112,0.07645745648797478,0.01,0.01,0.01,0.017176393588466732,0.02465087740130454,-2.524038,57.66651
259,Dunbar,0.02624720198227753,0.9790862904149054,0.01,0.01,0.01,0.01,0.27259640107692384,-2.516737,56.00209
260,Cinderford,0.01,0.01,0.01,0.01,0.01,0.011362740503836849,0.9990656632915426,-2.5009579,51.8253
261,Banchory,0.24611442954731064,0.12607702436758578,0.01,0.01,0.01,0.01,0.6732101775050511,-2.4909599,57.05386
262,Blackburn,0.01,0.028719586159950912,0.01,0.01,0.01,0.01,0.9794005957993172,-2.487529,53.74858
263,Market Drayton,0.01,0.01,0.01,0.01,0.01,0.01,0.9985954199051088,-2.483485,52.90355
264,Telford,0.01,0.01,0.01,0.01,0.01,0.01,0.9991271639356442,-2.4672611,52.67759
265,Montrose,0.28720424468910283,0.19225195380779264,0.01,0.01,0.01,0.01,0.586963566545353,-2.4661150000000003,56.70692
266,Turriff,0.790723666209428,0.1067193461745908,0.01,0.01,0.01,0.016098363894857533,0.16461782790132798,-2.4623,57.53893000000001
267,Weymouth,0.01,0.01,0.01,0.01,0.01,0.01,0.994458318884624,-2.457621,50.61443
268,Crewe,0.01,0.01,0.01,0.01,0.01,0.01,0.997078719405204,-2.4438209,53.10041
269,Fortuneswell,0.01,0.01,0.01,0.01,0.01,0.01,0.9948481383518496,-2.442219,50.55919
270,Dorchester,0.01,0.01,0.01,0.01,0.01,0.01,0.9971388008036712,-2.4411810000000003,50.71116
271,Alston,0.01,0.01328034575409998,0.042299908441299834,0.01,0.01,0.12477020170867895,0.9736219006632134,-2.438685,54.81217
272,Kelso,0.015830810905522845,0.4563635118742573,0.01,0.01,0.01,0.16140510258876084,0.644232966332182,-2.432207,55.60003
273,Wincanton,0.01,0.01,0.01,0.01,0.01,0.01,0.9961495865974004,-2.416007,51.05569000000001
274,Clitheroe,0.01,0.02773617614688515,0.01,0.01,0.01,0.021508537178138363,0.9783375808201248,-2.3930830000000003,53.8711
275,Sark,0.01,0.01,0.01,0.01,0.01,0.01,0.9968237282731236,-2.3666256000000003,49.43007
276,Bath,0.01,0.01,0.01,0.01,0.01,0.01,0.9969699105733324,-2.3590167,51.38106
277,Kidderminster,0.01,0.01,0.01,0.01,0.01,0.01,0.9988404763177584,-2.2496839,52.3886
278,Manchester,0.01,0.01,0.01,0.01,0.01,0.01,0.996251772282984,-2.2426305,53.48076
279,Burnley,0.01,0.01,0.01,0.01,0.01,0.024249002278440863,0.9960128659347458,-2.2405035,53.78929
280,Gloucester,0.01,0.01,0.01,0.01,0.01,0.01,0.9972050322665488,-2.238156,51.86424
281,Newcastle-under-Lyme,0.01,0.01,0.01,0.01,0.01,0.01,0.99693537559626,-2.2273002,53.01321
282,Worcester,0.01,0.01,0.01,0.01,0.01,0.01,0.9990599863090108,-2.221575,52.19364
283,Trowbridge,0.01,0.01,0.01,0.01,0.01,0.01,0.9973687185962335,-2.208853,51.31966
284,Shaftesbury,0.01,0.010255018617366309,0.01,0.01,0.01,0.01,0.9926445229655227,-2.198083,51.0046
285,Alderney,0.01,0.01,0.01,0.01,0.01,0.01,0.9980456987632224,-2.1973557,49.715
286,Stoke-on-Trent,0.01,0.01,0.01,0.01,0.01,0.01,0.9969495680525916,-2.179404,53.00267
287,Colne,0.01,0.01,0.01,0.01,0.01,0.027617179538314773,0.9954588870559594,-2.176991,53.85564
288,Blandford Forum,0.01,0.01,0.01,0.01,0.01,0.01,0.9959636654194656,-2.165353,50.85691
289,Rochdale,0.01,0.01,0.01,0.01,0.01,0.01,0.9961699291181424,-2.1561,53.60971
290,Jersey,0.01,0.01,0.01,0.01,0.01,0.01,0.9970569576388296,-2.13125,49.21444
291,Wolverhampton,0.01,0.01,0.01,0.01,0.01,0.01,0.9981488306125602,-2.12882,52.58697
292,Stafford,0.01,0.01,0.01,0.01,0.01,0.01,0.9952109921520448,-2.12066,52.80669
293,Macclesfield,0.01,0.01,0.01,0.01,0.01,0.01,0.9957394246094358,-2.119287,53.25866
294,Hexham,0.01337667783814912,0.01786641848366014,0.0616495134651328,0.7409173792224767,0.01,0.7566046353003383,0.9073592143813106,-2.1121439,54.97266
295,Aberdeen,0.31990420212884524,0.114456254165621,0.01,0.01,0.01,0.01,0.6108627168429916,-2.094278,57.14972
296,Dudley,0.01,0.01,0.01,0.01,0.01,0.01,0.9958936493015657,-2.081112,52.51226
297,Cheltenham,0.01,0.01,0.01,0.01,0.01,0.01,0.9971099428091316,-2.0782533,51.89939
298,Bromsgrove,0.01,0.01,0.01,0.01,0.01,0.01,0.9963236807283944,-2.061906,52.33559
299,Skipton,0.01,0.01,0.01,0.01,0.01,0.042176663340295184,0.9878635575094886,-2.0162787,53.96285
300,Fraserburgh,0.4702433696347639,0.10631181752440094,0.01,0.01,0.01,0.01,0.4726915851507169,-2.007631,57.69335
301,Berwick,0.01,0.38254383339343184,0.01,0.01,0.01,0.2898786856057676,0.6926174153739307,-2.005395,55.77024
302,Poole,0.01,0.01,0.01,0.01,0.01,0.01,0.9966406455864534,-1.987248,50.71505
303,Walsall,0.01,0.01,0.01,0.01,0.01,0.01,0.9969637605089228,-1.982919,52.58621
304,Cirencester,0.01,0.01,0.01,0.01,0.01,0.01,0.9950387903485624,-1.968243,51.71849
305,Evesham,0.01,0.01,0.01,0.01,0.01,0.01,1.0,-1.94677,52.09215
306,Buxton,0.01,0.01,0.01,0.01,0.01,0.01,0.9984000370896194,-1.91483,53.25908
307,Keighley,0.01,0.01,0.01,0.01,0.01,0.01,0.9925366602974078,-1.912358,53.8678
308,Birmingham,0.01,0.01,0.01,0.01,0.01,0.01,0.996601852872482,-1.890401,52.48624
309,Bournemouth,0.01,0.01,0.01,0.01,0.01,0.01,0.9978569390940196,-1.880769,50.71916
310,Halifax,0.01,0.01802909310204383,0.01,0.01,0.01,0.01,0.9870683068730756,-1.85754,53.72702
311,Salisbury,0.01,0.01,0.01,0.01,0.01,0.01,1.0,-1.794472,51.06878
312,Ringwood,0.01,0.01,0.01,0.01,0.01,0.01,0.9968298783375341,-1.788817,50.84495
313,Huddersfield,0.01,0.01,0.01,0.01,0.01,0.01,0.997839908146423,-1.7850351000000002,53.64579000000001
314,Peterhead,0.4307776584486999,0.10900782963614912,0.01,0.01,0.01,0.01,0.5085530838078741,-1.784066,57.50812
315,Swindon,0.01,0.01,0.01,0.01,0.01,0.01,0.9969192908124196,-1.7797176,51.55577
316,Bradford,0.01,0.01,0.01,0.01,0.01,0.01,0.9935457439425416,-1.759398,53.79598000000001
317,Ashbourne,0.01,0.01,0.01,0.01,0.01,0.01,0.9937496422318304,-1.732179,53.016630000000006
318,Marlborough,0.01,0.011192926244786898,0.01,0.01,0.01,0.01,0.9905118698608522,-1.727062,51.42007
319,Stratford-upon-Avon,0.01,0.01,0.01,0.01,0.01,0.01,0.998723625093966,-1.708298,52.19173
320,Alnwick,0.0120187064542927,0.01906253179038284,0.041543241146822785,0.01,0.01,1.0,0.8904380217797443,-1.7062990000000002,55.41274
321,Otley,0.01,0.01,0.01,0.01,0.01,0.012073463494851014,0.9980149484411718,-1.691786,53.90583
322,Bishop Auckland,0.01,0.01,0.15246982824147187,0.01,0.01,0.08030957645091577,0.9752393676030692,-1.6787880000000002,54.66382
323,Burton upon Trent,0.01,0.01,0.01,0.01,0.01,0.01,0.9990685017828088,-1.6371359,52.81403
324,Newcastle,0.01002008643770936,0.015071196632994025,0.017473470268562705,1.0,0.01,0.7594369656287053,0.9140826540271808,-1.61778,54.97825
325,Durham,0.01,0.01,0.1678862142987248,0.01,0.01,0.21616164187368864,0.9600936512885097,-1.584852,54.77525
326,Ashington,0.01160990554173458,0.011519224007181106,0.01,0.01,0.01,0.9392321758636826,0.903394788246186,-1.5659829,55.18298000000001
327,Darlington,0.01,0.01,0.0867723659632843,0.01,0.01,0.03839230181955757,0.9824136542783865,-1.559458,54.52361
328,Leeds,0.01,0.01,0.012230309129255698,0.01,0.01,0.01,0.9972457173080318,-1.5490774,53.80076
329,Harrogate,0.01,0.01,0.01,0.01,0.01,0.013447805905144643,0.9977888153036304,-1.5418120000000002,53.99211999999999
330,Leamington Spa,0.01,0.01,0.01,0.01,0.01,0.014028098017926626,0.99711656595542,-1.5200789,52.28519
331,Coventry,0.01,0.01,0.01,0.01,0.01,0.01,0.9985892698406992,-1.519693,52.40682
332,Blyth,0.033526208563444536,0.01,0.01,0.01,0.01,0.8161585296004595,0.8938550921823688,-1.510277,55.12696
333,Wakefield,0.01,0.01,0.01,0.01,0.01,0.01,0.9970143802698364,-1.505924,53.6833
334,Andover,0.01,0.01,0.01,0.01,0.01,0.01,0.9947289217186688,-1.4919233,51.2112
335,Witney,0.01,0.01,0.01,0.01,0.01,0.012542637763467151,0.9938125621215644,-1.4850544,51.78594
336,Barnsley,0.01,0.01,0.01,0.01,0.01,0.01,0.9964949363681224,-1.479726,53.55263000000001
337,Derby,0.01,0.01,0.01,0.01,0.01,0.01,0.9968634671508504,-1.4746186,52.92253
338,Sheffield,0.01,0.01,0.01,0.01,0.01,0.01890078445350795,0.9930073767657194,-1.470085,53.38113000000001
339,Nuneaton,0.01,0.01,0.01,0.01,0.01,0.01,0.997415553702126,-1.465382,52.52049
340,Northallerton,0.01,0.01,0.01,0.01,0.01,0.024278868892468167,0.9926809502701064,-1.429959,54.33796
341,South Shields,0.04577555687309205,0.01,0.8147071824887557,0.1752363334021369,0.01,0.3985977012191093,0.8749762867708806,-1.427406,54.99941999999999
342,Chesterfield,0.01,0.01,0.01,0.01,0.01,0.01,0.9987416022053184,-1.421629,53.23505
343,Southampton,0.01,0.01,0.01,0.01,0.01,0.01,0.9960147582622559,-1.4043508999999998,50.9097
344,Wetherby,0.01,0.01,0.01,0.01,0.01,0.01,0.9976383752665224,-1.384816,53.92706
345,Sunderland,0.04974999752308583,0.01,1.0,0.1810654592194781,0.01,0.3547206012983689,0.8637713424975604,-1.383801,54.90687
346,Rotherham,0.01,0.01,0.01,0.01,0.01,0.016630910854657524,0.9940746494818098,-1.3635008999999998,53.4326
347,Castleford,0.01,0.01,0.01,0.01,0.01,0.01,0.9966671381716048,-1.345968,53.72346999999999
348,Thirsk,0.01,0.01,0.01,0.01,0.01,0.01,1.0,-1.341377,54.23385
349,Banbury,0.01,0.014973180845184998,0.01,0.01,0.01,0.01,0.9892605682943368,-1.339775,52.0629
350,Stockton,0.01,0.01,0.01,0.01,0.01,0.03597619085201488,0.9930982084862372,-1.3289821000000002,54.57046
351,Newbury,0.01,0.01,0.01,0.01,0.01,0.01,0.99686772488775,-1.3231138999999998,51.40141
352,Isle of Wight,0.01,0.027724594979425424,0.01,0.01,0.01,0.01,0.978012573570146,-1.304734,50.69385
353,Isle of Wight,0.01,0.027724594979425424,0.01,0.01,0.01,0.01,0.978012573570146,-1.304734,50.69385
354,Abingdon,0.01,0.01,0.01,0.01,0.01,0.01114837008372862,0.9922092876380392,-1.2879528999999998,51.67078
355,Shetland Islands,1.0,0.05855621759623484,0.01,0.01,0.01,0.01,0.01,-1.2659409,60.52965
356,Rugby,0.01,0.01,0.01,0.01,0.01,0.024502875114878715,0.9939563790123852,-1.265032,52.37088
357,Oxford,0.01,0.01,0.01,0.01,0.01,0.01140299095211398,0.9924997599109472,-1.2577263,51.75202
358,Middlesbrough,0.01,0.01,0.0107006501860272,0.01,0.01,0.033817760203522874,0.994995266815814,-1.234956,54.57423000000001
359,Hartlepool,0.01,0.01,0.053188568909618636,0.01,0.01,0.07059960447937365,0.9870091716383632,-1.212926,54.69174
360,Loughborough,0.01,0.01,0.01,0.01,0.01,0.01,0.9988324339258364,-1.206166,52.7721
361,Mansfield,0.01,0.01,0.01,0.01,0.01,0.01,0.9965829295973744,-1.198674,53.1472
362,Nottingham,0.01,0.01,0.01,0.01,0.01,0.01,0.9937373421030092,-1.1581086,52.95478000000001
363,Bicester,0.01,0.013857176697912515,0.01,0.01,0.01,0.01,0.9900610228314048,-1.1535898999999998,51.8996
364,Leicester,0.01,0.01,0.01,0.01,0.01,0.02439897635441553,0.9959877925952276,-1.1397592,52.63688000000001
365,Doncaster,0.01,0.01,0.01,0.01,0.01,0.01,0.9968005472611158,-1.128462,53.52282
366,Worksop,0.01,0.01,0.01,0.01,0.01,0.01,0.991968015880412,-1.122745,53.3093
367,Basingstoke,0.01,0.01,0.01,0.01,0.01,0.01,0.9985675080743248,-1.0923964,51.26654
368,Portsmouth,0.01,0.03296519260388985,0.01,0.01,0.01,0.01,0.974052878253798,-1.0879769,50.81977
369,York,0.01,0.01,0.01,0.01,0.01,0.012457253369114027,0.9928304441434588,-1.0872979,53.95997
370,Selby,0.01,0.01,0.01,0.01,0.01,0.01,1.0,-1.067189,53.78352
371,Helmsley,0.01,0.01,0.01,0.01,0.01,0.048340172693003065,0.9940382221772271,-1.0562636,54.24651
372,Towcester,0.01,0.01,0.01,0.01,0.01,0.01,0.9991186484618448,-0.989688,52.13511
373,Reading,0.01,0.01,0.01,0.01,0.01,0.01,0.9977575918997028,-0.9781303,51.45426
374,Retford,0.01,0.01,0.01,0.01,0.01,0.01,0.9957597671301768,-0.945503,53.32136
375,Petersfield,0.01,0.01,0.01,0.01,0.01,0.01,0.988101044612094,-0.93899,51.00759
376,Northampton,0.01,0.01,0.01,0.01,0.01,0.01,0.9970162725973478,-0.902656,52.24048
377,Melton Mowbray,0.01,0.01,0.01,0.01,0.01,0.01,0.9984355182304472,-0.887126,52.7664
378,Aylesbury,0.01,0.01,0.01,0.01,0.01,0.01,0.9975570051835576,-0.8084,51.81561
379,Newark-on-Trent,0.01,0.01,0.01,0.01,0.01,0.01,0.9934558583857779,-0.80657,53.07004000000001
380,Malton,0.01,0.01,0.01,0.01,0.01,0.015048349723910153,0.99133929006495,-0.7978970000000001,54.13684
381,Chichester,0.01,0.01,0.01,0.01,0.01,0.01,0.993367865156526,-0.774936,50.83761
382,Gainsborough,0.01,0.01,0.01,0.01,0.01,0.01,1.0,-0.774465,53.40058000000001
383,Milton Keynes,0.01,0.01,0.01,0.01,0.01,0.01,0.9995898380120344,-0.7594171,52.04062
384,Aldershot,0.01,0.01,0.01,0.01,0.01,0.01,0.9973937919357516,-0.7557509,51.24837
385,High Wycombe,0.01,0.01,0.01,0.01,0.01,0.01,0.9981001031791576,-0.748229,51.62861
386,Midhurst,0.01,0.01,0.01,0.01,0.01,0.01,0.994059983943601,-0.737274,50.9869
387,Kettering,0.01,0.01,0.01,0.01,0.01,0.01,0.9975324049259175,-0.7302489999999999,52.39632
388,Wellingborough,0.01,0.01,0.01,0.01,0.01,0.01,0.9978692392228397,-0.693964,52.30242
389,Corby,0.01,0.01,0.01,0.01,0.01,0.01,0.9968308245012888,-0.6842333,52.4923
390,Bognor Regis,0.01,0.01,0.01,0.01,0.01,0.01,0.9989000846343477,-0.673061,50.783
391,Scunthorpe,0.01,0.01,0.01,0.01,0.01,0.01,1.0,-0.654413,53.58865
392,Grantham,0.01,0.01,0.01,0.01,0.01,0.01,0.9974652272992844,-0.643582,52.91252
393,Whitby,0.01,0.01,0.01,0.01,0.01,0.02130776885588181,0.9975475435460036,-0.613347,54.48633
394,Slough,0.01,0.013854543106385241,0.01,0.01,0.01,0.01,0.9900629151589156,-0.5950406,51.51054
395,Guildford,0.01,0.01,0.01,0.01,0.01,0.01,0.9948225919304534,-0.570409,51.23622
396,Woking,0.01,0.01,0.01,0.01,0.01,0.01,0.9960109736072356,-0.5600349,51.31677
397,Lincoln,0.01,0.01,0.01,0.01,0.01,0.01,0.997179485845154,-0.540579,53.23069
398,Bedford,0.01,0.01,0.01,0.01,0.01,0.01,1.0,-0.4667782,52.13864
399,Heathrow,0.01,0.01,0.01,0.01,0.01,0.01,1.0,-0.4542955,51.47002
400,Driffield,0.01,0.01,0.01,0.01,0.01,0.01,0.9961704022000204,-0.443377,54.006
401,Beverley,0.01,0.01,0.01,0.01,0.01,0.01,0.9961467481061348,-0.435093,53.84196
402,Luton,0.01,0.01,0.01,0.01,0.01,0.01,0.995760713293932,-0.4200255,51.87867
403,Scarborough,0.01,0.01,0.01,0.01,0.01,0.01,0.9979094511824446,-0.399752,54.28311
404,Worthing,0.01,0.01,0.01,0.01,0.01,0.01,0.9975896478331197,-0.372882,50.81787
405,Dorking,0.01,0.01,0.01,0.01,0.01,0.01,0.995465510202248,-0.332378,51.2322
406,Hull,0.01,0.01,0.01,0.01,0.01,0.01,0.9970664192763838,-0.3274198,53.76762
407,Horsham,0.01,0.01,0.01,0.01,0.01,0.01,1.0,-0.325858,51.06288
408,Biggleswade,0.01,0.02699922700668811,0.01,0.01,0.01,0.01,0.9806343933363579,-0.26421999999999995,52.08694000000001
409,Peterborough,0.01,0.01,0.01,0.01,0.01,0.01,0.99195003876906,-0.2405299,52.5695
410,Welwyn Garden City,0.01,0.01,0.01,0.01,0.01,0.01,0.9985698734837132,-0.208661,51.80317
411,Bridlington,0.01,0.01,0.01,0.01,0.01,0.01,0.996377138980574,-0.198802,54.08535
412,Stevenage,0.01,0.01,0.01,0.01,0.01,0.01,0.9925555835725164,-0.196612,51.90376
413,Crawley,0.01,0.01,0.01,0.01,0.01,0.01,1.0,-0.1872275,51.10914
414,Huntingdon,0.01,0.01,0.01,0.01,0.01,0.01,0.99393887498291,-0.182552,52.33146
415,Hove,0.01,0.01,0.01,0.01,0.01,0.012104777262992163,0.9957427361825796,-0.168749,50.82793
416,Spalding,0.01,0.01,0.01,0.01,0.01,0.01,0.9907219182145516,-0.1537024,52.7901
417,Brighton,0.01,0.01,0.01,0.01,0.01,0.012242483615027664,0.9956944818310538,-0.137163,50.82253
418,London,0.01,0.01,0.01,0.03599041867750012,0.01,0.01,0.99731999116283,-0.12775830000000002,51.50735
419,Grimsby,0.01,0.01,0.01,0.01,0.01,0.01,0.9958595874063708,-0.08078400000000001,53.56746999999999
420,Boston,0.01,0.010997901896402502,0.01,0.01,0.01,0.031981983929042265,0.9855378869987166,-0.026577,52.97894
421,Royston,0.01,0.042434180744189205,0.01,0.01,0.01,0.01,0.9695638043163048,-0.024066,52.04814
422,Louth_Lincs,0.01,0.01,0.01,0.01,0.01,0.01691592195943346,0.9958278909205652,-0.007711,53.36596
423,Lewes,0.01,0.01,0.01,0.01,0.01,0.012679357288741129,0.9953671091716856,0.00878,50.87387
424,Chatteris,0.01,0.01,0.01,0.01,0.01,0.01,0.9948069802284896,0.054012,52.4561
425,Uckfield,0.01,0.017214962957267804,0.01,0.01,0.01,0.01,0.9876525629920349,0.095913,50.96641
426,Cambridge,0.01,0.01,0.01,0.01,0.01,0.011915220788810412,0.996244676054819,0.121817,52.20534
427,Bishop's Stortford,0.01,0.01,0.01,0.01,0.01,0.01,1.0,0.1536502,51.87216
428,Wisbech,0.01,0.01,0.01,0.01,0.01,0.01,0.9933352225069648,0.158797,52.66631999999999
429,Sevenoaks,0.01,0.01,0.01,0.01,0.01,0.01,0.9948812540832884,0.190898,51.27241
430,Tunbridge Wells,0.01,0.021393517128037942,0.01,0.01,0.01,0.01,0.9846551162149286,0.263695,51.13238
431,Eastbourne,0.01,0.011051627717596494,0.01,0.01,0.01,0.01676776617650044,0.9900051991698356,0.29047199999999995,50.76803
432,Brentwood,0.01,0.01,0.01,0.01,0.01,0.01,0.9973852764619532,0.30717490000000003,51.62047000000001
433,Skegness,0.01,0.01,0.01,0.01,0.01,0.02776513047557602,0.9920105932494052,0.337881,53.1464
434,Downham Market,0.01,0.01,0.01,0.01,0.01,0.01,0.99844308754049,0.385472,52.60661
435,King's Lynn,0.01,0.01,0.01,0.01,0.01,0.01,0.9968227821093678,0.4022963,52.75168000000001
436,Bexhill,0.01,0.012692423174654606,0.01,0.01,0.01,0.01,0.9908960123455444,0.4662071,50.84991
437,Chelmsford,0.01,0.01,0.01,0.01,0.01,0.01,0.996912667666131,0.4685497,51.73559
438,Mildenhall,0.01,0.01,0.01,0.01,0.01,0.01,0.9984676877981306,0.5156095,52.34757000000001
439,Medway,0.01,0.01,0.01,0.01,0.01,0.01,0.9957540901476442,0.5417860999999999,51.40474
440,Braintree,0.01,0.01,0.01,0.01,0.01,0.01,0.9963856544543734,0.5509269,51.88009
441,Gillingham,0.01,0.01,0.01,0.01,0.01,0.01,0.995426717488276,0.551438,51.38632
442,Hastings,0.01,0.014255458525888784,0.01,0.01,0.01,0.01,0.9897752813772732,0.573453,50.85426
443,Maldon,0.01,0.01,0.01,0.01,0.01,0.01,0.9943793142110487,0.6714479999999999,51.73181
444,Southend,0.01,0.01,0.01,0.01,0.01,0.01,0.997154412505636,0.7077123000000001,51.54593
445,Bury St Edmunds,0.01,0.01,0.01,0.01,0.01,0.01,0.9987898565568432,0.7104931999999999,52.24292
446,Thetford,0.01,0.01,0.01,0.01,0.01,0.01,0.9979122896737104,0.751657,52.41286
447,Ashford,0.01,0.01,0.01,0.01,0.9954893779416282,0.01,0.998906707780636,0.8750190000000001,51.14647
448,Faversham,0.01,0.01,0.01,0.01,0.9144754700467042,0.01,0.9969869415209296,0.889358,51.31599
449,Colchester,0.01,0.01,0.01,0.01,0.01,0.01,0.9957138781880398,0.891874,51.89593
450,New Romney,0.01,0.01,0.01,0.01,0.01,0.01,0.9977689458647676,0.939473,50.98512
451,Canterbury,0.01,0.01,0.01,0.01,1.0,0.01,0.9967049847218208,1.0789089,51.28023
452,Ipswich,0.01,0.01,0.01,0.01,0.01,0.01,0.994644713144438,1.14822,52.05674000000001
453,Clacton,0.01,0.01,0.01,0.01,0.01,0.01,0.9936133946510526,1.153035,51.78953
454,Folkestone,0.01,0.01,0.01,0.01,0.9259396088353404,0.01,0.9969490949707136,1.169456,51.0814
455,Sheringham,0.01,0.01,0.01,0.01,0.01,0.01,0.9963582157054666,1.2109589,52.94442
456,Harwich,0.01,0.01,0.01,0.01,0.01,0.01,0.9935107358835922,1.260297,51.93473
457,Norwich,0.01,0.01,0.01,0.01,0.01,0.01,0.9963293577109268,1.297355,52.63089
458,Cromer,0.01,0.01,0.01,0.01,0.01,0.01,0.9964395857884312,1.301866,52.93145
459,Dover,0.01,0.01,0.01,0.01,0.6809897007750155,0.01,0.99551234530814,1.3134027,51.12788
460,Felixstowe,0.01,0.01,0.01,0.01,0.01,0.01,0.9935736557733252,1.351255,51.96173
461,Margate,0.01,0.01,0.01,0.01,0.7226051426777123,0.01,0.9944445995101708,1.3868339,51.38965
462,Ramsgate,0.01,0.01,0.01,0.01,0.6971103073658131,0.01,0.9946404554075388,1.419895,51.33555
463,Great Yarmouth,0.01,0.01,0.01,0.01,0.01,0.01,0.9967896663779292,1.728047,52.59823000000001
464,Lowestoft,0.01,0.01,0.01,0.01,0.01,0.01,0.9970394536093544,1.7534490000000005,52.48114
465,Swaffham,0.01,0.01,0.01,0.01,0.01,0.01,0.9979936597566748,0.687481,52.64747
466,Dereham,0.01,0.01,0.01,0.01,0.01,0.01,0.9966501072240076,0.937827,52.68162
467,Ely,0.01,0.01,0.01,0.01,0.01,0.01,0.9978356504095228,0.262363,52.39954
468,March,0.01,0.01,0.01,0.01,0.01,0.01,0.9930948969130934,0.088622,52.55172
469,St Neots,0.01,0.01,0.01,0.01,0.01,0.01,0.9933451572263972,-0.26510300000000003,52.23008
470,Banham,0.01,0.01,0.01,0.01,0.01,0.01,0.9987685678723468,1.0402849,52.45125
471,Holt,0.01,0.01,0.01,0.01,0.01,0.01,0.9965573831759784,1.086747,52.90936
472,Cromer,0.01,0.01,0.01,0.01,0.01,0.01,0.9964395857884312,1.301866,52.93145
473,Hunstanton,0.01,0.01,0.01,0.01,0.01,0.01,0.996872928788404,0.491032,52.93891
474,Horncastle,0.01,0.01,0.01,0.01,0.01,0.015500281280726997,0.9936280601892604,-0.11245,53.20731
475,Market Weighton,0.01,0.01,0.01,0.01,0.01,0.01,0.994225562600796,-0.6677465,53.86484
476,Hawes,0.01,0.013342588321006378,0.01,0.01,0.01,0.01,0.9904300266960108,-2.1968695,54.30383000000001
477,Reeth,0.01,0.012297736787118485,0.01,0.01,0.01,0.021457147958753614,0.9876511437464012,-1.9428115,54.38946
478,Aysgarth,0.01,0.0138081357266419,0.01,0.01,0.01,0.01,0.9900960308903544,-1.9967434,54.29159
479,Stanhope,0.013874662327679541,0.0115822163716903,0.22380606558170346,0.01,0.01,0.4243828026378101,0.931879048102492,-2.011302,54.74946
480,Keswick,0.01,0.01886005807617749,0.01,0.01,0.01,0.14957780374883325,0.9692553549320436,-3.134706,54.60128
481,Oxenholme,0.01,0.01,0.01,0.01,0.01,0.01,0.9918355529546564,-2.7243328,54.30134
