index,placename,longitude,latitude,dinna,dinnae,dinnit,divna,divnae,divnt,dont
0,Dingle,-10.264013499999999,52.14094,0.01,0.03718090822266215,0.01,0.01,0.01,0.01,0.6668412154747922
1,Tralee,-9.6999325,52.27131,0.01,0.037949357829612784,0.01,0.01,0.01,0.01,0.7219085608694327
2,Killarney,-9.5044265,52.059940000000005,0.01,0.03854949693897025,0.01,0.01,0.01,0.01,0.7838739681256666
3,Bantry,-9.4539805,51.68035,0.01,0.03846147575634801,0.01,0.01,0.01,0.01,0.673365024023631
4,Mayo,-9.4289369,54.01526,0.01,0.021461091681156938,0.01,0.01,0.01,0.01,0.7237482945208643
5,Ballycastle,-9.3724643,54.279669999999996,0.01,0.024837927070919485,0.01,0.01,0.01,0.01,0.5562530078819196
6,Abbeyfeale,-9.2970823,52.386179999999996,0.01,0.03364696842989354,0.01,0.01,0.01,0.01,0.5516929484480387
7,Ennistymon,-9.2934951,52.940369999999994,0.01,0.024180790345315246,0.01,0.01,0.01,0.01,0.5569869825764399
8,Galway,-9.0567905,53.270669999999996,0.01,0.02219413288637719,0.01,0.01,0.01,0.01,0.8387271733919136
9,Claremorris,-9.0017356,53.72388,0.01,0.019441876942533874,0.01,0.01,0.01,0.01,0.7818025959176653
10,Clare,-8.9811351,52.90453,0.01,0.026952935086514578,0.01,0.01,0.01,0.01,0.7750087886076743
11,Adare,-8.7925892,52.56363,0.01,0.03296836946630622,0.01,0.01,0.01,0.01,0.6603606955459104
12,Charleville,-8.681017599999999,52.36206,0.01,0.03644385797052477,0.01,0.01,0.01,0.01,0.5495945416111144
13,Mallow,-8.6539164,52.13898,0.01,0.03709506910979589,0.01,0.01,0.01,0.01,0.7005011316265914
14,Limerick,-8.6267343,52.66384,0.01,0.03562198593855367,0.01,0.01,0.01,0.01,0.8220765270454804
15,Loughrea,-8.5660931,53.19891,0.01,0.019515853804191956,0.01,0.01,0.01,0.01,0.5593753624235184
16,Sligo,-8.476088800000001,54.27661,0.01,0.035968326228931015,0.01,0.01,0.01,0.01,0.779101893869796
17,Cork,-8.4756035,51.898509999999995,0.01,0.041904926008613855,0.01,0.01,0.01,0.01,0.853970030352813
18,Nenagh,-8.19834,52.8635,0.01,0.027129667924398474,0.01,0.01,0.01,0.01,0.7402548898130907
19,Roscommon,-8.1890955,53.627590000000005,0.01,0.021684849975873666,0.01,0.01,0.01,0.01,0.7511172512035815
20,Tipperary,-8.161851400000002,52.47379,0.01,0.039998042946025165,0.01,0.01,0.01,0.01,0.7736620156087494
21,Donegal,-8.1096143,54.653830000000006,0.01,0.03657386017727732,0.01,0.01,0.01,0.01,0.7914822966591121
22,Leitrim,-8.0020132,54.12469,0.01,0.03870754182160891,0.01,0.01,0.01,0.01,0.7233805481169049
23,Athlone,-7.9406898,53.423930000000006,0.01,0.01925761216378776,0.01,0.01,0.01,0.01,0.7375575765823056
24,Longford,-7.7932573000000005,53.727630000000005,0.01,0.018500445832728696,0.01,0.01,0.01,0.01,0.7490237567114114
25,Offaly,-7.7122229,53.235690000000005,0.01,0.019508268655502356,0.01,0.01,0.01,0.01,0.7786654739280925
26,Fermanagh,-7.6318728,54.343830000000004,0.01,0.029029145236505422,0.01,0.01,0.01,0.01,0.7014784051403865
27,Enniskillen,-7.631533599999999,54.343819999999994,0.01,0.02932585869244932,0.01,0.01,0.01,0.01,0.7346984201758537
28,Doon,-7.60964,54.185930000000006,0.01,0.03231352974513578,0.01,0.01,0.01,0.01,0.6629844115038641
29,Westmeath,-7.4653217000000005,53.534530000000004,0.01,0.013788611964951791,0.01,0.01,0.01,0.01,0.7438586136599158
30,Strabane,-7.4633103,54.82739,0.01,0.037626751829202464,0.01,0.01,0.01,0.01,0.7366996095100624
31,Balivanich,-7.3743509000000005,57.472269999999995,0.01,0.06627618897922424,0.01,0.01,0.01,0.01,0.5513053555622133
32,Cavan,-7.3633319,53.98972,0.01,0.021713192950798547,0.01,0.01,0.01,0.01,0.7620495142241648
33,Mullingar,-7.340186800000001,53.525819999999996,0.01,0.013823922712263513,0.01,0.01,0.01,0.01,0.7407084455124257
34,Laois,-7.332300699999999,52.9943,0.01,0.01,0.01,0.01,0.01,0.01,0.7795138276866448
35,Omagh,-7.309959700000001,54.59771,0.01,0.024982482330517922,0.01,0.01,0.01,0.01,0.7524064363902777
36,Derry,-7.308574799999999,54.99661,0.01,0.038329639950568865,0.01,0.01,0.01,0.01,0.8075089364551544
37,Derry,-7.308574799999999,54.99661,0.01,0.038329639950568865,0.01,0.01,0.01,0.01,0.8075089364551544
38,Kilkenny,-7.2447879,52.65415,0.01,0.011007050853740215,0.01,0.01,0.01,0.01,0.798960067808417
39,Tyrone,-7.131232000000001,54.491209999999995,0.01,0.019421839300589636,0.01,0.01,0.01,0.01,0.7120540105579242
40,Waterford,-7.110070200000001,52.25932,0.01,0.02179142620636567,0.01,0.01,0.01,0.01,0.8107418159409295
41,Western Isles,-7.0194034,57.759890000000006,0.013157896952988352,0.06517357097886424,0.01,0.01,0.01,0.01,0.6645184958160445
42,Monaghan,-6.9683132,54.2492,0.01,0.024235048844720303,0.01,0.01,0.01,0.01,0.7554542274650888
43,Carlow,-6.934135899999999,52.83651,0.01,0.012168321745844871,0.01,0.01,0.01,0.01,0.7850341811903645
44,Kildare,-6.8194707999999995,53.21204,0.01,0.013233930355604379,0.01,0.01,0.01,0.01,0.8182685789900244
45,Dungannon,-6.7669352,54.508269999999996,0.01,0.01,0.01,0.01,0.01,0.01,0.7232830728409052
46,Cookstown,-6.7443895000000005,54.641819999999996,0.01,0.0168403977198992,0.01,0.01,0.01,0.01,0.7461973724087636
47,Coleraine,-6.6646103000000005,55.132580000000004,0.01,0.04093817457939382,0.01,0.01,0.01,0.01,0.784932985824392
48,Meath,-6.656416900000001,53.60555,0.01,0.0311745847086603,0.01,0.01,0.01,0.01,0.7898646221272406
49,Armagh,-6.652792,54.350280000000005,0.01,0.013597046826474737,0.01,0.01,0.01,0.01,0.7599884119100389
50,Armagh,-6.652792,54.350280000000005,0.01,0.013597046826474737,0.01,0.01,0.01,0.01,0.7599884119100389
51,Magherafelt,-6.607980499999999,54.75536999999999,0.01,0.021608324538152906,0.01,0.01,0.01,0.01,0.7525231771921036
52,Dunvegan,-6.581398200000001,57.4366,0.01,0.06581838590143439,0.01,0.01,0.01,0.01,0.5298925904652652
53,Louth,-6.4889423,53.925230000000006,0.01,0.02952593044839924,0.01,0.01,0.01,0.01,0.7918775145663944
54,Wexford,-6.4633381,52.33692,0.01,0.013225231662495068,0.01,0.01,0.01,0.01,0.8074925630129856
55,Craigavon,-6.4175653,54.442930000000004,0.01,0.01,0.01,0.01,0.01,0.01,0.7824577682856504
56,Stornoway,-6.384869200000001,58.209430000000005,0.057312005438155796,0.2126790299166064,0.01,0.01,0.01,0.012216373000522335,0.6049505752059162
57,Drogheda,-6.3560985,53.717859999999995,0.01,0.032654944731054486,0.01,0.01,0.01,0.01,0.7487769432798453
58,Rosslare,-6.3414908,52.25131,0.01,0.01700322874122884,0.01,0.01,0.01,0.01,0.5600812752138302
59,Newry,-6.34023,54.1751,0.01,0.026520157755558646,0.01,0.01,0.01,0.01,0.7725661086073465
60,Scilly Isles,-6.327496599999999,49.92773,0.01,0.01,0.01,0.01,0.01,0.01,0.7089464633985825
61,Ballymena,-6.2802213,54.86529,0.01,0.06901599362333727,0.01,0.01,0.01,0.01,0.7446702694832682
62,Banbridge,-6.2704803,54.34873,0.01,0.014909279691108297,0.01,0.01,0.01,0.01,0.751855348643064
63,Dublin,-6.2603097000000005,53.34981,0.01,0.027141516463101704,0.01,0.01,0.01,0.01,0.9159412306756887
64,Antrim,-6.2072498,54.719530000000006,0.01,0.03200389065797238,0.01,0.01,0.01,0.01,0.776118887297423
65,Antrim,-6.2072498,54.719530000000006,0.01,0.03200389065797238,0.01,0.01,0.01,0.01,0.776118887297423
66,Portree,-6.1960231,57.41246999999999,0.014304436732711357,0.07085260102363772,0.01,0.01,0.01,0.01,0.7030223770668318
67,Islay,-6.177067,55.73625,0.020120636153416454,0.20003710808002179,0.01,0.01,0.01,0.01,0.5983621037832213
68,Wicklow,-6.044589,52.980819999999994,0.01,0.015330597385428576,0.01,0.01,0.01,0.01,0.7982001336201737
69,Kilkeel,-6.007004,54.06312,0.01,0.03037880865523382,0.01,0.01,0.01,0.01,0.6922377392812181
70,Mull,-6.0008870000000005,56.4392,0.02119518269925373,0.19590025243617873,0.01,0.01,0.01,0.01,0.6011508496842588
71,Belfast,-5.93012,54.597280000000005,0.01,0.01,0.01,0.01,0.01,0.01,0.8908786451568182
72,Broadford,-5.9096592,57.24139,0.01,0.060254538211318584,0.01,0.01,0.01,0.01,0.5321353602093952
73,Down,-5.7156921999999994,54.32875,0.01,0.013351411614928796,0.01,0.01,0.01,0.01,0.7890464840018983
74,Kyle of Lochalsh,-5.7143293,57.28261,0.01612295609948009,0.05409875968565256,0.01,0.01,0.01,0.01,0.5311179602823698
75,Campbeltown,-5.605373999999999,55.424119999999995,0.03655685503491493,0.24610361252987387,0.01,0.01,0.01,0.01,0.5744587802923318
76,Penzance,-5.537592,50.1188,0.01,0.01,0.01,0.01,0.01,0.01,0.7900551313360764
77,Oban,-5.471047,56.41516,0.025639623873741,0.20647407485999253,0.01,0.01,0.01,0.01,0.6400553345479512
78,Lochgilphead,-5.4323449,56.03829,0.021313582478851165,0.2681376440784039,0.01,0.01,0.01,0.01,0.5391166032847712
79,Helston,-5.274996,50.10159,0.01,0.01,0.01,0.01,0.01,0.01,0.7435950526901002
80,Redruth,-5.226666000000001,50.23302,0.01,0.01,0.01,0.01,0.01,0.01,0.7619198263806061
81,Ullapool,-5.161313,57.895419999999994,0.057772721969432214,0.17702709846468545,0.01,0.01,0.01,0.01,0.577961029265319
82,Ballachulish,-5.133719999999999,56.673930000000006,0.026791021186384927,0.1435046504255232,0.01,0.01,0.01,0.01,0.47836220396826623
83,Fort William,-5.1052179,56.81981999999999,0.014410499275081777,0.08596054059555518,0.01,0.01,0.01,0.01,0.7034601023156873
84,Achnasheen,-5.078765799999999,57.578590000000005,0.056887716556403234,0.17431526601671143,0.01,0.01,0.01,0.01,0.44236969383151287
85,Newquay,-5.0737190000000005,50.4155,0.01,0.01,0.01,0.01,0.01,0.01,0.7843312198392952
86,Falmouth,-5.066269999999999,50.152570000000004,0.01,0.01,0.01,0.01,0.01,0.01,0.797013133476069
87,Rothesay,-5.055793,55.83596,0.022989671410691012,0.3075436691849875,0.01,0.01,0.01,0.01,0.5805321297849075
88,Truro,-5.051041000000001,50.2632,0.01,0.01,0.01,0.01,0.01,0.01,0.8516154795016211
89,Milford Haven,-5.0426971,51.71431,0.01,0.01,0.01,0.01,0.01,0.01,0.7363020363897567
90,Stranraer,-5.024055000000001,54.903369999999995,0.012155615869820072,0.11017732270066982,0.01,0.01,0.01,0.01,0.6783868636091405
91,Fishguard,-4.975989,51.99393,0.01,0.01,0.01,0.01,0.01,0.01,0.7002408168659037
92,Inchnadamph,-4.974295,58.15221,0.055314654011223034,0.17203932056082555,0.01,0.01,0.01,0.01,0.44458596066611283
93,Haverfordwest,-4.971319,51.800470000000004,0.01,0.01,0.01,0.01,0.01,0.01,0.7517845729294667
94,Dunoon,-4.926214,55.95097,0.02280706150073772,0.3094100865292157,0.01,0.01,0.01,0.01,0.5651879474645922
95,Pembroke,-4.908637000000001,51.674040000000005,0.01,0.01,0.01,0.01,0.01,0.01,0.791203845561227
96,Girvan,-4.8542179,55.240159999999996,0.08758526839105722,0.2871109985023536,0.01,0.01,0.01,0.01,0.5293699339918339
97,Wadebridge,-4.836456,50.51665,0.01,0.01,0.01,0.01,0.01,0.01,0.7545698079449517
98,Invergarry,-4.800261,57.07095,0.01,0.03357194592294703,0.01,0.01,0.01,0.01,0.5521787311897819
99,St Austell,-4.7834252,50.340379999999996,0.01,0.01,0.01,0.01,0.01,0.01,0.7677338655557435
100,Greenock,-4.7719830000000005,55.956480000000006,0.02398145529351149,0.30811321412024406,0.01,0.01,0.01,0.01,0.6364184941517302
101,Helensburgh,-4.734014,56.00232,0.020472816399332544,0.31070766700484354,0.01,0.01,0.01,0.01,0.5750579964108417
102,Bodmin,-4.7188629,50.4715,0.01,0.011250361105726747,0.01,0.01,0.01,0.01,0.7406070821324753
103,Tenby,-4.703579,51.672740000000005,0.01,0.01,0.01,0.01,0.01,0.01,0.7517961279682783
104,Camelford,-4.682364,50.62206,0.01,0.01,0.01,0.01,0.01,0.01,0.6977120284651901
105,Irvine,-4.6696364,55.61156999999999,0.0783033094263153,0.3051543769697858,0.01,0.01,0.01,0.01,0.613953068592048
106,Cardigan,-4.660864,52.0837,0.01,0.01,0.01,0.01,0.01,0.01,0.726163088101677
107,Holyhead,-4.633038,53.30944,0.01,0.01,0.01,0.01,0.01,0.01,0.7368904326685468
108,Ayr,-4.629179,55.45856,0.09370419635300646,0.2873634447657107,0.01,0.01,0.01,0.01,0.6251620054502053
109,Dumbarton,-4.564554,55.94529,0.021060298878267512,0.3009824987238978,0.01,0.01,0.01,0.01,0.6327674972643351
110,Bude,-4.543678,50.826640000000005,0.01,0.01,0.01,0.01,0.01,0.01,0.7534625793616369
111,Isle of Man,-4.5126330999999995,54.27697,0.01,0.04335231422022181,0.01,0.01,0.01,0.07294418630270154,0.7964065472077374
112,Kilmarnock,-4.498792,55.61472,0.09108082827048618,0.3039033511105775,0.01,0.01,0.01,0.01,0.5977445915567168
113,Newton Stewart,-4.483164,54.9603,0.0745502219718471,0.33563134760994545,0.01,0.01,0.01,0.01,0.4911444331340656
114,Liskeard,-4.4647190000000005,50.45552,0.01,0.018041576695098115,0.01,0.01,0.01,0.01,0.7472632298128603
115,Altnaharra,-4.442655,58.28023,0.1264827516579772,0.16861323198517525,0.01,0.01,0.01,0.01,0.3998022795387089
116,Pwllheli,-4.417633900000001,52.888819999999996,0.01,0.01,0.01,0.01,0.01,0.01,0.7235208546219164
117,Lairg,-4.402414,58.022059999999996,0.08225784181381414,0.17078176212635693,0.01,0.01,0.01,0.01,0.42760819682103623
118,Launceston,-4.360451599999999,50.636829999999996,0.01,0.0150961545932336,0.01,0.01,0.01,0.01,0.7362627993528089
119,Carmarthen,-4.312131,51.857620000000004,0.01,0.01,0.01,0.01,0.01,0.01,0.7874057096472181
120,Llangefni,-4.311401999999999,53.255790000000005,0.01,0.01,0.01,0.01,0.01,0.01,0.7756772924015892
121,Caernarfon,-4.273911,53.13955,0.01,0.01,0.01,0.01,0.01,0.01,0.7666454883755484
122,Cumnock,-4.265828900000001,55.45355,0.1060340078122263,0.2732963195280809,0.01,0.01,0.01,0.01,0.564841486060268
123,Aberaeron,-4.2581619,52.24279,0.01,0.01,0.01,0.01,0.01,0.01,0.7166381585909396
124,Alness,-4.256825,57.69595,0.07966616300071666,0.18397773257530478,0.01,0.01,0.01,0.01,0.6034872135582904
125,Glasgow,-4.251806,55.86424,0.03460625106014463,0.24101288325046236,0.01,0.01,0.01,0.01,0.7821339292563299
126,Dalwhinnie,-4.242783,56.9366,0.01,0.19463345911587465,0.01,0.01,0.01,0.01,0.4697185138741786
127,Inverness,-4.224721,57.47776999999999,0.06716371483830724,0.1891525577483429,0.01,0.01,0.01,0.01,0.6883961369829373
128,Saltash,-4.21643,50.409209999999995,0.01,0.018484463799479454,0.01,0.01,0.01,0.01,0.7366888144922584
129,Bideford,-4.206666,51.01668,0.01,0.01,0.01,0.01,0.01,0.01,0.762390934570465
130,Invergordon,-4.1728819999999995,57.688109999999995,0.07973801388104723,0.1841436619262309,0.01,0.01,0.01,0.01,0.6052866759312716
131,Llanelli,-4.160248,51.680890000000005,0.01,0.01,0.01,0.01,0.01,0.01719199051417715,0.8026210408226361
132,Plymouth,-4.1426565,50.37546,0.01,0.020046282758178498,0.01,0.01,0.01,0.01,0.8528950483399904
133,Tavistock,-4.141654,50.551120000000004,0.01,0.017255135214107042,0.01,0.01,0.01,0.01,0.7563570028069676
134,Porthmadog,-4.1333839999999995,52.92784,0.01,0.01,0.01,0.01,0.01,0.01,0.7512021572910671
135,Bangor,-4.129263,53.22739,0.01,0.01,0.01,0.01,0.01,0.01,0.8114237238925608
136,Tywyn,-4.087249,52.58701,0.01,0.01,0.01,0.01,0.01,0.01,0.6873325532665537
137,Aberystwyth,-4.08292,52.4153,0.01,0.01,0.01,0.01,0.01,0.01,0.8002263562252901
138,Lampeter,-4.0785089999999995,52.1129,0.01,0.01,0.01,0.01,0.01,0.01,0.7291383158439312
139,Barnstaple,-4.058338,51.07816,0.01,0.01,0.01,0.01,0.01,0.01,0.7977631280823013
140,Tain,-4.05523,57.8115,0.1674071477786357,0.1674810656522313,0.01,0.01,0.01,0.01,0.5079822633564363
141,Okehampton,-4.004263,50.73831,0.01,0.01,0.01,0.01,0.01,0.01,0.722503682672495
142,Llandeilo,-3.9914300000000003,51.88469,0.01,0.01,0.01,0.01,0.01,0.06429454566517354,0.7608906998783254
143,Motherwell,-3.9810968,55.78321,0.07724166107541694,0.23651970365842073,0.01,0.01,0.01,0.01,0.6761575732579225
144,Golspie,-3.976086,57.97341,0.1638086492804017,0.15965595941271205,0.01,0.01,0.01,0.01,0.3799837155909248
145,Airdrie,-3.9625660000000003,55.86626999999999,0.09343552714609275,0.22102021307106243,0.01,0.01,0.01,0.010465052375208006,0.6509298260172192
146,Swansea,-3.9436459999999998,51.62144,0.01,0.01,0.01,0.01,0.01,0.015286271834103412,0.866581993633183
147,Stirling,-3.9369029,56.116519999999994,0.026047248202887407,0.7902998137868738,0.01,0.01,0.01,0.01,0.41580442161667924
148,Tregaron,-3.934385,52.22,0.01,0.01,0.01,0.01,0.01,0.01,0.7261262095812976
149,Tregaron,-3.934385,52.22,0.01,0.01,0.01,0.01,0.01,0.01,0.7261262095812976
150,Castle Douglas,-3.9314139999999997,54.940419999999996,0.022246970929361853,0.32873205232776337,0.01,0.01,0.01,0.1213968832889714,0.5379298473220484
151,Dolgellau,-3.8844,52.74215,0.01,0.01,0.01,0.01,0.01,0.01,0.695032647697423
152,Aberfeldy,-3.866969,56.62175,0.07212513686074856,0.49989327299689085,0.01,0.01,0.01,0.01,0.447083959767901
153,Machynlleth,-3.853485,52.59027,0.01,0.01,0.01,0.01,0.01,0.01,0.7211626860727214
154,Brora,-3.8525480000000005,58.012159999999994,0.1743568703346155,0.16444510079249858,0.01,0.01,0.01,0.01,0.4843600310073682
155,Llandudno,-3.827609,53.324059999999996,0.01,0.01,0.01,0.01,0.01,0.01,0.7862831201495696
156,Llandudno,-3.827609,53.324059999999996,0.01,0.01,0.01,0.01,0.01,0.01,0.7862831201495696
157,Aviemore,-3.823812,57.19449,0.05128644600687858,0.13111305298712456,0.01,0.01,0.01,0.01,0.6352325144935987
158,Dalbeattie,-3.8225269999999996,54.934219999999996,0.0192791137213843,0.31364310526376904,0.01,0.01,0.01,0.11954764970925884,0.510268080611733
159,Falkirk,-3.7839131,56.00188000000001,0.02430883128072097,0.9028409149018728,0.01,0.01,0.01,0.01,0.35962321927901236
160,Kingsbridge,-3.777493,50.28395,0.01,0.01644637863407672,0.01,0.01,0.01,0.01,0.7434862182250963
161,Pitlochry,-3.729711,56.70436,0.046299417780252025,0.5696257292912446,0.01,0.01,0.01,0.01,0.38668882539724236
162,Colwyn Bay,-3.72764,53.29318000000001,0.01,0.01,0.01,0.01,0.01,0.01,0.7760594412552851
163,Totnes,-3.685797,50.43374,0.01,0.01,0.01,0.01,0.01,0.01,0.7535675188055744
164,Grantown-on-Spey,-3.609628,57.33041,0.33146289458292155,0.09242377313450215,0.01,0.01,0.01,0.01,0.42952043131178946
165,Dumfries,-3.60512,55.070859999999996,0.011566365390786074,0.1915280630656204,0.01,0.01,0.01,0.12252465867078542,0.6866871091343294
166,Whitehaven,-3.589233,54.5497,0.01,0.05578439115080219,0.01,0.01,0.01,0.21262679594775336,0.7329674556040819
167,Dartmouth,-3.578807,50.35252,0.01,0.01,0.01,0.01,0.01,0.01,0.7288051760029742
168,Bridgend,-3.576945,51.504290000000005,0.01,0.01,0.01,0.01,0.01,0.01,0.8273120750878679
169,Paignton,-3.564235,50.43508,0.01,0.01,0.01,0.01,0.01,0.01,0.8046399393977636
170,Workington,-3.5427519999999997,54.64357,0.01,0.23237615154716665,0.01,0.01,0.01,0.13576742486640694,0.6445675659178535
171,Llanidloes,-3.5401949999999998,52.447790000000005,0.01,0.01,0.01,0.01,0.01,0.01,0.7064971687623921
172,Exeter,-3.533899,50.71841,0.01,0.01,0.01,0.01,0.01,0.014618325703764187,0.8736658613199934
173,Torquay,-3.525315,50.46192,0.01,0.01,0.01,0.01,0.01,0.01,0.8080401360088859
174,Thurso,-3.5220800000000003,58.59356999999999,0.29770393384181026,0.1798779367445515,0.01,0.01,0.01,0.01,0.4534802818419967
175,Livingston,-3.518068,55.90071,0.01853685976639144,0.8064305462810997,0.01,0.01,0.01,0.01,0.4104827581159248
176,Rhyl,-3.4916339999999995,53.319140000000004,0.01,0.01,0.01,0.01,0.01,0.01,0.7759151671844998
177,Tiverton,-3.491207,50.90205,0.01,0.01,0.01,0.01,0.01,0.01,0.7641955366191252
178,Tiverton,-3.491207,50.90205,0.01,0.01,0.01,0.01,0.01,0.01,0.7641955366191252
179,Minehead,-3.481152,51.20428,0.01,0.01,0.01,0.01,0.01,0.01,0.7342582170142117
180,Dunfermline,-3.452151,56.071740000000005,0.026047267950538827,1.0,0.01,0.01,0.01,0.01,0.2992145811706791
181,Perth,-3.4308381000000003,56.39499,0.020953491712082387,0.8930672742898753,0.01,0.01,0.01,0.01,0.3003359395303152
182,Prestatyn,-3.4076129999999996,53.33651,0.01,0.01,0.01,0.01,0.6900806821843013,0.01,0.7552068066364591
183,Builth Wells,-3.4045919999999996,52.15002,0.011305833667497772,0.01,0.01,0.01,0.01,0.01,0.7365068704396608
184,Braemar,-3.3979439,57.00646999999999,0.06854148233346032,0.3446097611363999,0.01,0.01,0.01,0.01,0.34807733050586415
185,Brecon,-3.391463,51.94895,0.01,0.01,0.01,0.01,0.01,0.01,0.7651220595692334
186,Merthyr Tydfil,-3.381646,51.74873,0.01,0.01,0.01,0.01,0.01,0.01,0.8491605210206601
187,Llandrindod Wells,-3.377742,52.2417,0.012922692111083496,0.01,0.01,0.01,0.01,0.01,0.7186253330796059
188,Corwen,-3.369242,52.98005,0.01,0.01,0.01,0.01,0.01,0.01,0.6941124066066833
189,Cockermouth,-3.367985,54.66326,0.01,0.03453277612744572,0.01,0.01,0.01,0.11236239269997604,0.7153746385458439
190,Lockerbie,-3.349008,55.122240000000005,0.01,0.2028360197135914,0.01,0.01,0.01,0.09325289011960172,0.6694399137543172
191,Blairgowrie,-3.3378318,56.58941,0.31070180403334485,0.3048234833615961,0.01,0.01,0.01,0.01,0.3809143653408314
192,Elgin,-3.318485,57.64945,0.7773931576210236,0.08423652510429602,0.01,0.01,0.01,0.01,0.2629378564929523
193,Newtown,-3.313106,52.51211,0.01,0.01,0.01,0.01,0.01,0.01,0.713592049292532
194,Ruthin,-3.3103108,53.114869999999996,0.01,0.01,0.01,0.01,0.01,0.01,0.7511649202448756
195,Ruthin,-3.3103108,53.114869999999996,0.01,0.01,0.01,0.01,0.01,0.01,0.7511649202448756
196,Sidmouth,-3.2375599999999998,50.67865,0.01,0.01,0.01,0.01,0.01,0.014268980339932014,0.7512206309013454
197,Barrow-in-Furness,-3.2188939999999997,54.10896999999999,0.01,0.01,0.01,0.01,0.01,0.01,0.8006204967700637
198,Peebles,-3.1936419999999996,55.65306999999999,0.017304107702358473,0.7073223487932881,0.01,0.01,0.01,0.01,0.37652552864969957
199,Edinburgh,-3.1882669999999997,55.95325,0.015028975964283157,0.46396077187738377,0.01,0.01,0.17864213240930163,0.01,0.6680260419996442
200,Cardiff,-3.17909,51.48158,0.01,0.01,0.01,0.01,0.01,0.01,0.902985899156994
201,Llangollen,-3.1716599999999997,52.96921,0.01,0.01,0.01,0.01,0.01,0.01,0.7178388663596534
202,Kirkcaldy,-3.158137,56.11682,0.015347861351150578,0.63645233335212,0.01,0.01,0.17493532195834707,0.01,0.5070767198369962
203,Welshpool,-3.146407,52.66035,0.01,0.01,0.01,0.01,0.01,0.01,0.7516636299593976
204,Mold,-3.1419029999999997,53.1672,0.01,0.01,0.01,0.01,0.01,0.01,0.8024297169274383
205,Mold,-3.1419029999999997,53.1672,0.01,0.01,0.01,0.01,0.01,0.01,0.8024297169274383
206,Taunton,-3.106849,51.01534,0.01,0.01,0.01,0.01,0.01,0.01,0.815282920757704
207,Wick,-3.093716,58.43894,0.4315425122697019,0.17921206281493043,0.01,0.01,0.01,0.01,0.359380653599919
208,John o' Groats,-3.0688997000000002,58.63734,0.40484986597123435,0.16812707336810323,0.01,0.01,0.01,0.01,0.21785544042846383
209,Dalkeith,-3.066606,55.893119999999996,0.014613508581517163,0.5289562926267125,0.01,0.01,0.20042730975809733,0.01,0.5351086912098544
210,Oswestry,-3.056412,52.85715,0.01,0.01,0.01,0.01,0.01,0.01,0.7810889798012782
211,Blackpool,-3.0356748,53.81751,0.01,0.01,0.01,0.01,0.01,0.018654888179705457,0.851025151855409
212,Birkenhead,-3.023009,53.389990000000004,0.01,0.01,0.01,0.01,0.15601996960357797,0.01,0.8509211599036642
213,Cupar,-3.010137,56.32023,0.21148973252193148,0.5804084144550036,0.01,0.01,0.01,0.01,0.3089044071023254
214,Southport,-3.010113,53.64571,0.01,0.01,0.04166500894839215,0.01,0.01,0.01,0.8253545124652006
215,Bridgwater,-3.003632,51.12789,0.01,0.01,0.01,0.01,0.01,0.01,0.836596135407867
216,Langholm,-2.998913,55.153059999999996,0.01,0.196162076364806,0.01,0.01,0.01,0.050183225687685046,0.586387067049733
217,Newport,-2.997664,51.58415,0.01,0.01,0.01,0.01,0.01,0.01,0.8524521165822867
218,Axminster,-2.9949369999999997,50.78273,0.01,0.01,0.01,0.01,0.01,0.044437544245508255,0.7564736147326011
219,Wrexham,-2.9924939999999998,53.043040000000005,0.01,0.01,0.01,0.01,0.01,0.01,0.8238328991211518
220,Liverpool,-2.9915726,53.40837,0.01,0.01,0.01,0.01,0.01,0.01,0.9174398791540356
221,Weston-super-Mare,-2.977255,51.347409999999996,0.01,0.01,0.01,0.01,0.01,0.01,0.8206163425341243
222,Dundee,-2.9707209999999997,56.462019999999995,0.30810797120785827,0.26469942962375836,0.01,0.01,0.01,0.01,0.5195959853727995
223,Kirkwall,-2.9622491,58.984669999999994,0.4396019166602998,0.17227904993656226,0.01,0.01,0.01,0.01,0.36468408524227053
224,Ambleside,-2.961333,54.428740000000005,0.01,0.010001733663187911,0.01,0.01,0.01,0.014825389985348365,0.7811564459236895
225,Orkney Islands,-2.9605206,58.980940000000004,0.4401085039473801,0.17247758040974848,0.01,0.01,0.01,0.01,0.3680413136151077
226,Lyme Regis,-2.936639,50.725159999999995,0.01,0.01,0.01,0.01,0.01,0.06837904088106898,0.7415161794969127
227,Carlisle,-2.932931,54.892469999999996,0.01,0.04268984005351757,0.01,0.01,0.01,0.08738443105931822,0.8199520938697717
228,Chester,-2.893075,53.19339,0.01,0.01,0.01,0.01,0.01,0.01,0.8567065409996434
229,Forfar,-2.889062,56.64356,0.29886891890205947,0.2293388538997054,0.01,0.01,0.01,0.01,0.4581493289191692
230,Morecambe,-2.864968,54.074169999999995,0.01,0.010515267355741742,0.01,0.01,0.01,0.011689943579967813,0.7769255441245975
231,Selkirk,-2.838524,55.55066,0.017384139392186332,0.5249746624239631,0.01,0.01,0.01,0.01,0.4949084477532374
232,Galashiels,-2.814449,55.62373,0.017398562964013764,0.6288860864504471,0.01,0.01,0.01,0.01,0.43415028486257484
233,Lancaster,-2.8007399,54.046569999999996,0.01,0.010651935845814416,0.01,0.01,0.01,0.011841879584566319,0.8228751410363283
234,St Andrews,-2.7967214,56.339780000000005,0.235607586697703,0.4757785376112491,0.01,0.01,0.01,0.01,0.3900876879972713
235,Hawick,-2.780914,55.42706,0.011688777322364213,0.3153638180859793,0.01,0.01,0.01,0.018983070119315174,0.5819567195992228
236,Bridport,-2.758301,50.733579999999996,0.01,0.01,0.01,0.01,0.01,0.01,0.7528551003045929
237,Shrewsbury,-2.7553267999999997,52.7073,0.01,0.01,0.01,0.01,0.01,0.01,0.8494371630651406
238,Penrith,-2.752708,54.6641,0.01,0.017026662176488315,0.01,0.01,0.01,0.06057195522024468,0.813943871835048
239,Kendal,-2.74629,54.32801,0.01,0.01,0.01,0.01,0.01,0.01,0.8010998750191148
240,Street,-2.7429189999999997,51.12468,0.01,0.01,0.01,0.01,0.01,0.01,0.7255695321968408
241,Glastonbury,-2.718454,51.14743,0.01,0.01,0.01,0.01,0.01,0.01,0.7486574995957851
242,Hereford,-2.715974,52.0564,0.01,0.01,0.01,0.01,0.01,0.01,0.8238249816484977
243,Ludlow,-2.7139129,52.36775,0.01,0.01,0.01,0.01,0.01,0.01,0.7688640428002469
244,Preston,-2.70309,53.7632,0.01,0.01,0.01,0.01,0.01,0.01,0.875360858397877
245,Whitchurch,-2.682045,52.96872,0.01,0.01,0.01,0.01,0.01,0.01,0.746924367897948
246,Wells,-2.6445979,51.20935,0.013816625492349105,0.01,0.01,0.01,0.01,0.01,0.7611597528154334
247,Yeovil,-2.633308,50.94206,0.01,0.01,0.01,0.01,0.01,0.01,0.8017633316515272
248,Wigan,-2.6325074,53.54506,0.01,0.01,0.01,0.01,0.01,0.01,0.8844234677578113
249,Warrington,-2.5969501,53.39004,0.01,0.01,0.01,0.01,0.01,0.01,0.8873126556817709
250,Arbroath,-2.591543,56.55911,0.30019550924875343,0.20200787729079284,0.01,0.01,0.01,0.01,0.4834992444653874
251,Bristol,-2.58791,51.45451,0.01,0.01,0.01,0.1127364966766734,0.01,0.01,0.9109155532782693
252,Guernsey,-2.5852779999999997,49.46569,0.01,0.01,0.01,0.01,0.01,0.01,0.5650027096141294
253,Ross-on-Wye,-2.582446,51.91445,0.01,0.01,0.01,0.01,0.01,0.01,0.7915474364305366
254,Jedburgh,-2.5549369,55.47772,0.01629811272061136,0.2790896118745459,0.05909666488842324,0.01,0.01,0.29070073363000504,0.5495015763864514
255,Sedbergh,-2.5281740000000004,54.32363,0.01,0.01,0.01,0.01,0.01,0.01,0.7251523712397635
256,Sedbergh,-2.5281740000000004,54.32363,0.01,0.01,0.01,0.01,0.01,0.01,0.7251523712397635
257,Nantwich,-2.524102,53.067190000000004,0.01,0.01,0.01,0.01,0.01,0.01,0.7814666151451926
258,Banff,-2.524038,57.666509999999995,0.9747378504064427,0.07434230853648664,0.01,0.01,0.01,0.017026032234930252,0.05787742846065133
259,Dunbar,-2.516737,56.00209,0.02716320655976072,0.9697127088417389,0.01,0.01,0.01,0.01,0.28166146898720545
260,Cinderford,-2.5009579,51.8253,0.01,0.01,0.01,0.01,0.01,0.011424799938562807,0.7812532901190192
261,Banchory,-2.4909599,57.05386,0.2518541572082146,0.12347302617413777,0.01,0.01,0.01,0.01,0.5300505400275277
262,Blackburn,-2.487529,53.748580000000004,0.01,0.028861019359968754,0.01,0.01,0.01,0.01,0.830095009724732
263,Market Drayton,-2.483485,52.90355,0.01,0.01,0.01,0.01,0.01,0.01,0.7270391875203208
264,Telford,-2.4672611,52.67759,0.01,0.01,0.01,0.01,0.01,0.01,0.8304450334544144
265,Montrose,-2.4661150000000003,56.70692,0.2948552294320994,0.18889168367769138,0.01,0.01,0.01,0.01,0.4795463155936645
266,Turriff,-2.4623,57.53893000000001,0.8050564051603516,0.10398455157215085,0.01,0.01,0.01,0.01599089158770344,0.16068981609236868
267,Weymouth,-2.457621,50.61443,0.01,0.01,0.01,0.01,0.01,0.01,0.7933197784848475
268,Crewe,-2.4438209,53.10041,0.01,0.01,0.01,0.01,0.01,0.01,0.8201614149440436
269,Fortuneswell,-2.4422189999999997,50.55919,0.01,0.01,0.01,0.01,0.01,0.01,0.711085315222964
270,Dorchester,-2.4411810000000003,50.71116,0.01,0.01,0.01,0.01,0.01,0.01,0.8296591260840602
271,Alston,-2.438685,54.812169999999995,0.01,0.01272925378190813,0.04027540544751711,0.01,0.01,0.12191852828304081,0.6700650470750893
272,Kelso,-2.432207,55.600030000000004,0.016141239206010766,0.4453164321242717,0.01,0.01,0.01,0.1605611014838253,0.4986989038300353
273,Wincanton,-2.416007,51.055690000000006,0.01,0.01,0.01,0.01,0.01,0.01,0.7346623427578782
274,Clitheroe,-2.3930830000000003,53.8711,0.01,0.02740921985783873,0.01,0.01,0.01,0.02166836953743754,0.7731543802002113
275,Sark,-2.3666256000000003,49.43007,0.01,0.01,0.01,0.01,0.01,0.01,0.5672735412624679
276,Bath,-2.3590167,51.38106,0.01,0.01,0.01,0.01,0.01,0.01,0.8578104143063549
277,Kidderminster,-2.2496839,52.3886,0.01,0.01,0.01,0.01,0.01,0.01,0.8028261096564636
278,Manchester,-2.2426305,53.48076,0.01,0.01,0.01,0.01,0.01,0.01,0.9472168680091123
279,Burnley,-2.2405035,53.78929,0.01,0.01,0.01,0.01,0.01,0.024754552459799774,0.8300284519517269
280,Gloucester,-2.238156,51.86424,0.01,0.01,0.01,0.01,0.01,0.01,0.8580761139360626
281,Newcastle-under-Lyme,-2.2273002,53.01321,0.01,0.01,0.01,0.01,0.01,0.01,0.8039648881818748
282,Worcester,-2.221575,52.19364,0.01,0.01,0.01,0.01,0.01,0.01,0.8611064009760186
283,Trowbridge,-2.208853,51.31966,0.01,0.01,0.01,0.01,0.01,0.01,0.8524460190254128
284,Shaftesbury,-2.198083,51.0046,0.01,0.010024638855056204,0.01,0.01,0.01,0.01,0.7472476105033041
285,Alderney,-2.1973557,49.715,0.01,0.01,0.01,0.01,0.01,0.01,0.5680789179132517
286,Stoke-on-Trent,-2.179404,53.002669999999995,0.01,0.01,0.01,0.01,0.01,0.01,0.8561933159173646
287,Colne,-2.176991,53.85564,0.01,0.01,0.01,0.01,0.01,0.027767635085152363,0.778668542953802
288,Blandford Forum,-2.165353,50.85691,0.01,0.01,0.01,0.01,0.01,0.01,0.7308835239587949
289,Rochdale,-2.1561,53.60971,0.01,0.01,0.01,0.01,0.01,0.01,0.8570914097950816
290,Jersey,-2.13125,49.21444,0.01,0.01,0.01,0.01,0.01,0.01,0.5674272581377435
291,Wolverhampton,-2.12882,52.586969999999994,0.01,0.01,0.01,0.01,0.01,0.01,0.8472959264260349
292,Stafford,-2.12066,52.80669,0.01,0.01,0.01,0.01,0.01,0.01,0.8452309291069371
293,Macclesfield,-2.119287,53.25866,0.01,0.01,0.01,0.01,0.01,0.01,0.8357302128924032
294,Hexham,-2.1121439,54.97266,0.013932600416897672,0.017809245121646115,0.061044226276894945,0.7214510731443,0.01,0.768851167577853,0.7515198999249522
295,Aberdeen,-2.094278,57.149719999999995,0.3385039452669582,0.11590639907857468,0.01,0.01,0.01,0.01,0.5897400015870833
296,Dudley,-2.081112,52.51226,0.01,0.01,0.01,0.01,0.01,0.01,0.8397857061544708
297,Cheltenham,-2.0782533,51.899390000000004,0.01,0.01,0.01,0.01,0.01,0.01,0.8493177361991678
298,Bromsgrove,-2.061906,52.33559,0.01,0.01,0.01,0.01,0.01,0.01,0.8175423057694946
299,Skipton,-2.0162787,53.96285,0.01,0.01,0.01,0.01,0.01,0.04240469116868299,0.7731846479585475
300,Fraserburgh,-2.007631,57.69335,0.4796883966054095,0.1037868116570009,0.01,0.01,0.01,0.01,0.38058415079225794
301,Berwick,-2.005395,55.77024,0.01,0.3754188762165237,0.01,0.01,0.01,0.2900123246970034,0.5500232417179034
302,Poole,-1.987248,50.71505,0.01,0.01,0.01,0.01,0.01,0.01,0.8278694941245935
303,Walsall,-1.9829189999999999,52.586209999999994,0.01,0.01,0.01,0.01,0.01,0.01,0.8428569676480003
304,Cirencester,-1.968243,51.71849,0.01,0.01,0.01,0.01,0.01,0.01,0.8355674517001976
305,Evesham,-1.9467700000000001,52.09215,0.01,0.01,0.01,0.01,0.01,0.01,0.7885845803293944
306,Buxton,-1.91483,53.259080000000004,0.01,0.01,0.01,0.01,0.01,0.01,0.8077555899096612
307,Keighley,-1.9123580000000002,53.8678,0.01,0.01,0.01,0.01,0.01,0.01,0.8069987480611771
308,Birmingham,-1.8904009999999998,52.48624,0.01,0.01,0.01,0.01,0.01,0.01,0.9285090599117585
309,Bournemouth,-1.880769,50.719159999999995,0.01,0.01,0.01,0.01,0.01,0.01,0.8590323884829483
310,Halifax,-1.8575400000000002,53.727019999999996,0.01,0.017932336728187538,0.01,0.01,0.01,0.01,0.8009378423756278
311,Salisbury,-1.794472,51.06878,0.01,0.01,0.01,0.01,0.01,0.01,0.819715974501639
312,Ringwood,-1.7888169999999999,50.84495,0.01,0.01,0.01,0.01,0.01,0.01,0.7944140749633544
313,Huddersfield,-1.7850351000000002,53.645790000000005,0.01,0.01,0.01,0.01,0.01,0.01,0.8566221631888202
314,Peterhead,-1.784066,57.50812,0.4428576045082981,0.10724886955639135,0.01,0.01,0.01,0.01,0.4286172213464458
315,Swindon,-1.7797176,51.55577,0.01,0.01,0.01,0.01,0.01,0.01,0.8451169335322056
316,Bradford,-1.759398,53.79598000000001,0.01,0.01,0.01,0.01,0.01,0.01,0.8657588349034715
317,Ashbourne,-1.7321790000000001,53.016630000000006,0.01,0.01,0.01,0.01,0.01,0.01,0.8298276296882221
318,Marlborough,-1.7270619999999999,51.42007,0.01,0.01103426135503588,0.01,0.01,0.01,0.01,0.7736962742763136
319,Stratford-upon-Avon,-1.7082979999999999,52.19173,0.01,0.01,0.01,0.01,0.01,0.01,0.8143221239453923
320,Alnwick,-1.7062990000000002,55.41274,0.012318798787883655,0.018698867733358594,0.040480142812136556,0.01,0.01,1.0,0.6871061280533148
321,Otley,-1.691786,53.90583,0.01,0.01,0.01,0.01,0.01,0.01211765620698256,0.7745492376264794
322,Bishop Auckland,-1.6787880000000002,54.663819999999994,0.01,0.01,0.1498721194414569,0.01,0.01,0.0810144735075437,0.7754045988471223
323,Burton upon Trent,-1.6371358999999999,52.81403,0.01,0.01,0.01,0.01,0.01,0.01,0.8263841895489906
324,Newcastle,-1.61778,54.97825,0.010718111735285854,0.015428320192839176,0.01776875517310315,1.0,0.01,0.7925522647224648,0.8454777769855129
325,Durham,-1.5848520000000001,54.77525,0.01,0.01,0.16786023322257337,0.01,0.01,0.22180419561669015,0.821614485218457
326,Ashington,-1.5659829,55.18298000000001,0.011969910597540191,0.01136604940069229,0.01,0.01,0.01,0.9447666379654669,0.7152983581894853
327,Darlington,-1.559458,54.52361,0.01,0.01,0.0860342569482821,0.01,0.01,0.039065417014379863,0.8093656499927011
328,Leeds,-1.5490774,53.80076,0.01,0.01,0.012452690237110311,0.01,0.01,0.01,0.910607760159211
329,Harrogate,-1.5418120000000002,53.99211999999999,0.01,0.01,0.01,0.01,0.01,0.013809526429703583,0.8513281763918841
330,Leamington Spa,-1.5200789,52.28519,0.01,0.01,0.01,0.01,0.01,0.014391701616264478,0.8476057592244906
331,Coventry,-1.519693,52.40682,0.01,0.01,0.01,0.01,0.01,0.01,0.8687839852733191
332,Blyth,-1.510277,55.12696,0.034641291855108586,0.01,0.01,0.01,0.01,0.8227606778638887,0.7156928263398438
333,Wakefield,-1.505924,53.6833,0.01,0.01,0.01,0.01,0.01,0.01,0.8422485468076674
334,Andover,-1.4919233,51.2112,0.01,0.01,0.01,0.01,0.01,0.01,0.7977920398240401
335,Witney,-1.4850543999999999,51.785940000000004,0.01,0.01,0.01,0.01,0.01,0.012690793059082972,0.79856312168938
336,Barnsley,-1.479726,53.55263000000001,0.01,0.01,0.01,0.01,0.01,0.01,0.8390117763257708
337,Derby,-1.4746186000000001,52.92253,0.01,0.01,0.01,0.01,0.01,0.01,0.8640463671154605
338,Sheffield,-1.470085,53.381130000000006,0.01,0.01,0.01,0.01,0.01,0.01970190460037644,0.89911566806401
339,Nuneaton,-1.465382,52.52049,0.01,0.01,0.01,0.01,0.01,0.01,0.8410130748219444
340,Northallerton,-1.429959,54.337959999999995,0.01,0.01,0.01,0.01,0.01,0.02431052079347905,0.7630066434318105
341,South Shields,-1.427406,54.99941999999999,0.047910548499801524,0.01,0.8106438224594663,0.1714647504913198,0.01,0.4070255414600197,0.7444665252461454
342,Chesterfield,-1.421629,53.23505,0.01,0.01,0.01,0.01,0.01,0.01,0.8373733501804893
343,Southampton,-1.4043508999999998,50.9097,0.01,0.01,0.01,0.01,0.01,0.01,0.8926069540533045
344,Wetherby,-1.384816,53.92706,0.01,0.01,0.01,0.01,0.01,0.01,0.7642105738456676
345,Sunderland,-1.383801,54.90687,0.05233136194696416,0.01,1.0,0.1780564753981394,0.01,0.3640363510542254,0.7529216057534172
346,Rotherham,-1.3635008999999998,53.4326,0.01,0.01,0.01,0.01,0.01,0.01703172401777353,0.8394023015021664
347,Castleford,-1.345968,53.72346999999999,0.01,0.01,0.01,0.01,0.01,0.01,0.8153810493329966
348,Thirsk,-1.341377,54.23385,0.01,0.01,0.01,0.01,0.01,0.01,0.7532488583491787
349,Banbury,-1.339775,52.0629,0.01,0.014881069213220518,0.01,0.01,0.01,0.01,0.799849144356033
350,Stockton,-1.3289821000000002,54.57046,0.01,0.01,0.01,0.01,0.01,0.036630189123519,0.8191149610042631
351,Newbury,-1.3231138999999998,51.40141,0.01,0.01,0.01,0.01,0.01,0.01,0.8367673318468698
352,Isle of Wight,-1.304734,50.69385,0.01,0.027736075101573512,0.01,0.01,0.01,0.01,0.8139386430763643
353,Isle of Wight,-1.304734,50.69385,0.01,0.027736075101573512,0.01,0.01,0.01,0.01,0.8139386430763643
354,Abingdon,-1.2879528999999998,51.67078,0.01,0.01,0.01,0.01,0.01,0.011310158066604209,0.8063565442006727
355,Shetland Islands,-1.2659409,60.52965,1.0,0.056039868959181,0.01,0.01,0.01,0.01,0.01
356,Rugby,-1.265032,52.37088,0.01,0.01,0.01,0.01,0.01,0.025008187672712155,0.8278118317658476
357,Oxford,-1.2577263,51.75202,0.01,0.01,0.01,0.01,0.01,0.011828407365134063,0.8819509042019856
358,Middlesbrough,-1.234956,54.57423000000001,0.01,0.01,0.010710638790093355,0.01,0.01,0.034738286072909505,0.8503853198782485
359,Hartlepool,-1.212926,54.69174,0.01,0.01,0.05265399144016578,0.01,0.01,0.07172550285995007,0.8074043046506583
360,Loughborough,-1.206166,52.7721,0.01,0.01,0.01,0.01,0.01,0.01,0.8484705064966942
361,Mansfield,-1.198674,53.1472,0.01,0.01,0.01,0.01,0.01,0.01,0.8231005697001308
362,Nottingham,-1.1581086,52.95478000000001,0.01,0.01,0.01,0.01,0.01,0.01,0.8987718487102301
363,Bicester,-1.1535898999999998,51.8996,0.01,0.013663649729472312,0.01,0.01,0.01,0.01,0.7740854306146053
364,Leicester,-1.1397591999999999,52.636880000000005,0.01,0.01,0.01,0.01,0.01,0.025275702390462024,0.8799350641061475
365,Doncaster,-1.128462,53.522819999999996,0.01,0.01,0.01,0.01,0.01,0.01,0.8473229234945328
366,Worksop,-1.122745,53.3093,0.01,0.01,0.01,0.01,0.01,0.01,0.7890419048682373
367,Basingstoke,-1.0923964,51.26654,0.01,0.01,0.01,0.01,0.01,0.01,0.8264920496939947
368,Portsmouth,-1.0879769,50.81977,0.01,0.03343072543895611,0.01,0.01,0.01,0.01,0.8571467773041441
369,York,-1.0872979,53.95997,0.01,0.01,0.01,0.01,0.01,0.012870435803849684,0.8685002711647087
370,Selby,-1.067189,53.783519999999996,0.01,0.01,0.01,0.01,0.01,0.01,0.7832070657298624
371,Helmsley,-1.0562636,54.24651,0.01,0.01,0.01,0.01,0.01,0.047175504824942135,0.6799386491166759
372,Towcester,-0.9896879999999999,52.13511,0.01,0.01,0.01,0.01,0.01,0.01,0.7864732262332834
373,Reading,-0.9781303,51.45426,0.01,0.01,0.01,0.01,0.01,0.01,0.8692277871323495
374,Retford,-0.9455030000000001,53.32136,0.01,0.01,0.01,0.01,0.01,0.01,0.7598202763424359
375,Petersfield,-0.93899,51.00759,0.01,0.01,0.01,0.01,0.01,0.01,0.7681740434339451
376,Northampton,-0.9026559999999999,52.24048,0.01,0.01,0.01,0.01,0.01,0.01,0.8644989943054991
377,Melton Mowbray,-0.887126,52.7664,0.01,0.01,0.01,0.01,0.01,0.01,0.7835632426304965
378,Aylesbury,-0.8084,51.81561,0.01,0.01,0.01,0.01,0.01,0.01,0.8406271037728018
379,Newark-on-Trent,-0.80657,53.070040000000006,0.01,0.01,0.01,0.01,0.01,0.01,0.8221142484823207
380,Malton,-0.7978970000000001,54.13684,0.01,0.01,0.01,0.01,0.01,0.015041080331795678,0.7561583390721661
381,Chichester,-0.774936,50.83761,0.01,0.01,0.01,0.01,0.01,0.01,0.8058808493925503
382,Gainsborough,-0.774465,53.400580000000005,0.01,0.01,0.01,0.01,0.01,0.01,0.7594884836895901
383,Milton Keynes,-0.7594171,52.040620000000004,0.01,0.01,0.01,0.01,0.01,0.01,0.8625321904685168
384,Aldershot,-0.7557509,51.24837,0.01,0.01,0.01,0.01,0.01,0.01,0.8417601442583443
385,High Wycombe,-0.748229,51.628609999999995,0.01,0.01,0.01,0.01,0.01,0.01,0.8305549807130066
386,Midhurst,-0.737274,50.9869,0.01,0.01,0.01,0.01,0.01,0.01,0.7683396441607867
387,Kettering,-0.7302489999999999,52.39632,0.01,0.01,0.01,0.01,0.01,0.01,0.8155199850654619
388,Wellingborough,-0.693964,52.30242,0.01,0.01,0.01,0.01,0.01,0.01,0.7997088996112569
389,Corby,-0.6842333,52.4923,0.01,0.01,0.01,0.01,0.01,0.01,0.8086307893826674
390,Bognor Regis,-0.673061,50.783,0.01,0.01,0.01,0.01,0.01,0.01,0.8019960071429729
391,Scunthorpe,-0.654413,53.58865,0.01,0.01,0.01,0.01,0.01,0.01,0.8152806719646264
392,Grantham,-0.643582,52.912519999999994,0.01,0.01,0.01,0.01,0.01,0.01,0.7985904250762735
393,Whitby,-0.613347,54.48633,0.01,0.01,0.01,0.01,0.01,0.021356173217869104,0.7696233621516054
394,Slough,-0.5950406,51.51054,0.01,0.013937594822627297,0.01,0.01,0.01,0.01,0.8413486583583235
395,Guildford,-0.570409,51.23622,0.01,0.01,0.01,0.01,0.01,0.01,0.837592597349063
396,Woking,-0.5600349,51.31677,0.01,0.01,0.01,0.01,0.01,0.01,0.8660358534958459
397,Lincoln,-0.540579,53.23069,0.01,0.01,0.01,0.01,0.01,0.01,0.8543430090259809
398,Bedford,-0.46677820000000003,52.13864,0.01,0.01,0.01,0.01,0.01,0.01,0.8443898768538123
399,Heathrow,-0.4542955,51.47002,0.01,0.01,0.01,0.01,0.01,0.01,0.8812737124199145
400,Driffield,-0.443377,54.006,0.01,0.01,0.01,0.01,0.01,0.01,0.7446090650407348
401,Beverley,-0.435093,53.84196,0.01,0.01,0.01,0.01,0.01,0.01,0.8139857176933055
402,Luton,-0.4200255,51.87867,0.01,0.01,0.01,0.01,0.01,0.01,0.8505068126660865
403,Scarborough,-0.399752,54.28311,0.01,0.01,0.01,0.01,0.01,0.01,0.8093580918643368
404,Worthing,-0.372882,50.81787,0.01,0.01,0.01,0.01,0.01,0.01,0.8439249101867644
405,Dorking,-0.332378,51.2322,0.01,0.01,0.01,0.01,0.01,0.01,0.8330990086881522
406,Hull,-0.3274198,53.767619999999994,0.01,0.01,0.01,0.01,0.01,0.01,0.8708376543937141
407,Horsham,-0.325858,51.06288,0.01,0.01,0.01,0.01,0.01,0.01,0.8033835181120395
408,Biggleswade,-0.26421999999999995,52.086940000000006,0.01,0.026594250229795963,0.01,0.01,0.01,0.01,0.7639741552569899
409,Peterborough,-0.2405299,52.5695,0.01,0.01,0.01,0.01,0.01,0.01,0.8467788816893558
410,Welwyn Garden City,-0.208661,51.80317,0.01,0.01,0.01,0.01,0.01,0.01,0.8867441777621264
411,Bridlington,-0.198802,54.08535,0.01,0.01,0.01,0.01,0.01,0.01,0.7689885549211032
412,Stevenage,-0.19661199999999998,51.90376,0.01,0.01,0.01,0.01,0.01,0.01,0.828426042034657
413,Crawley,-0.18722750000000002,51.109140000000004,0.01,0.01,0.01,0.01,0.01,0.01,0.8292589711111694
414,Huntingdon,-0.182552,52.33146,0.01,0.01,0.01,0.01,0.01,0.01,0.7781408320463733
415,Hove,-0.168749,50.82793,0.01,0.01,0.01,0.01,0.01,0.012291146341793192,0.8117923070441095
416,Spalding,-0.1537024,52.7901,0.01,0.01,0.01,0.01,0.01,0.01,0.7861098204995388
417,Brighton,-0.137163,50.82253,0.01,0.01,0.01,0.01,0.01,0.012726244326071449,0.8915767268125282
418,London,-0.12775830000000002,51.50735,0.01,0.01,0.01,0.03696649886498177,0.01,0.01,1.0
419,Grimsby,-0.08078400000000001,53.56746999999999,0.01,0.01,0.01,0.01,0.01,0.01,0.8239018188425347
420,Boston,-0.026576999999999996,52.97894,0.01,0.010996685873632662,0.01,0.01,0.01,0.03260037907456482,0.8175462032468986
421,Royston,-0.024066,52.048140000000004,0.01,0.04158341995406992,0.01,0.01,0.01,0.01,0.7392491122450309
422,Louth_Lincs,-0.007711,53.36596,0.01,0.01,0.01,0.01,0.01,0.016956880200924115,0.7689116807897975
423,Lewes,0.00878,50.873870000000004,0.01,0.01,0.01,0.01,0.01,0.012836134680381887,0.8014932495664208
424,Chatteris,0.054012,52.4561,0.01,0.01,0.01,0.01,0.01,0.01,0.7241855789422383
425,Uckfield,0.095913,50.966409999999996,0.01,0.017129296550489635,0.01,0.01,0.01,0.01,0.8026675473752678
426,Cambridge,0.12181700000000001,52.20534,0.01,0.01,0.01,0.01,0.01,0.012361367242819738,0.885120877899738
427,Bishop's Stortford,0.15365020000000001,51.87216,0.01,0.01,0.01,0.01,0.01,0.01,0.8213597933013029
428,Wisbech,0.158797,52.66631999999999,0.01,0.01,0.01,0.01,0.01,0.01,0.7535610278615364
429,Sevenoaks,0.190898,51.27241,0.01,0.01,0.01,0.01,0.01,0.01,0.8417790595311804
430,Tunbridge Wells,0.26369499999999996,51.13238,0.01,0.02141351528934002,0.01,0.01,0.01,0.01,0.8204346890968526
431,Eastbourne,0.29047199999999995,50.768029999999996,0.01,0.011027183523577795,0.01,0.01,0.01,0.0170560647507318,0.8136539794939606
432,Brentwood,0.30717490000000003,51.620470000000005,0.01,0.01,0.01,0.01,0.01,0.01,0.8975152562002331
433,Skegness,0.337881,53.1464,0.01,0.01,0.01,0.01,0.01,0.02778350559438904,0.760414073983033
434,Downham Market,0.385472,52.606609999999996,0.01,0.01,0.01,0.01,0.01,0.01,0.7337420897468064
435,King's Lynn,0.4022963,52.75168000000001,0.01,0.01,0.01,0.01,0.01,0.01,0.7979508037116496
436,Bexhill,0.4662071,50.849909999999994,0.01,0.012486740803280064,0.01,0.01,0.01,0.01,0.7671258614565395
437,Chelmsford,0.4685497,51.73559,0.01,0.01,0.01,0.01,0.01,0.01,0.820564571105344
438,Mildenhall,0.5156095,52.347570000000005,0.01,0.01,0.01,0.01,0.01,0.01,0.7924626839681901
439,Medway,0.5417860999999999,51.404740000000004,0.01,0.01,0.01,0.01,0.01,0.01,0.8139977991974475
440,Braintree,0.5509269,51.88009,0.01,0.01,0.01,0.01,0.01,0.01,0.7948558169086101
441,Gillingham,0.551438,51.38632,0.01,0.01,0.01,0.01,0.01,0.01,0.8753219143990423
442,Hastings,0.573453,50.85426,0.01,0.014185000269722699,0.01,0.01,0.01,0.01,0.8042888623540719
443,Maldon,0.6714479999999999,51.731809999999996,0.01,0.01,0.01,0.01,0.01,0.01,0.7978736554708353
444,Southend,0.7077123000000001,51.54593,0.01,0.01,0.01,0.01,0.01,0.01,0.8424212213169573
445,Bury St Edmunds,0.7104931999999999,52.24292,0.01,0.01,0.01,0.01,0.01,0.01,0.8451328913519751
446,Thetford,0.751657,52.412859999999995,0.01,0.01,0.01,0.01,0.01,0.01,0.7666743170828273
447,Ashford,0.8750190000000001,51.14647,0.01,0.01,0.01,0.01,0.9855751219009723,0.01,0.804689370862906
448,Faversham,0.889358,51.31599,0.01,0.01,0.01,0.01,0.9033025689170247,0.01,0.7956812518237685
449,Colchester,0.891874,51.89593,0.01,0.01,0.01,0.01,0.01,0.01,0.8432620329965486
450,New Romney,0.939473,50.98512,0.01,0.01,0.01,0.01,0.01,0.01,0.7401541299419282
451,Canterbury,1.0789089,51.280229999999996,0.01,0.01,0.01,0.01,1.0,0.01,0.8368448501879678
452,Ipswich,1.14822,52.056740000000005,0.01,0.01,0.01,0.01,0.01,0.01,0.8461508038753164
453,Clacton,1.153035,51.78953,0.01,0.01,0.01,0.01,0.01,0.01,0.768206224139462
454,Folkestone,1.169456,51.0814,0.01,0.01,0.01,0.01,0.915286354609849,0.01,0.7980666836642167
455,Sheringham,1.2109589,52.944419999999994,0.01,0.01,0.01,0.01,0.01,0.01,0.7208253182145757
456,Harwich,1.260297,51.93473,0.01,0.01,0.01,0.01,0.01,0.01,0.7371925054877707
457,Norwich,1.297355,52.63089,0.01,0.01,0.01,0.01,0.01,0.01,0.8775756555663601
458,Cromer,1.301866,52.93145,0.01,0.01,0.01,0.01,0.01,0.01,0.7609340711130247
459,Cromer,1.301866,52.93145,0.01,0.01,0.01,0.01,0.01,0.01,0.7609340711130247
460,Dover,1.3134027,51.12788,0.01,0.01,0.01,0.01,0.6703239629045663,0.01,0.7829805838884861
461,Felixstowe,1.3512549999999999,51.961729999999996,0.01,0.01,0.01,0.01,0.01,0.01,0.7708803041269572
462,Margate,1.3868339,51.38965,0.01,0.01,0.01,0.01,0.7143363532971155,0.01,0.796504679901128
463,Ramsgate,1.4198950000000001,51.33555,0.01,0.01,0.01,0.01,0.688749329930374,0.01,0.794779635000291
464,Great Yarmouth,1.728047,52.59823000000001,0.01,0.01,0.01,0.01,0.01,0.01,0.7989187651167151
465,Lowestoft,1.7534490000000003,52.48114,0.01,0.01,0.01,0.01,0.01,0.01,0.8058974725857696
466,Swaffham,0.687481,52.64747,0.01,0.01,0.01,0.01,0.01,0.01,0.7319037061827645
467,Dereham,0.9378270000000001,52.681619999999995,0.01,0.01,0.01,0.01,0.01,0.01,0.8380853343672113
468,Ely,0.262363,52.39954,0.01,0.01,0.01,0.01,0.01,0.01,0.7802961468632237
469,March,0.088622,52.551719999999996,0.01,0.01,0.01,0.01,0.01,0.01,0.744814599976643
470,St Neots,-0.26510300000000003,52.23008,0.01,0.01,0.01,0.01,0.01,0.01,0.765726175977773
471,Banham,1.0402849,52.45125,0.01,0.01,0.01,0.01,0.01,0.01,0.7772382065186508
472,Holt,1.086747,52.90936,0.01,0.01,0.01,0.01,0.01,0.01,0.7609374586755306
473,Hunstanton,0.49103199999999997,52.93891,0.01,0.01,0.01,0.01,0.01,0.01,0.705213159939963
474,Horncastle,-0.11245,53.20731,0.01,0.01,0.01,0.01,0.01,0.015388045413951817,0.7354053769679817
475,Market Weighton,-0.6677465,53.86484,0.01,0.01,0.01,0.01,0.01,0.01,0.7320941992384028
476,Hawes,-2.1968695,54.303830000000005,0.01,0.01231972904948538,0.01,0.01,0.01,0.01,0.5630595786471586
477,Reeth,-1.9428115000000001,54.38946,0.01,0.012042059355952234,0.01,0.01,0.01,0.021419673042676973,0.7494030880820262
478,Aysgarth,-1.9967433999999997,54.29159,0.01,0.013203262469987936,0.01,0.01,0.01,0.01,0.6735562789116846
479,Stanhope,-2.011302,54.74946,0.014390434102409463,0.011496542303916005,0.22067561783446632,0.01,0.01,0.4294361649551094,0.7549975924924438
480,Keswick,-3.134706,54.60128,0.01,0.018357115564411466,0.01,0.01,0.01,0.14842048271617672,0.7168301004182367
481,Oxenholme,-2.7243327999999996,54.30134,0.01,0.01,0.01,0.01,0.01,0.01,0.7004373975710756
