placename,dinna,dinnae,dinnit,divna,divnae,divnt,dont,longitude,latitude
Dingle,0.00020289920,0.00588407692,0.000000000000,0.00000000000,0.00000000000,0.00000000000,0.9939130,-10.2640135,52.14094
Tralee,0.00020360148,0.00590444304,0.000000000000,0.00000000000,0.00000000000,0.00000000000,0.9938920, -9.6999325,52.27131
Killarney,0.00041664738,0.00588514421,0.000000000000,0.00000000000,0.00000000000,0.00000000000,0.9936982, -9.5044265,52.05994
Bantry,0.00041517703,0.00607196402,0.000000000000,0.00000000000,0.00000000000,0.00000000000,0.9935129, -9.4539805,51.68035
Mayo,0.00013941687,0.00334600478,0.000000000000,0.00000000000,0.00000000000,0.00000000000,0.9965146, -9.4289369,54.01526
Ballycastle,0.00012745131,0.00407844204,0.000000000000,0.00000000000,0.00000000000,0.00000000000,0.9957941, -9.3724643,54.27967
Abbeyfeale,0.00014350405,0.00552490593,0.000000000000,0.00000000000,0.00000000000,0.00000000000,0.9943316, -9.2970823,52.38618
Ennistymon,0.00000000000,0.00397053875,0.000000000000,0.00000000000,0.00000000000,0.00000000000,0.9960295, -9.2934951,52.94037
Galway,0.00000000000,0.00334331526,0.000000000000,0.00000000000,0.00000000000,0.00000000000,0.9966567, -9.0567905,53.27067
Claremorris,0.00000000000,0.00297986111,0.000000000000,0.00000000000,0.00000000000,0.00000000000,0.9970201, -9.0017356,53.72388
Clare,0.00000000000,0.00413473248,0.000000000000,0.00000000000,0.00000000000,0.00000000000,0.9958653, -8.9811351,52.90453
Adare,0.00000000000,0.00523245140,0.000000000000,0.00000000000,0.00000000000,0.00000000000,0.9947675, -8.7925892,52.56363
Charleville,0.00035726336,0.00598416132,0.000000000000,0.00000000000,0.00000000000,0.00000000000,0.9936586, -8.6810176,52.36206
Mallow,0.00033677278,0.00580933048,0.000000000000,0.00000000000,0.00000000000,0.00000000000,0.9938539, -8.6539164,52.13898
Limerick,0.00000000000,0.00538156054,0.000000000000,0.00000000000,0.00000000000,0.00000000000,0.9946184, -8.6267343,52.66384
Loughrea,0.00000000000,0.00320454595,0.000000000000,0.00000000000,0.00000000000,0.00000000000,0.9967955, -8.5660931,53.19891
Sligo,0.00018973583,0.00550233917,0.000000000000,0.00000000000,0.00000000000,0.00000000000,0.9943079, -8.4760888,54.27661
Cork,0.00047089355,0.00626288417,0.000000000000,0.00000000000,0.00000000000,0.00000000000,0.9932662, -8.4756035,51.89851
Nenagh,0.00035778886,0.00420401916,0.000000000000,0.00000000000,0.00000000000,0.00000000000,0.9954382, -8.1983400,52.86350
Roscommon,0.00000000000,0.00335329341,0.000000000000,0.00000000000,0.00000000000,0.00000000000,0.9966467, -8.1890955,53.62759
Tipperary,0.00020081665,0.00612490796,0.000000000000,0.00000000000,0.00000000000,0.00000000000,0.9936743, -8.1618514,52.47379
Donegal,0.00014292549,0.00557409428,0.000000000000,0.00000000000,0.00000000000,0.00000000000,0.9942830, -8.1096143,54.65383
Leitrim,0.00021496197,0.00601893508,0.000000000000,0.00000000000,0.00000000000,0.00000000000,0.9937661, -8.0020132,54.12469
Athlone,0.00059790732,0.00298953662,0.000000000000,0.00000000000,0.00000000000,0.00000000000,0.9964126, -7.9406898,53.42393
Longford,0.00000000000,0.00286408610,0.000000000000,0.00000000000,0.00000000000,0.00000000000,0.9971359, -7.7932573,53.72763
Offaly,0.00046022152,0.00299143988,0.000000000000,0.00000000000,0.00000000000,0.00000000000,0.9965483, -7.7122229,53.23569
Fermanagh,0.00018963389,0.00455121334,0.000000000000,0.00000000000,0.00000000000,0.00000000000,0.9952592, -7.6318728,54.34383
Enniskillen,0.00018963389,0.00455121334,0.000000000000,0.00000000000,0.00000000000,0.00000000000,0.9952592, -7.6315336,54.34382
Doon,0.00024398263,0.00512363529,0.000000000000,0.00000000000,0.00000000000,0.00000000000,0.9946324, -7.6096400,54.18593
Westmeath,0.00000000000,0.00213954132,0.000000000000,0.00000000000,0.00000000000,0.00000000000,0.9978605, -7.4653217,53.53453
Strabane,0.00016653014,0.00582855484,0.000000000000,0.00000000000,0.00000000000,0.00000000000,0.9940049, -7.4633103,54.82739
Balivanich,0.00185271826,0.01080752316,0.000000000000,0.00000000000,0.00000000000,0.00000000000,0.9873398, -7.3743509,57.47227
Cavan,0.00000000000,0.00334661132,0.000000000000,0.00000000000,0.00000000000,0.00000000000,0.9966534, -7.3633319,53.98972
Mullingar,0.00000000000,0.00214705831,0.000000000000,0.00000000000,0.00000000000,0.00000000000,0.9978529, -7.3401868,53.52582
Laois,0.00033949389,0.00152772251,0.000000000000,0.00000000000,0.00000000000,0.00000000000,0.9981328, -7.3323007,52.99430
Omagh,0.00000000000,0.00385976011,0.000000000000,0.00000000000,0.00000000000,0.00000000000,0.9961402, -7.3099597,54.59771
Derry,0.00000000000,0.00581322805,0.000000000000,0.00000000000,0.00000000000,0.00000000000,0.9941868, -7.3085748,54.99661
Derry,0.00000000000,0.00581322805,0.000000000000,0.00000000000,0.00000000000,0.00000000000,0.9941868, -7.3085748,54.99661
Kilkenny,0.00041997200,0.00167988801,0.000000000000,0.00000000000,0.00000000000,0.00000000000,0.9979001, -7.2447879,52.65415
Tyrone,0.00000000000,0.00304028176,0.000000000000,0.00000000000,0.00000000000,0.00000000000,0.9969597, -7.1312320,54.49121
Waterford,0.00018386108,0.00330949949,0.000000000000,0.00000000000,0.00000000000,0.00000000000,0.9965066, -7.1100702,52.25932
Western Isles,0.00264537010,0.01025080914,0.000000000000,0.00000000000,0.00000000000,0.00000000000,0.9871038, -7.0194034,57.75989
Monaghan,0.00000000000,0.00374127379,0.000000000000,0.00000000000,0.00000000000,0.00000000000,0.9962587, -6.9683132,54.24920
Carlow,0.00033903349,0.00186468420,0.000000000000,0.00000000000,0.00000000000,0.00000000000,0.9977963, -6.9341359,52.83651
Kildare,0.00000000000,0.00200835394,0.000000000000,0.00000000000,0.00000000000,0.00000000000,0.9979916, -6.8194708,53.21204
Dungannon,0.00000000000,0.00086822304,0.000000000000,0.00000000000,0.00000000000,0.00000000000,0.9991318, -6.7669352,54.50827
Cookstown,0.00000000000,0.00260999254,0.000000000000,0.00000000000,0.00000000000,0.00000000000,0.9973900, -6.7443895,54.64182
Coleraine,0.00000000000,0.00624816231,0.000000000000,0.00000000000,0.00000000000,0.00000000000,0.9937518, -6.6646103,55.13258
Meath,0.00000000000,0.00475809613,0.000000000000,0.00000000000,0.00000000000,0.00000000000,0.9952419, -6.6564169,53.60555
Armagh,0.00000000000,0.00209961507,0.000000000000,0.00000000000,0.00000000000,0.00000000000,0.9979004, -6.6527920,54.35028
Armagh,0.00000000000,0.00209961507,0.000000000000,0.00000000000,0.00000000000,0.00000000000,0.9979004, -6.6527920,54.35028
Magherafelt,0.00030355155,0.00333906708,0.000000000000,0.00000000000,0.00000000000,0.00000000000,0.9963574, -6.6079805,54.75537
Dunvegan,0.00185271826,0.01080752316,0.000000000000,0.00000000000,0.00000000000,0.00000000000,0.9873398, -6.5813982,57.43660
Louth,0.00000000000,0.00450489663,0.000000000000,0.00000000000,0.00000000000,0.00000000000,0.9954951, -6.4889423,53.92523
Wexford,0.00000000000,0.00201346786,0.000000000000,0.00000000000,0.00000000000,0.00000000000,0.9979865, -6.4633381,52.33692
Craigavon,0.00000000000,0.00115340254,0.000000000000,0.00000000000,0.00000000000,0.00000000000,0.9988466, -6.4175653,54.44293
Stornoway,0.01136345294,0.03298952432,0.000000000000,0.00000000000,0.00000000000,0.00021306474,0.9554340, -6.3848692,58.20943
Drogheda,0.00000000000,0.00504469079,0.000000000000,0.00000000000,0.00000000000,0.00000000000,0.9949553, -6.3560985,53.71786
Rosslare,0.00018613116,0.00279196741,0.000000000000,0.00000000000,0.00000000000,0.00000000000,0.9970219, -6.3414908,52.25131
Newry,0.00000000000,0.00407159216,0.000000000000,0.00000000000,0.00000000000,0.00000000000,0.9959284, -6.3402300,54.17510
Scilly Isles,0.00000000000,0.00063352955,0.000000000000,0.00000000000,0.00000000000,0.00000000000,0.9993665, -6.3274966,49.92773
Ballymena,0.00037897928,0.01061141991,0.000000000000,0.00000000000,0.00000000000,0.00000000000,0.9890096, -6.2802213,54.86529
Banbridge,0.00000000000,0.00230743874,0.000000000000,0.00000000000,0.00000000000,0.00000000000,0.9976926, -6.2704803,54.34873
Dublin,0.00002959062,0.00399473418,0.000000000000,0.00000000000,0.00000000000,0.00000000000,0.9959757, -6.2603097,53.34981
Antrim,0.00044563280,0.00490196078,0.000000000000,0.00000000000,0.00000000000,0.00000000000,0.9946524, -6.2072498,54.71953
Antrim,0.00044563280,0.00490196078,0.000000000000,0.00000000000,0.00000000000,0.00000000000,0.9946524, -6.2072498,54.71953
Portree,0.00283910654,0.01100153785,0.000000000000,0.00000000000,0.00000000000,0.00000000000,0.9861594, -6.1960231,57.41247
Islay,0.00403598139,0.03139096633,0.000000000000,0.00000000000,0.00000000000,0.00000000000,0.9645731, -6.1770670,55.73625
Wicklow,0.00000000000,0.00233971339,0.000000000000,0.00000000000,0.00000000000,0.00000000000,0.9976603, -6.0445890,52.98082
Kilkeel,0.00000000000,0.00477622501,0.000000000000,0.00000000000,0.00000000000,0.00000000000,0.9952238, -6.0070040,54.06312
Mull,0.00424973377,0.03072884420,0.000000000000,0.00000000000,0.00000000000,0.00000000000,0.9650214, -6.0008870,56.43920
Belfast,0.00048453134,0.00092868506,0.000000000000,0.00000000000,0.00000000000,0.00000000000,0.9985868, -5.9301200,54.59728
Broadford,0.00204701942,0.00989392718,0.000000000000,0.00000000000,0.00000000000,0.00000000000,0.9880591, -5.9096592,57.24139
Down,0.00000000000,0.00204384987,0.000000000000,0.00000000000,0.00000000000,0.00000000000,0.9979562, -5.7156922,54.32875
Kyle of Lochalsh,0.00338405138,0.00888313486,0.000000000000,0.00000000000,0.00000000000,0.00000000000,0.9877328, -5.7143293,57.28261
Campbeltown,0.00730952244,0.03849681821,0.000000000000,0.00000000000,0.00000000000,0.00000000000,0.9541937, -5.6053740,55.42412
Penzance,0.00000000000,0.00064076892,0.000000000000,0.00000000000,0.00000000000,0.00000000000,0.9993592, -5.5375920,50.11880
Oban,0.00506754163,0.03192551226,0.000000000000,0.00000000000,0.00000000000,0.00000000000,0.9630069, -5.4710470,56.41516
Lochgilphead,0.00430642220,0.04238426061,0.000000000000,0.00000000000,0.00000000000,0.00000000000,0.9533093, -5.4323449,56.03829
Helston,0.00000000000,0.00063943730,0.000000000000,0.00000000000,0.00000000000,0.00000000000,0.9993606, -5.2749960,50.10159
Redruth,0.00000000000,0.00064396684,0.000000000000,0.00000000000,0.00000000000,0.00000000000,0.9993560, -5.2266660,50.23302
Ullapool,0.01161353663,0.02783992659,0.000000000000,0.00000000000,0.00000000000,0.00016280659,0.9603837, -5.1613130,57.89542
Ballachulish,0.00562317429,0.02356377799,0.000000000000,0.00000000000,0.00000000000,0.00000000000,0.9708130, -5.1337200,56.67393
Fort William,0.00285302594,0.01331412104,0.000000000000,0.00000000000,0.00000000000,0.00000000000,0.9838329, -5.1052179,56.81982
Achnasheen,0.01194017738,0.02862294857,0.000000000000,0.00000000000,0.00000000000,0.00016738566,0.9592695, -5.0787658,57.57859
Newquay,0.00000000000,0.00099094387,0.000000000000,0.00000000000,0.00000000000,0.00000000000,0.9990091, -5.0737190,50.41550
Falmouth,0.00000000000,0.00095155023,0.000000000000,0.00000000000,0.00000000000,0.00000000000,0.9990484, -5.0662700,50.15257
Rothesay,0.00455688246,0.04769013199,0.000000000000,0.00000000000,0.00000000000,0.00000000000,0.9477530, -5.0557930,55.83596
Truro,0.00000000000,0.00096274704,0.000000000000,0.00000000000,0.00000000000,0.00000000000,0.9990373, -5.0510410,50.26320
Milford Haven,0.00031492757,0.00000000000,0.000000000000,0.00000000000,0.00000000000,0.00000000000,0.9996851, -5.0426971,51.71431
Stranraer,0.00241694498,0.01713833714,0.000000000000,0.00000000000,0.00000000000,0.00000000000,0.9804447, -5.0240550,54.90337
Fishguard,0.00031451486,0.00000000000,0.000000000000,0.00000000000,0.00000000000,0.00000000000,0.9996855, -4.9759890,51.99393
Inchnadamph,0.01161000688,0.02824923334,0.000000000000,0.00000000000,0.00000000000,0.00016050701,0.9599803, -4.9742950,58.15221
Haverfordwest,0.00031279324,0.00000000000,0.000000000000,0.00000000000,0.00000000000,0.00000000000,0.9996872, -4.9713190,51.80047
Dunoon,0.00454063872,0.04819131224,0.000000000000,0.00000000000,0.00000000000,0.00000000000,0.9472680, -4.9262140,55.95097
Pembroke,0.00030699959,0.00000000000,0.000000000000,0.00000000000,0.00000000000,0.00000000000,0.9996930, -4.9086370,51.67404
Girvan,0.01746299995,0.04478414503,0.000000000000,0.00000000000,0.00000000000,0.00000000000,0.9377529, -4.8542179,55.24016
Wadebridge,0.00000000000,0.00107575078,0.000000000000,0.00000000000,0.00000000000,0.00000000000,0.9989242, -4.8364560,50.51665
Invergarry,0.00000000000,0.00551258707,0.000000000000,0.00000000000,0.00000000000,0.00000000000,0.9944874, -4.8002610,57.07095
St Austell,0.00000000000,0.00099318564,0.000000000000,0.00000000000,0.00000000000,0.00000000000,0.9990068, -4.7834252,50.34038
Greenock,0.00467303717,0.04697001468,0.000000000000,0.00000000000,0.00000000000,0.00000000000,0.9483569, -4.7719830,55.95648
Helensburgh,0.00406477837,0.04826117814,0.000000000000,0.00000000000,0.00000000000,0.00000000000,0.9476740, -4.7340140,56.00232
Bodmin,0.00000000000,0.00174809894,0.000000000000,0.00000000000,0.00000000000,0.00000000000,0.9982519, -4.7188629,50.47150
Tenby,0.00030927835,0.00000000000,0.000000000000,0.00000000000,0.00000000000,0.00000000000,0.9996907, -4.7035790,51.67274
Camelford,0.00000000000,0.00155722813,0.000000000000,0.00000000000,0.00000000000,0.00000000000,0.9984428, -4.6823640,50.62206
Irvine,0.01520583508,0.04635925331,0.000000000000,0.00000000000,0.00000000000,0.00000000000,0.9384349, -4.6696364,55.61157
Cardigan,0.00042345967,0.00000000000,0.000000000000,0.00000000000,0.00000000000,0.00000000000,0.9995765, -4.6608640,52.08370
Holyhead,0.00000000000,0.00099228225,0.000000000000,0.00000000000,0.00000000000,0.00000000000,0.9990077, -4.6330380,53.30944
Ayr,0.01813103098,0.04349923819,0.000000000000,0.00000000000,0.00000000000,0.00000000000,0.9383697, -4.6291790,55.45856
Dumbarton,0.00411510874,0.04600920184,0.000000000000,0.00000000000,0.00000000000,0.00000000000,0.9498757, -4.5645540,55.94529
Bude,0.00000000000,0.00000000000,0.000000000000,0.00000000000,0.00000000000,0.00000000000,1.0000000, -4.5436780,50.82664
Isle of Man,0.00047425675,0.00658031242,0.000000000000,0.00000000000,0.00000000000,0.00124492397,0.9917005, -4.5126331,54.27697
Kilmarnock,0.01773177568,0.04628576186,0.000000000000,0.00000000000,0.00000000000,0.00000000000,0.9359825, -4.4987920,55.61472
Newton Stewart,0.01496394231,0.05270432692,0.000000000000,0.00000000000,0.00000000000,0.00000000000,0.9323317, -4.4831640,54.96030
Liskeard,0.00029409602,0.00279391221,0.000000000000,0.00000000000,0.00000000000,0.00000000000,0.9969120, -4.4647190,50.45552
Altnaharra,0.02654749710,0.02768666209,0.000000000000,0.00000000000,0.00000000000,0.00014858674,0.9456173, -4.4426550,58.28023
Pwllheli,0.00000000000,0.00123001230,0.000000000000,0.00000000000,0.00000000000,0.00000000000,0.9987700, -4.4176339,52.88882
Lairg,0.01726511946,0.02804273949,0.000000000000,0.00000000000,0.00000000000,0.00015695563,0.9545352, -4.4024140,58.02206
Launceston,0.00031288296,0.00234662217,0.000000000000,0.00000000000,0.00000000000,0.00000000000,0.9973405, -4.3604516,50.63683
Carmarthen,0.00000000000,0.00000000000,0.000000000000,0.00000000000,0.00000000000,0.00000000000,1.0000000, -4.3121310,51.85762
Llangefni,0.00000000000,0.00100164715,0.000000000000,0.00000000000,0.00000000000,0.00000000000,0.9989984, -4.3114020,53.25579
Caernarfon,0.00000000000,0.00109101489,0.000000000000,0.00000000000,0.00000000000,0.00000000000,0.9989090, -4.2739110,53.13955
Cumnock,0.02088385495,0.04211006819,0.000000000000,0.00000000000,0.00000000000,0.00000000000,0.9370061, -4.2658289,55.45355
Aberaeron,0.00000000000,0.00000000000,0.000000000000,0.00000000000,0.00000000000,0.00000000000,1.0000000, -4.2581619,52.24279
Alness,0.01580387865,0.02855234077,0.000000000000,0.00000000000,0.00000000000,0.00015803879,0.9554857, -4.2568250,57.69595
Glasgow,0.00651329866,0.03548733344,0.000094446329,0.00000000000,0.00000000000,0.00000000000,0.9579049, -4.2518060,55.86424
Dalwhinnie,0.00000000000,0.03195924039,0.000000000000,0.00000000000,0.00000000000,0.00000000000,0.9680408, -4.2427830,56.93660
Inverness,0.01301058492,0.02866559768,0.000000000000,0.00000000000,0.00000000000,0.00015866567,0.9581652, -4.2247210,57.47777
Saltash,0.00030225939,0.00287146419,0.000000000000,0.00000000000,0.00000000000,0.00000000000,0.9968263, -4.2164300,50.40921
Bideford,0.00000000000,0.00113636364,0.000000000000,0.00000000000,0.00000000000,0.00000000000,0.9988636, -4.2066660,51.01668
Invergordon,0.01580887549,0.02856136838,0.000000000000,0.00000000000,0.00000000000,0.00015808875,0.9554717, -4.1728820,57.68811
Llanelli,0.00000000000,0.00088491225,0.000000000000,0.00000000000,0.00000000000,0.00029497075,0.9988201, -4.1602480,51.68089
Plymouth,0.00030072927,0.00300729268,0.000000000000,0.00000000000,0.00000000000,0.00000000000,0.9966920, -4.1426565,50.37546
Tavistock,0.00031353696,0.00266506414,0.000000000000,0.00000000000,0.00000000000,0.00000000000,0.9970214, -4.1416540,50.55112
Porthmadog,0.00000000000,0.00139953660,0.000000000000,0.00000000000,0.00000000000,0.00000000000,0.9986005, -4.1333840,52.92784
Bangor,0.00000000000,0.00096850216,0.000000000000,0.00000000000,0.00000000000,0.00000000000,0.9990315, -4.1292630,53.22739
Tywyn,0.00000000000,0.00000000000,0.000000000000,0.00000000000,0.00000000000,0.00000000000,1.0000000, -4.0872490,52.58701
Aberystwyth,0.00000000000,0.00000000000,0.000000000000,0.00000000000,0.00000000000,0.00000000000,1.0000000, -4.0829200,52.41530
Lampeter,0.00000000000,0.00000000000,0.000000000000,0.00000000000,0.00000000000,0.00000000000,1.0000000, -4.0785090,52.11290
Barnstaple,0.00000000000,0.00119846596,0.000000000000,0.00000000000,0.00000000000,0.00000000000,0.9988015, -4.0583380,51.07816
Tain,0.03368535936,0.02636450208,0.000000000000,0.00000000000,0.00000000000,0.00014123840,0.9398089, -4.0552300,57.81150
Okehampton,0.00000000000,0.00110619469,0.000000000000,0.00000000000,0.00000000000,0.00000000000,0.9988938, -4.0042630,50.73831
Llandeilo,0.00000000000,0.00000000000,0.000000000000,0.00000000000,0.00000000000,0.00111711041,0.9988829, -3.9914300,51.88469
Motherwell,0.01488109365,0.03564817012,0.000000000000,0.00000000000,0.00000000000,0.00014240281,0.9493283, -3.9810968,55.78321
Golspie,0.03438183930,0.02621585831,0.000000000000,0.00000000000,0.00000000000,0.00014119852,0.9392611, -3.9760860,57.97341
Airdrie,0.01812068555,0.03353368246,0.000000000000,0.00000000000,0.00000000000,0.00017852892,0.9481671, -3.9625660,55.86627
Swansea,0.00000000000,0.00090078497,0.000000000000,0.00000000000,0.00000000000,0.00025736713,0.9988418, -3.9436460,51.62144
Stirling,0.00503419556,0.11949418839,0.000000000000,0.00000000000,0.00000000000,0.00000000000,0.8754716, -3.9369029,56.11652
Tregaron,0.00000000000,0.00000000000,0.000000000000,0.00000000000,0.00000000000,0.00000000000,1.0000000, -3.9343850,52.22000
Tregaron,0.00000000000,0.00000000000,0.000000000000,0.00000000000,0.00000000000,0.00000000000,1.0000000, -3.9343850,52.22000
Castle Douglas,0.00444365446,0.05136864557,0.000000000000,0.00000000000,0.00000000000,0.00213295414,0.9420547, -3.9314140,54.94042
Dolgellau,0.00000000000,0.00000000000,0.000000000000,0.00000000000,0.00000000000,0.00000000000,1.0000000, -3.8844000,52.74215
Aberfeldy,0.01430842607,0.07758346582,0.000000000000,0.00000000000,0.00000000000,0.00000000000,0.9081081, -3.8669690,56.62175
Machynlleth,0.00000000000,0.00000000000,0.000000000000,0.00000000000,0.00000000000,0.00000000000,1.0000000, -3.8534850,52.59027
Brora,0.03530760967,0.02605174758,0.000000000000,0.00000000000,0.00000000000,0.00014500045,0.9384956, -3.8525480,58.01216
Llandudno,0.00057741166,0.00086611748,0.000000000000,0.00000000000,0.00000000000,0.00000000000,0.9985565, -3.8276090,53.32406
Llandudno,0.00057741166,0.00086611748,0.000000000000,0.00000000000,0.00000000000,0.00000000000,0.9985565, -3.8276090,53.32406
Aviemore,0.01021866514,0.02043733028,0.000000000000,0.00000000000,0.00000000000,0.00000000000,0.9693440, -3.8238120,57.19449
Dalbeattie,0.00389535656,0.04957726528,0.000000000000,0.00000000000,0.00000000000,0.00212473994,0.9444026, -3.8225270,54.93422
Falkirk,0.00469779282,0.13649843844,0.000000000000,0.00000000000,0.00000000000,0.00000000000,0.8588038, -3.7839131,56.00188
Kingsbridge,0.00024291006,0.00255055566,0.000000000000,0.00000000000,0.00000000000,0.00000000000,0.9972065, -3.7774930,50.28395
Pitlochry,0.00930232558,0.08953488372,0.000000000000,0.00000000000,0.00000000000,0.00000000000,0.9011628, -3.7297110,56.70436
Colwyn Bay,0.00057577706,0.00057577706,0.000000000000,0.00000000000,0.00000000000,0.00000000000,0.9988484, -3.7276400,53.29318
Totnes,0.00000000000,0.00132275132,0.000000000000,0.00000000000,0.00000000000,0.00000000000,0.9986772, -3.6857970,50.43374
Grantown-on-Spey,0.06690175267,0.01459395294,0.000000000000,0.00000000000,0.00000000000,0.00000000000,0.9185043, -3.6096280,57.33041
Dumfries,0.00226089063,0.02928881043,0.000000000000,0.00000000000,0.00000000000,0.00210673900,0.9663436, -3.6051200,55.07086
Whitehaven,0.00163472891,0.00858232676,0.000000000000,0.00000000000,0.00000000000,0.00367814004,0.9861048, -3.5892330,54.54970
Dartmouth,0.00000000000,0.00130855797,0.000000000000,0.00000000000,0.00000000000,0.00000000000,0.9986914, -3.5788070,50.35252
Bridgend,0.00000000000,0.00119945168,0.000000000000,0.00000000000,0.00000000000,0.00000000000,0.9988005, -3.5769450,51.50429
Paignton,0.00010207727,0.00061246363,0.000000000000,0.00000000000,0.00000000000,0.00000000000,0.9992855, -3.5642350,50.43508
Workington,0.00182764973,0.03576971613,0.000000000000,0.00000000000,0.00000000000,0.00234983537,0.9600528, -3.5427520,54.64357
Llanidloes,0.00000000000,0.00000000000,0.000000000000,0.00000000000,0.00000000000,0.00000000000,1.0000000, -3.5401950,52.44779
Exeter,0.00012287277,0.00024574553,0.000000000000,0.00000000000,0.00000000000,0.00024574553,0.9993856, -3.5338990,50.71841
Torquay,0.00010179671,0.00061078027,0.000000000000,0.00000000000,0.00000000000,0.00000000000,0.9992874, -3.5253150,50.46192
Thurso,0.05922614856,0.02799583892,0.000000000000,0.00000000000,0.00000000000,0.00016308256,0.9126149, -3.5220800,58.59357
Livingston,0.00358474431,0.12200444672,0.000000000000,0.00000000000,0.00000000000,0.00000000000,0.8744108, -3.5180680,55.90071
Rhyl,0.00059648076,0.00000000000,0.000000000000,0.00000000000,0.00000000000,0.00000000000,0.9994035, -3.4916340,53.31914
Tiverton,0.00013979171,0.00013979171,0.000000000000,0.00000000000,0.00000000000,0.00000000000,0.9997204, -3.4912070,50.90205
Tiverton,0.00013979171,0.00013979171,0.000000000000,0.00000000000,0.00000000000,0.00000000000,0.9997204, -3.4912070,50.90205
Minehead,0.00000000000,0.00000000000,0.000000000000,0.00000000000,0.00000000000,0.00000000000,1.0000000, -3.4811520,51.20428
Dunfermline,0.00504795558,0.15161424840,0.000000000000,0.00000000000,0.00000000000,0.00000000000,0.8433378, -3.4521510,56.07174
Perth,0.00413045349,0.13772480854,0.000000000000,0.00000000000,0.00000000000,0.00000000000,0.8581447, -3.4308381,56.39499
Prestatyn,0.00049252996,0.00000000000,0.000000000000,0.00000000000,0.00016417665,0.00000000000,0.9993433, -3.4076130,53.33651
Builth Wells,0.00224719101,0.00000000000,0.000000000000,0.00000000000,0.00000000000,0.00000000000,0.9977528, -3.4045920,52.15002
Braemar,0.01438618926,0.05658567775,0.000000000000,0.00000000000,0.00000000000,0.00000000000,0.9290281, -3.3979439,57.00647
Brecon,0.00000000000,0.00000000000,0.000000000000,0.00000000000,0.00000000000,0.00000000000,1.0000000, -3.3914630,51.94895
Merthyr Tydfil,0.00000000000,0.00026985698,0.000000000000,0.00000000000,0.00000000000,0.00000000000,0.9997301, -3.3816460,51.74873
Llandrindod Wells,0.00258175559,0.00000000000,0.000000000000,0.00000000000,0.00000000000,0.00000000000,0.9974182, -3.3777420,52.24170
Corwen,0.00029266865,0.00073167163,0.000000000000,0.00000000000,0.00000000000,0.00000000000,0.9989757, -3.3692420,52.98005
Cockermouth,0.00052430311,0.00537410692,0.000000000000,0.00000000000,0.00000000000,0.00196613668,0.9921355, -3.3679850,54.66326
Lockerbie,0.00144441579,0.03116604829,0.000000000000,0.00000000000,0.00000000000,0.00161107915,0.9657785, -3.3490080,55.12224
Blairgowrie,0.06182376056,0.04745114927,0.000000000000,0.00000000000,0.00000000000,0.00000000000,0.8907251, -3.3378318,56.58941
Elgin,0.15125987774,0.01282242433,0.000000000000,0.00000000000,0.00000000000,0.00000000000,0.8359177, -3.3184850,57.64945
Newtown,0.00000000000,0.00000000000,0.000000000000,0.00000000000,0.00000000000,0.00000000000,1.0000000, -3.3131060,52.51211
Ruthin,0.00000000000,0.00085573700,0.000000000000,0.00000000000,0.00000000000,0.00000000000,0.9991443, -3.3103108,53.11487
Ruthin,0.00000000000,0.00085573700,0.000000000000,0.00000000000,0.00000000000,0.00000000000,0.9991443, -3.3103108,53.11487
Sidmouth,0.00037306473,0.00024870982,0.000000000000,0.00000000000,0.00000000000,0.00024870982,0.9991295, -3.2375600,50.67865
Barrow-in-Furness,0.00044731166,0.00119283109,0.000000000000,0.00000000000,0.00000000000,0.00014910389,0.9982108, -3.2188940,54.10897
Peebles,0.00343309202,0.10978431226,0.000000000000,0.00000000000,0.00000000000,0.00000000000,0.8867826, -3.1936420,55.65307
Edinburgh,0.00283909753,0.06856758517,0.000000000000,0.00000000000,0.00004055854,0.00004055854,0.9285122, -3.1882670,55.95325
Cardiff,0.00018528384,0.00060731926,0.000000000000,0.00000000000,0.00000000000,0.00000000000,0.9992074, -3.1790900,51.48158
Llangollen,0.00029121973,0.00131048876,0.000000000000,0.00000000000,0.00000000000,0.00000000000,0.9983983, -3.1716600,52.96921
Kirkcaldy,0.00296117347,0.09606574076,0.000000000000,0.00000000000,0.00004056402,0.00006760670,0.9008649, -3.1581370,56.11682
Welshpool,0.00048007462,0.00000000000,0.000000000000,0.00000000000,0.00000000000,0.00000000000,0.9995199, -3.1464070,52.66035
Mold,0.00000000000,0.00000000000,0.000000000000,0.00000000000,0.00000000000,0.00000000000,1.0000000, -3.1419030,53.16720
Mold,0.00000000000,0.00000000000,0.000000000000,0.00000000000,0.00000000000,0.00000000000,1.0000000, -3.1419030,53.16720
Taunton,0.00022899015,0.00022899015,0.000000000000,0.00000000000,0.00000000000,0.00000000000,0.9995420, -3.1068490,51.01534
Wick,0.08603211069,0.02795058497,0.000000000000,0.00000000000,0.00000000000,0.00015761608,0.8858597, -3.0937160,58.43894
John o' Groats,0.08497404193,0.02760683378,0.000000000000,0.00000000000,0.00000000000,0.00015567763,0.8872634, -3.0688997,58.63734
Dalkeith,0.00284256560,0.08049380466,0.000000000000,0.00000000000,0.00004685548,0.00004685548,0.9165699, -3.0666060,55.89312
Oswestry,0.00030298440,0.00075746099,0.000000000000,0.00000000000,0.00000000000,0.00000000000,0.9989396, -3.0564120,52.85715
Blackpool,0.00081451626,0.00073569210,0.000000000000,0.00000000000,0.00000000000,0.00031529662,0.9981345, -3.0356748,53.81751
Birkenhead,0.00012622718,0.00058906019,0.000000000000,0.00000000000,0.00003606491,0.00014425964,0.9991044, -3.0230090,53.38999
Cupar,0.04202932786,0.09023676703,0.000000000000,0.00000000000,0.00000000000,0.00000000000,0.8677339, -3.0101370,56.32023
Southport,0.00015355676,0.00038389190,0.000460670275,0.00000000000,0.00000000000,0.00000000000,0.9990019, -3.0101130,53.64571
Bridgwater,0.00062941464,0.00020980488,0.000000000000,0.00000000000,0.00000000000,0.00000000000,0.9991608, -3.0036320,51.12789
Langholm,0.00104841820,0.03098075778,0.000000000000,0.00000000000,0.00000000000,0.00089115547,0.9670797, -2.9989130,55.15306
Newport,0.00000000000,0.00000000000,0.000000000000,0.00000000000,0.00000000000,0.00000000000,1.0000000, -2.9976640,51.58415
Axminster,0.00115874855,0.00000000000,0.000000000000,0.00000000000,0.00000000000,0.00077249903,0.9980688, -2.9949370,50.78273
Wrexham,0.00029043032,0.00072607580,0.000000000000,0.00000000000,0.00000000000,0.00000000000,0.9989835, -2.9924940,53.04304
Liverpool,0.00010106271,0.00066027636,0.000000000000,0.00000000000,0.00000000000,0.00016170033,0.9990770, -2.9915726,53.40837
Weston-super-Mare,0.00019292140,0.00063235349,0.000000000000,0.00000000000,0.00000000000,0.00000000000,0.9991747, -2.9772550,51.34741
Dundee,0.05921132066,0.03979618942,0.000000000000,0.00000000000,0.00000000000,0.00000000000,0.9009925, -2.9707210,56.46202
Kirkwall,0.08745166009,0.02681190175,0.000000000000,0.00000000000,0.00000000000,0.00015648970,0.8855799, -2.9622491,58.98467
Ambleside,0.00102234970,0.00153352455,0.000000000000,0.00000000000,0.00000000000,0.00025558743,0.9971885, -2.9613330,54.42874
Orkney Islands,0.08745166009,0.02681190175,0.000000000000,0.00000000000,0.00000000000,0.00015648970,0.8855799, -2.9605206,58.98094
Lyme Regis,0.00119355480,0.00000000000,0.000000000000,0.00000000000,0.00000000000,0.00119355480,0.9976129, -2.9366390,50.72516
Carlisle,0.00040852753,0.00643430853,0.000000000000,0.00000000000,0.00000000000,0.00148091228,0.9916763, -2.9329310,54.89247
Chester,0.00000000000,0.00034623327,0.000000000000,0.00000000000,0.00000000000,0.00000000000,0.9996538, -2.8930750,53.19339
Forfar,0.05891670804,0.03536893870,0.000000000000,0.00000000000,0.00000000000,0.00000000000,0.9057144, -2.8890620,56.64356
Morecambe,0.00040381742,0.00161526968,0.000000000000,0.00000000000,0.00000000000,0.00020190871,0.9977790, -2.8649680,54.07417
Selkirk,0.00342294801,0.08086714683,0.000000000000,0.00000000000,0.00000000000,0.00000000000,0.9157099, -2.8385240,55.55066
Galashiels,0.00343358555,0.09709416926,0.000000000000,0.00000000000,0.00000000000,0.00000000000,0.8994722, -2.8144490,55.62373
Lancaster,0.00000000000,0.00161461767,0.000000000000,0.00000000000,0.00000000000,0.00020182721,0.9981836, -2.8007399,54.04657
St Andrews,0.04621324165,0.07300770221,0.000000000000,0.00000000000,0.00000000000,0.00000000000,0.8807791, -2.7967214,56.33978
Hawick,0.00231749710,0.04891574243,0.000000000000,0.00000000000,0.00000000000,0.00033107101,0.9484357, -2.7809140,55.42706
Bridport,0.00068704912,0.00000000000,0.000000000000,0.00000000000,0.00000000000,0.00000000000,0.9993130, -2.7583010,50.73358
Shrewsbury,0.00018671048,0.00000000000,0.000000000000,0.00000000000,0.00000000000,0.00000000000,0.9998133, -2.7553268,52.70730
Penrith,0.00068834874,0.00258130778,0.000000000000,0.00000000000,0.00000000000,0.00103252311,0.9956978, -2.7527080,54.66410
Kendal,0.00165061898,0.00123796424,0.000000000000,0.00000000000,0.00000000000,0.00000000000,0.9971114, -2.7462900,54.32801
Street,0.00045019696,0.00022509848,0.000000000000,0.00000000000,0.00000000000,0.00000000000,0.9993247, -2.7429190,51.12468
Glastonbury,0.00052596976,0.00026298488,0.000000000000,0.00000000000,0.00000000000,0.00000000000,0.9992110, -2.7184540,51.14743
Hereford,0.00064853180,0.00032426590,0.000000000000,0.00000000000,0.00000000000,0.00000000000,0.9990272, -2.7159740,52.05640
Ludlow,0.00179748352,0.00000000000,0.000000000000,0.00000000000,0.00000000000,0.00000000000,0.9982025, -2.7139129,52.36775
Preston,0.00000000000,0.00037431220,0.000000000000,0.00000000000,0.00000000000,0.00000000000,0.9996257, -2.7030900,53.76320
Whitchurch,0.00025870990,0.00077612970,0.000000000000,0.00000000000,0.00000000000,0.00000000000,0.9989652, -2.6820450,52.96872
Wells,0.00272448632,0.00000000000,0.000000000000,0.00000000000,0.00000000000,0.00000000000,0.9972755, -2.6445979,51.20935
Yeovil,0.00102214651,0.00000000000,0.000000000000,0.00000000000,0.00000000000,0.00000000000,0.9989779, -2.6333080,50.94206
Wigan,0.00022774432,0.00000000000,0.000000000000,0.00000000000,0.00000000000,0.00000000000,0.9997723, -2.6325074,53.54506
Warrington,0.00012224192,0.00085569342,0.000000000000,0.00000000000,0.00000000000,0.00000000000,0.9990221, -2.5969501,53.39004
Arbroath,0.05896109418,0.03103961449,0.000000000000,0.00000000000,0.00000000000,0.00000000000,0.9099993, -2.5915430,56.55911
Bristol,0.00010290236,0.00042875984,0.000000000000,0.00005145118,0.00000000000,0.00000000000,0.9994169, -2.5879100,51.45451
Guernsey,0.00039992002,0.00099980004,0.000000000000,0.00000000000,0.00000000000,0.00000000000,0.9986003, -2.5852780,49.46569
Ross-on-Wye,0.00000000000,0.00017183443,0.000000000000,0.00000000000,0.00000000000,0.00017183443,0.9996563, -2.5824460,51.91445
Jedburgh,0.00326117515,0.04368850155,0.000674725893,0.00000000000,0.00000000000,0.00511667135,0.9472589, -2.5549369,55.47772
Sedbergh,0.00000000000,0.00101154851,0.000000000000,0.00000000000,0.00000000000,0.00000000000,0.9989885, -2.5281740,54.32363
Sedbergh,0.00000000000,0.00101154851,0.000000000000,0.00000000000,0.00000000000,0.00000000000,0.9989885, -2.5281740,54.32363
Nantwich,0.00043132368,0.00050321097,0.000000000000,0.00000000000,0.00000000000,0.00000000000,0.9990655, -2.5241020,53.06719
Banff,0.19427860697,0.01159203980,0.000000000000,0.00000000000,0.00000000000,0.00029850746,0.7938308, -2.5240380,57.66651
Dunbar,0.00531511010,0.14844343204,0.000000000000,0.00000000000,0.00000000000,0.00000000000,0.8462415, -2.5167370,56.00209
Cinderford,0.00000000000,0.00000000000,0.000000000000,0.00000000000,0.00000000000,0.00019747235,0.9998025, -2.5009579,51.82530
Banchory,0.04983865675,0.01911507329,0.000000000000,0.00000000000,0.00000000000,0.00012305841,0.9309232, -2.4909599,57.05386
Blackburn,0.00000000000,0.00435429847,0.000000000000,0.00000000000,0.00000000000,0.00000000000,0.9956457, -2.4875290,53.74858
Market Drayton,0.00000000000,0.00029692093,0.000000000000,0.00000000000,0.00000000000,0.00000000000,0.9997031, -2.4834850,52.90355
Telford,0.00018446943,0.00000000000,0.000000000000,0.00000000000,0.00000000000,0.00000000000,0.9998155, -2.4672611,52.67759
Montrose,0.05815942525,0.02914813548,0.000000000000,0.00000000000,0.00000000000,0.00000000000,0.9126924, -2.4661150,56.70692
Turriff,0.16012309988,0.01618017346,0.000000000000,0.00000000000,0.00000000000,0.00027977245,0.8234170, -2.4623000,57.53893
Weymouth,0.00042595485,0.00074542099,0.000000000000,0.00000000000,0.00000000000,0.00000000000,0.9988286, -2.4576210,50.61443
Crewe,0.00024701523,0.00037052285,0.000000000000,0.00000000000,0.00000000000,0.00000000000,0.9993825, -2.4438209,53.10041
Fortuneswell,0.00039601346,0.00069302356,0.000000000000,0.00000000000,0.00000000000,0.00000000000,0.9989110, -2.4422190,50.55919
Dorchester,0.00000000000,0.00060483871,0.000000000000,0.00000000000,0.00000000000,0.00000000000,0.9993952, -2.4411810,50.71116
Alston,0.00092930291,0.00201348964,0.000464651456,0.00000000000,0.00000000000,0.00216837346,0.9944242, -2.4386850,54.81217
Kelso,0.00320577039,0.06919121085,0.000000000000,0.00000000000,0.00000000000,0.00280504909,0.9247980, -2.4322070,55.60003
Wincanton,0.00081389040,0.00000000000,0.000000000000,0.00000000000,0.00000000000,0.00000000000,0.9991861, -2.4160070,51.05569
Clitheroe,0.00000000000,0.00420519950,0.000000000000,0.00000000000,0.00000000000,0.00037379551,0.9954210, -2.3930830,53.87110
Sark,0.00000000000,0.00067136838,0.000000000000,0.00000000000,0.00000000000,0.00000000000,0.9993286, -2.3666256,49.43007
Bath,0.00000000000,0.00064052173,0.000000000000,0.00000000000,0.00000000000,0.00000000000,0.9993595, -2.3590167,51.38106
Kidderminster,0.00024505800,0.00000000000,0.000000000000,0.00000000000,0.00000000000,0.00000000000,0.9997549, -2.2496839,52.38860
Manchester,0.00008488840,0.00064373706,0.000000000000,0.00000000000,0.00000000000,0.00006366630,0.9992077, -2.2426305,53.48076
Burnley,0.00000000000,0.00042142188,0.000000000000,0.00000000000,0.00000000000,0.00042142188,0.9991572, -2.2405035,53.78929
Gloucester,0.00000000000,0.00047266425,0.000000000000,0.00000000000,0.00000000000,0.00011816606,0.9994092, -2.2381560,51.86424
Newcastle-under-Lyme,0.00032387790,0.00032387790,0.000000000000,0.00000000000,0.00000000000,0.00000000000,0.9993522, -2.2273002,53.01321
Worcester,0.00019866234,0.00000000000,0.000000000000,0.00000000000,0.00000000000,0.00000000000,0.9998013, -2.2215750,52.19364
Trowbridge,0.00000000000,0.00055617353,0.000000000000,0.00000000000,0.00000000000,0.00000000000,0.9994438, -2.2088530,51.31966
Shaftesbury,0.00000000000,0.00155480694,0.000000000000,0.00000000000,0.00000000000,0.00000000000,0.9984452, -2.1980830,51.00460
Alderney,0.00000000000,0.00041308943,0.000000000000,0.00000000000,0.00000000000,0.00000000000,0.9995869, -2.1973557,49.71500
Stoke-on-Trent,0.00032241597,0.00032241597,0.000000000000,0.00000000000,0.00000000000,0.00000000000,0.9993552, -2.1794040,53.00267
Colne,0.00000000000,0.00047995722,0.000000000000,0.00000000000,0.00000000000,0.00047995722,0.9990401, -2.1769910,53.85564
Blandford Forum,0.00000000000,0.00085317299,0.000000000000,0.00000000000,0.00000000000,0.00000000000,0.9991468, -2.1653530,50.85691
Rochdale,0.00064771384,0.00016192846,0.000000000000,0.00000000000,0.00000000000,0.00000000000,0.9991904, -2.1561000,53.60971
Jersey,0.00000000000,0.00062209219,0.000000000000,0.00000000000,0.00000000000,0.00000000000,0.9993779, -2.1312500,49.21444
Wolverhampton,0.00013043640,0.00026087281,0.000000000000,0.00000000000,0.00000000000,0.00000000000,0.9996087, -2.1288200,52.58697
Stafford,0.00009202623,0.00092026234,0.000000000000,0.00000000000,0.00000000000,0.00000000000,0.9989877, -2.1206600,52.80669
Macclesfield,0.00000000000,0.00090063044,0.000000000000,0.00000000000,0.00000000000,0.00000000000,0.9990994, -2.1192870,53.25866
Hexham,0.00270880361,0.00270880361,0.000677200903,0.00033860045,0.00000000000,0.01314898420,0.9804176, -2.1121439,54.97266
Aberdeen,0.06478123104,0.01735319895,0.000000000000,0.00000000000,0.00000000000,0.00012135104,0.9177442, -2.0942780,57.14972
Dudley,0.00021700604,0.00065101812,0.000000000000,0.00000000000,0.00000000000,0.00000000000,0.9991320, -2.0811120,52.51226
Cheltenham,0.00000000000,0.00048871874,0.000000000000,0.00000000000,0.00000000000,0.00012217969,0.9993891, -2.0782533,51.89939
Bromsgrove,0.00077706786,0.00000000000,0.000000000000,0.00000000000,0.00000000000,0.00000000000,0.9992229, -2.0619060,52.33559
Skipton,0.00036649279,0.00146597114,0.000000000000,0.00000000000,0.00000000000,0.00073298557,0.9974346, -2.0162787,53.96285
Fraserburgh,0.09522520858,0.01611838631,0.000000000000,0.00000000000,0.00000000000,0.00011880874,0.8885376, -2.0076310,57.69335
Berwick,0.00193760899,0.05799909578,0.000000000000,0.00000000000,0.00000000000,0.00503778338,0.9350255, -2.0053950,55.77024
Poole,0.00000000000,0.00071011723,0.000000000000,0.00000000000,0.00000000000,0.00000000000,0.9992899, -1.9872480,50.71505
Walsall,0.00016043884,0.00048131652,0.000000000000,0.00000000000,0.00000000000,0.00000000000,0.9993582, -1.9829190,52.58621
Cirencester,0.00000000000,0.00104865173,0.000000000000,0.00000000000,0.00000000000,0.00000000000,0.9989513, -1.9682430,51.71849
Evesham,0.00000000000,0.00000000000,0.000000000000,0.00000000000,0.00000000000,0.00000000000,1.0000000, -1.9467700,52.09215
Buxton,0.00000000000,0.00033819965,0.000000000000,0.00000000000,0.00000000000,0.00000000000,0.9996618, -1.9148300,53.25908
Keighley,0.00012135088,0.00145621054,0.000000000000,0.00000000000,0.00000000000,0.00000000000,0.9984224, -1.9123580,53.86780
Birmingham,0.00021335440,0.00046226787,0.000000000000,0.00000000000,0.00000000000,0.00004267088,0.9992817, -1.8904010,52.48624
Bournemouth,0.00000000000,0.00045300406,0.000000000000,0.00000000000,0.00000000000,0.00000000000,0.9995470, -1.8807690,50.71916
Halifax,0.00000000000,0.00273346740,0.000000000000,0.00000000000,0.00000000000,0.00000000000,0.9972665, -1.8575400,53.72702
Salisbury,0.00000000000,0.00000000000,0.000000000000,0.00000000000,0.00000000000,0.00000000000,1.0000000, -1.7944720,51.06878
Ringwood,0.00029783178,0.00037228973,0.000000000000,0.00000000000,0.00000000000,0.00000000000,0.9993299, -1.7888170,50.84495
Huddersfield,0.00045662663,0.00000000000,0.000000000000,0.00000000000,0.00000000000,0.00000000000,0.9995434, -1.7850351,53.64579
Peterhead,0.08723332433,0.01652714016,0.000000000000,0.00000000000,0.00000000000,0.00012152309,0.8961180, -1.7840660,57.50812
Swindon,0.00026048450,0.00039072675,0.000000000000,0.00000000000,0.00000000000,0.00000000000,0.9993488, -1.7797176,51.55577
Bradford,0.00000000000,0.00136427509,0.000000000000,0.00000000000,0.00000000000,0.00000000000,0.9986357, -1.7593980,53.79598
Ashbourne,0.00000000000,0.00132124291,0.000000000000,0.00000000000,0.00000000000,0.00000000000,0.9986788, -1.7321790,53.01663
Marlborough,0.00030854674,0.00169700710,0.000000000000,0.00000000000,0.00000000000,0.00000000000,0.9979944, -1.7270620,51.42007
Stratford-upon-Avon,0.00000000000,0.00026978417,0.000000000000,0.00000000000,0.00000000000,0.00000000000,0.9997302, -1.7082980,52.19173
Alnwick,0.00243381173,0.00289015143,0.000456339699,0.00000000000,0.00000000000,0.01737893688,0.9768408, -1.7062990,55.41274
Otley,0.00020982396,0.00000000000,0.000000000000,0.00000000000,0.00000000000,0.00020982396,0.9995804, -1.6917860,53.90583
Bishop Auckland,0.00111655604,0.00104677129,0.001674834067,0.00000000000,0.00000000000,0.00139569506,0.9947661, -1.6787880,54.66382
Burton upon Trent,0.00019690207,0.00000000000,0.000000000000,0.00000000000,0.00000000000,0.00000000000,0.9998031, -1.6371359,52.81403
Newcastle,0.00202908724,0.00228500815,0.000191940685,0.00045700163,0.00000000000,0.01319820709,0.9818388, -1.6177800,54.97825
Durham,0.00191248122,0.00092208916,0.001844178316,0.00000000000,0.00000000000,0.00375665953,0.9915646, -1.5848520,54.77525
Ashington,0.00235102874,0.00174647849,0.000000000000,0.00000000000,0.00000000000,0.01632285670,0.9795796, -1.5659829,55.18298
Darlington,0.00095316769,0.00114380123,0.000953167694,0.00000000000,0.00000000000,0.00066721739,0.9962826, -1.5594580,54.52361
Leeds,0.00004478206,0.00031347441,0.000134346176,0.00000000000,0.00000000000,0.00008956412,0.9994178, -1.5490774,53.80076
Harrogate,0.00000000000,0.00023370857,0.000000000000,0.00000000000,0.00000000000,0.00023370857,0.9995326, -1.5418120,53.99212
Leamington Spa,0.00024379343,0.00012189671,0.000000000000,0.00000000000,0.00000000000,0.00024379343,0.9993905, -1.5200789,52.28519
Coventry,0.00029815146,0.00000000000,0.000000000000,0.00000000000,0.00000000000,0.00000000000,0.9997018, -1.5196930,52.40682
Blyth,0.00678912327,0.00146382584,0.000000000000,0.00000000000,0.00000000000,0.01418396757,0.9775631, -1.5102770,55.12696
Wakefield,0.00021037868,0.00042075736,0.000000000000,0.00000000000,0.00000000000,0.00000000000,0.9993689, -1.5059240,53.68330
Andover,0.00000000000,0.00111416015,0.000000000000,0.00000000000,0.00000000000,0.00000000000,0.9988858, -1.4919233,51.21120
Witney,0.00000000000,0.00108988856,0.000000000000,0.00000000000,0.00000000000,0.00021797771,0.9986921, -1.4850544,51.78594
Barnsley,0.00024695423,0.00049390846,0.000000000000,0.00000000000,0.00000000000,0.00000000000,0.9992591, -1.4797260,53.55263
Derby,0.00000000000,0.00058931860,0.000000000000,0.00000000000,0.00000000000,0.00007366483,0.9993370, -1.4746186,52.92253
Sheffield,0.00032847554,0.00076644294,0.000054745924,0.00000000000,0.00000000000,0.00032847554,0.9985219, -1.4700850,53.38113
Nuneaton,0.00000000000,0.00054628888,0.000000000000,0.00000000000,0.00000000000,0.00000000000,0.9994537, -1.4653820,52.52049
Northallerton,0.00028129395,0.00084388186,0.000000000000,0.00000000000,0.00000000000,0.00042194093,0.9984529, -1.4299590,54.33796
South Shields,0.00926964043,0.00120124930,0.008949307280,0.00008008329,0.00000000000,0.00692720429,0.9735725, -1.4274060,54.99942
Chesterfield,0.00000000000,0.00026603999,0.000000000000,0.00000000000,0.00000000000,0.00000000000,0.9997340, -1.4216290,53.23505
Southampton,0.00000000000,0.00084235006,0.000000000000,0.00000000000,0.00000000000,0.00000000000,0.9991576, -1.4043509,50.90970
Wetherby,0.00033278793,0.00016639397,0.000000000000,0.00000000000,0.00000000000,0.00000000000,0.9995008, -1.3848160,53.92706
Sunderland,0.01007447249,0.00148944973,0.010984691767,0.00008274721,0.00000000000,0.00616466694,0.9712040, -1.3838010,54.90687
Rotherham,0.00028902755,0.00062622636,0.000048171258,0.00000000000,0.00000000000,0.00028902755,0.9987475, -1.3635009,53.43260
Castleford,0.00000000000,0.00070450098,0.000000000000,0.00000000000,0.00000000000,0.00000000000,0.9992955, -1.3459680,53.72347
Thirsk,0.00000000000,0.00000000000,0.000000000000,0.00000000000,0.00000000000,0.00000000000,1.0000000, -1.3413770,54.23385
Banbury,0.00000000000,0.00227014756,0.000000000000,0.00000000000,0.00000000000,0.00000000000,0.9977299, -1.3397750,52.06290
Stockton,0.00010420466,0.00062522795,0.000104204658,0.00000000000,0.00000000000,0.00062522795,0.9985411, -1.3289821,54.57046
Newbury,0.00000000000,0.00066214203,0.000000000000,0.00000000000,0.00000000000,0.00000000000,0.9993379, -1.3231139,51.40141
Isle of Wight,0.00041009206,0.00420344363,0.000000000000,0.00000000000,0.00000000000,0.00003417434,0.9953523, -1.3047340,50.69385
Isle of Wight,0.00041009206,0.00420344363,0.000000000000,0.00000000000,0.00000000000,0.00003417434,0.9953523, -1.3047340,50.69385
Abingdon,0.00000000000,0.00145310116,0.000000000000,0.00000000000,0.00000000000,0.00019374682,0.9983532, -1.2879529,51.67078
Shetland Islands,0.20250196968,0.00887795692,0.000000000000,0.00000000000,0.00000000000,0.00000000000,0.7886201, -1.2659409,60.52965
Rugby,0.00000000000,0.00085166785,0.000000000000,0.00000000000,0.00000000000,0.00042583392,0.9987225, -1.2650320,52.37088
Oxford,0.00000000000,0.00138720305,0.000000000000,0.00000000000,0.00000000000,0.00019817186,0.9984146, -1.2577263,51.75202
Middlesbrough,0.00000000000,0.00035263003,0.000117543344,0.00000000000,0.00000000000,0.00058771672,0.9989421, -1.2349560,54.57423
Hartlepool,0.00023370401,0.00070111204,0.000584260035,0.00000000000,0.00000000000,0.00122694607,0.9972540, -1.2129260,54.69174
Loughborough,0.00000000000,0.00024677141,0.000000000000,0.00000000000,0.00000000000,0.00000000000,0.9997532, -1.2061660,52.77210
Mansfield,0.00024077047,0.00048154093,0.000000000000,0.00000000000,0.00000000000,0.00000000000,0.9992777, -1.1986740,53.14720
Nottingham,0.00033095884,0.00092668474,0.000066191767,0.00000000000,0.00000000000,0.00000000000,0.9986762, -1.1581086,52.95478
Bicester,0.00000000000,0.00210094543,0.000000000000,0.00000000000,0.00000000000,0.00000000000,0.9978991, -1.1535899,51.89960
Leicester,0.00021201413,0.00021201413,0.000000000000,0.00000000000,0.00000000000,0.00042402827,0.9991519, -1.1397592,52.63688
Doncaster,0.00036889026,0.00030740855,0.000000000000,0.00000000000,0.00000000000,0.00000000000,0.9993237, -1.1284620,53.52282
Worksop,0.00084889643,0.00084889643,0.000000000000,0.00000000000,0.00000000000,0.00000000000,0.9983022, -1.1227450,53.30930
Basingstoke,0.00000000000,0.00030278563,0.000000000000,0.00000000000,0.00000000000,0.00000000000,0.9996972, -1.0923964,51.26654
Portsmouth,0.00044925779,0.00499799290,0.000000000000,0.00000000000,0.00000000000,0.00003743815,0.9945153, -1.0879769,50.81977
York,0.00032474073,0.00097422220,0.000000000000,0.00000000000,0.00000000000,0.00021649382,0.9984845, -1.0872979,53.95997
Selby,0.00000000000,0.00000000000,0.000000000000,0.00000000000,0.00000000000,0.00000000000,1.0000000, -1.0671890,53.78352
Helmsley,0.00000000000,0.00042005041,0.000000000000,0.00000000000,0.00000000000,0.00084010081,0.9987398, -1.0562636,54.24651
Towcester,0.00000000000,0.00018627177,0.000000000000,0.00000000000,0.00000000000,0.00000000000,0.9998137, -0.9896880,52.13511
Reading,0.00000000000,0.00047395861,0.000000000000,0.00000000000,0.00000000000,0.00000000000,0.9995260, -0.9781303,51.45426
Retford,0.00000000000,0.00089632507,0.000000000000,0.00000000000,0.00000000000,0.00000000000,0.9991037, -0.9455030,53.32136
Petersfield,0.00137195122,0.00114329268,0.000000000000,0.00000000000,0.00000000000,0.00000000000,0.9974848, -0.9389900,51.00759
Northampton,0.00000000000,0.00063069929,0.000000000000,0.00000000000,0.00000000000,0.00000000000,0.9993693, -0.9026560,52.24048
Melton Mowbray,0.00033072429,0.00000000000,0.000000000000,0.00000000000,0.00000000000,0.00000000000,0.9996693, -0.8871260,52.76640
Aylesbury,0.00051642223,0.00000000000,0.000000000000,0.00000000000,0.00000000000,0.00000000000,0.9994836, -0.8084000,51.81561
Newark-on-Trent,0.00000000000,0.00138328530,0.000000000000,0.00000000000,0.00000000000,0.00000000000,0.9986167, -0.8065700,53.07004
Malton,0.00039228649,0.00117685946,0.000000000000,0.00000000000,0.00000000000,0.00026152432,0.9981693, -0.7978970,54.13684
Chichester,0.00000000000,0.00140191955,0.000000000000,0.00000000000,0.00000000000,0.00000000000,0.9985981, -0.7749360,50.83761
Gainsborough,0.00000000000,0.00000000000,0.000000000000,0.00000000000,0.00000000000,0.00000000000,1.0000000, -0.7744650,53.40058
Milton Keynes,0.00000000000,0.00008672927,0.000000000000,0.00000000000,0.00000000000,0.00000000000,0.9999133, -0.7594171,52.04062
Aldershot,0.00000000000,0.00055091360,0.000000000000,0.00000000000,0.00000000000,0.00000000000,0.9994491, -0.7557509,51.24837
High Wycombe,0.00040155267,0.00000000000,0.000000000000,0.00000000000,0.00000000000,0.00000000000,0.9995984, -0.7482290,51.62861
Midhurst,0.00125558036,0.00000000000,0.000000000000,0.00000000000,0.00000000000,0.00000000000,0.9987444, -0.7372740,50.98690
Kettering,0.00000000000,0.00052155772,0.000000000000,0.00000000000,0.00000000000,0.00000000000,0.9994784, -0.7302490,52.39632
Wellingborough,0.00000000000,0.00045038283,0.000000000000,0.00000000000,0.00000000000,0.00000000000,0.9995496, -0.6939640,52.30242
Corby,0.00000000000,0.00066986714,0.000000000000,0.00000000000,0.00000000000,0.00000000000,0.9993301, -0.6842333,52.49230
Bognor Regis,0.00000000000,0.00023250741,0.000000000000,0.00000000000,0.00000000000,0.00000000000,0.9997675, -0.6730610,50.78300
Scunthorpe,0.00000000000,0.00000000000,0.000000000000,0.00000000000,0.00000000000,0.00000000000,1.0000000, -0.6544130,53.58865
Grantham,0.00026790498,0.00026790498,0.000000000000,0.00000000000,0.00000000000,0.00000000000,0.9994642, -0.6435820,52.91252
Whitby,0.00000000000,0.00014812255,0.000000000000,0.00000000000,0.00000000000,0.00037030637,0.9994816, -0.6133470,54.48633
Slough,0.00000000000,0.00210054614,0.000000000000,0.00000000000,0.00000000000,0.00000000000,0.9978995, -0.5950406,51.51054
Guildford,0.00050508877,0.00058927023,0.000000000000,0.00000000000,0.00000000000,0.00000000000,0.9989056, -0.5704090,51.23622
Woking,0.00050591926,0.00033727950,0.000000000000,0.00000000000,0.00000000000,0.00000000000,0.9991568, -0.5600349,51.31677
Lincoln,0.00000000000,0.00059620417,0.000000000000,0.00000000000,0.00000000000,0.00000000000,0.9994038, -0.5405790,53.23069
Bedford,0.00000000000,0.00000000000,0.000000000000,0.00000000000,0.00000000000,0.00000000000,1.0000000, -0.4667782,52.13864
Heathrow,0.00000000000,0.00000000000,0.000000000000,0.00000000000,0.00000000000,0.00000000000,1.0000000, -0.4542955,51.47002
Driffield,0.00020238477,0.00060715430,0.000000000000,0.00000000000,0.00000000000,0.00000000000,0.9991905, -0.4433770,54.00600
Beverley,0.00020362106,0.00061086318,0.000000000000,0.00000000000,0.00000000000,0.00000000000,0.9991855, -0.4350930,53.84196
Luton,0.00065173116,0.00024439919,0.000000000000,0.00000000000,0.00000000000,0.00000000000,0.9991039, -0.4200255,51.87867
Scarborough,0.00044185875,0.00000000000,0.000000000000,0.00000000000,0.00000000000,0.00000000000,0.9995581, -0.3997520,54.28311
Worthing,0.00013008373,0.00031436901,0.000000000000,0.00000000000,0.00000000000,0.00006504186,0.9994905, -0.3728820,50.81787
Dorking,0.00000000000,0.00095846645,0.000000000000,0.00000000000,0.00000000000,0.00000000000,0.9990415, -0.3323780,51.23220
Hull,0.00000000000,0.00062008027,0.000000000000,0.00000000000,0.00000000000,0.00000000000,0.9993799, -0.3274198,53.76762
Horsham,0.00000000000,0.00000000000,0.000000000000,0.00000000000,0.00000000000,0.00000000000,1.0000000, -0.3258580,51.06288
Biggleswade,0.00000000000,0.00409346751,0.000000000000,0.00000000000,0.00000000000,0.00000000000,0.9959065, -0.2642200,52.08694
Peterborough,0.00106349038,0.00063809423,0.000000000000,0.00000000000,0.00000000000,0.00000000000,0.9982984, -0.2405299,52.56950
Welwyn Garden City,0.00012090290,0.00018135435,0.000000000000,0.00000000000,0.00000000000,0.00000000000,0.9996977, -0.2086610,51.80317
Bridlington,0.00019143947,0.00057431840,0.000000000000,0.00000000000,0.00000000000,0.00000000000,0.9992342, -0.1988020,54.08535
Stevenage,0.00050761679,0.00106599526,0.000000000000,0.00000000000,0.00000000000,0.00000000000,0.9984264, -0.1966120,51.90376
Crawley,0.00000000000,0.00000000000,0.000000000000,0.00000000000,0.00000000000,0.00000000000,1.0000000, -0.1872275,51.10914
Huntingdon,0.00000000000,0.00128117526,0.000000000000,0.00000000000,0.00000000000,0.00000000000,0.9987188, -0.1825520,52.33146
Hove,0.00021036816,0.00047917193,0.000000000000,0.00000000000,0.00000000000,0.00021036816,0.9991001, -0.1687490,50.82793
Spalding,0.00098057909,0.00098057909,0.000000000000,0.00000000000,0.00000000000,0.00000000000,0.9980388, -0.1537024,52.79010
Brighton,0.00021276135,0.00048462307,0.000000000000,0.00000000000,0.00000000000,0.00021276135,0.9990899, -0.1371630,50.82253
London,0.00015625299,0.00037555543,0.000005482561,0.00001644768,0.00000000000,0.00001279264,0.9994335, -0.1277583,51.50735
Grimsby,0.00009724000,0.00077792004,0.000000000000,0.00000000000,0.00000000000,0.00000000000,0.9991248, -0.0807840,53.56747
Boston,0.00083371931,0.00166743863,0.000000000000,0.00000000000,0.00000000000,0.00055581288,0.9969430, -0.0265770,52.97894
Royston,0.00000000000,0.00643362642,0.000000000000,0.00000000000,0.00000000000,0.00000000000,0.9935664, -0.0240660,52.04814
Louth_Lincs,0.00014699037,0.00044097112,0.000000000000,0.00000000000,0.00000000000,0.00029398074,0.9991181, -0.0077110,53.36596
Lewes,0.00022035375,0.00053864250,0.000000000000,0.00000000000,0.00000000000,0.00022035375,0.9990207,  0.0087800,50.87387
Chatteris,0.00065863136,0.00043908758,0.000000000000,0.00000000000,0.00000000000,0.00000000000,0.9989023,  0.0540120,52.45610
Uckfield,0.00000000000,0.00261003367,0.000000000000,0.00000000000,0.00000000000,0.00000000000,0.9973900,  0.0959130,50.96641
Cambridge,0.00006902462,0.00051768468,0.000000000000,0.00000000000,0.00000000000,0.00020707387,0.9992062,  0.1218170,52.20534
Bishop's Stortford,0.00000000000,0.00000000000,0.000000000000,0.00000000000,0.00000000000,0.00000000000,1.0000000,  0.1536502,51.87216
Wisbech,0.00100630619,0.00040252247,0.000000000000,0.00000000000,0.00000000000,0.00000000000,0.9985912,  0.1587970,52.66632
Sevenoaks,0.00000000000,0.00108199086,0.000000000000,0.00000000000,0.00000000000,0.00000000000,0.9989180,  0.1908980,51.27241
Tunbridge Wells,0.00000000000,0.00324356202,0.000000000000,0.00000000000,0.00000000000,0.00000000000,0.9967564,  0.2636950,51.13238
Eastbourne,0.00014570298,0.00167558423,0.000000000000,0.00000000000,0.00000000000,0.00029140595,0.9978873,  0.2904720,50.76803
Brentwood,0.00000000000,0.00047373782,0.000000000000,0.00000000000,0.00000000000,0.00007895630,0.9994473,  0.3071749,51.62047
Skegness,0.00024126422,0.00096505690,0.000000000000,0.00000000000,0.00000000000,0.00048252845,0.9983112,  0.3378810,53.14640
Downham Market,0.00000000000,0.00032914587,0.000000000000,0.00000000000,0.00000000000,0.00000000000,0.9996709,  0.3854720,52.60661
King's Lynn,0.00044774449,0.00022387224,0.000000000000,0.00000000000,0.00000000000,0.00000000000,0.9993284,  0.4022963,52.75168
Bexhill,0.00000000000,0.00192435220,0.000000000000,0.00000000000,0.00000000000,0.00000000000,0.9980756,  0.4662071,50.84991
Chelmsford,0.00018646280,0.00046615700,0.000000000000,0.00000000000,0.00000000000,0.00000000000,0.9993474,  0.4685497,51.73559
Mildenhall,0.00000000000,0.00032388664,0.000000000000,0.00000000000,0.00000000000,0.00000000000,0.9996761,  0.5156095,52.34757
Medway,0.00000000000,0.00078534913,0.000000000000,0.00000000000,0.00000000000,0.00011219273,0.9991025,  0.5417861,51.40474
Braintree,0.00021828104,0.00054570259,0.000000000000,0.00000000000,0.00000000000,0.00000000000,0.9992360,  0.5509269,51.88009
Gillingham,0.00000000000,0.00087003596,0.000000000000,0.00000000000,0.00000000000,0.00009667066,0.9990333,  0.5514380,51.38632
Hastings,0.00000000000,0.00216133063,0.000000000000,0.00000000000,0.00000000000,0.00000000000,0.9978387,  0.5734530,50.85426
Maldon,0.00018278194,0.00100530068,0.000000000000,0.00000000000,0.00000000000,0.00000000000,0.9988119,  0.6714480,51.73181
Southend,0.00000000000,0.00052627754,0.000000000000,0.00000000000,0.00000000000,0.00007518251,0.9993985,  0.7077123,51.54593
Bury St Edmunds,0.00000000000,0.00025578719,0.000000000000,0.00000000000,0.00000000000,0.00000000000,0.9997442,  0.7104932,52.24292
Thetford,0.00000000000,0.00044127381,0.000000000000,0.00000000000,0.00000000000,0.00000000000,0.9995587,  0.7516570,52.41286
Ashford,0.00000000000,0.00000000000,0.000000000000,0.00000000000,0.00023111590,0.00000000000,0.9997689,  0.8750190,51.14647
Faversham,0.00000000000,0.00042461493,0.000000000000,0.00000000000,0.00021230746,0.00000000000,0.9993631,  0.8893580,51.31599
Colchester,0.00072476898,0.00018119224,0.000000000000,0.00000000000,0.00000000000,0.00000000000,0.9990940,  0.8918740,51.89593
New Romney,0.00000000000,0.00047164249,0.000000000000,0.00000000000,0.00000000000,0.00000000000,0.9995284,  0.9394730,50.98512
Canterbury,0.00000000000,0.00046432620,0.000000000000,0.00000000000,0.00023216310,0.00000000000,0.9993035,  1.0789089,51.28023
Ipswich,0.00048250009,0.00064951936,0.000000000000,0.00000000000,0.00000000000,0.00000000000,0.9988680,  1.1482200,52.05674
Clacton,0.00070819962,0.00064180591,0.000000000000,0.00000000000,0.00000000000,0.00000000000,0.9986500,  1.1530350,51.78953
Folkestone,0.00000000000,0.00042993802,0.000000000000,0.00000000000,0.00021496901,0.00000000000,0.9993551,  1.1694560,51.08140
Sheringham,0.00021995586,0.00054988966,0.000000000000,0.00000000000,0.00000000000,0.00000000000,0.9992302,  1.2109589,52.94442
Harwich,0.00071957006,0.00065211036,0.000000000000,0.00000000000,0.00000000000,0.00000000000,0.9986283,  1.2602970,51.93473
Norwich,0.00022169508,0.00055423770,0.000000000000,0.00000000000,0.00000000000,0.00000000000,0.9992241,  1.2973550,52.63089
Cromer,0.00021502910,0.00053757275,0.000000000000,0.00000000000,0.00000000000,0.00000000000,0.9992474,  1.3018660,52.93145
Dover,0.00000000000,0.00063240274,0.000000000000,0.00000000000,0.00015810068,0.00015810068,0.9990514,  1.3134027,51.12788
Felixstowe,0.00071258378,0.00064577905,0.000000000000,0.00000000000,0.00000000000,0.00000000000,0.9986416,  1.3512550,51.96173
Margate,0.00000000000,0.00083881124,0.000000000000,0.00000000000,0.00016776225,0.00016776225,0.9988257,  1.3868339,51.38965
Ramsgate,0.00000000000,0.00080921644,0.000000000000,0.00000000000,0.00016184329,0.00016184329,0.9988671,  1.4198950,51.33555
Great Yarmouth,0.00009693774,0.00058162642,0.000000000000,0.00000000000,0.00000000000,0.00000000000,0.9993214,  1.7280470,52.59823
Lowestoft,0.00000000000,0.00062581051,0.000000000000,0.00000000000,0.00000000000,0.00000000000,0.9993742,  1.7534490,52.48114
Swaffham,0.00000000000,0.00042413318,0.000000000000,0.00000000000,0.00000000000,0.00000000000,0.9995759,  0.6874810,52.64747
Dereham,0.00017702144,0.00053106431,0.000000000000,0.00000000000,0.00000000000,0.00000000000,0.9992919,  0.9378270,52.68162
Ely,0.00000000000,0.00045745654,0.000000000000,0.00000000000,0.00000000000,0.00000000000,0.9995425,  0.2623630,52.39954
March,0.00104257168,0.00041702867,0.000000000000,0.00000000000,0.00000000000,0.00000000000,0.9985404,  0.0886220,52.55172
St Neots,0.00000000000,0.00140673356,0.000000000000,0.00000000000,0.00000000000,0.00000000000,0.9985933, -0.2651030,52.23008
Banham,0.00000000000,0.00026030369,0.000000000000,0.00000000000,0.00000000000,0.00000000000,0.9997397,  1.0402849,52.45125
Holt,0.00072771377,0.00000000000,0.000000000000,0.00000000000,0.00000000000,0.00000000000,0.9992723,  1.0867470,52.90936
Cromer,0.00021502910,0.00053757275,0.000000000000,0.00000000000,0.00000000000,0.00000000000,0.9992474,  1.3018660,52.93145
Hunstanton,0.00066104776,0.00000000000,0.000000000000,0.00000000000,0.00000000000,0.00000000000,0.9993390,  0.4910320,52.93891
Horncastle,0.00013468920,0.00094282443,0.000000000000,0.00000000000,0.00000000000,0.00026937841,0.9986531, -0.1124500,53.20731
Market Weighton,0.00061031431,0.00061031431,0.000000000000,0.00000000000,0.00000000000,0.00000000000,0.9987794, -0.6677465,53.86484
Hawes,0.00000000000,0.00202292650,0.000000000000,0.00000000000,0.00000000000,0.00000000000,0.9979771, -2.1968695,54.30383
Reeth,0.00037290242,0.00186451212,0.000000000000,0.00000000000,0.00000000000,0.00037290242,0.9973897, -1.9428115,54.38946
Aysgarth,0.00000000000,0.00209351012,0.000000000000,0.00000000000,0.00000000000,0.00000000000,0.9979065, -1.9967434,54.29159
Stanhope,0.00280964645,0.00175602903,0.002458440646,0.00000000000,0.00000000000,0.00737532194,0.9856006, -2.0113020,54.74946
Keswick,0.00103980128,0.00285945353,0.000000000000,0.00000000000,0.00000000000,0.00259950321,0.9935012, -3.1347060,54.60128
Oxenholme,0.00049307639,0.00123269096,0.000000000000,0.00000000000,0.00000000000,0.00000000000,0.9982742, -2.7243328,54.30134
