,placename,at,down,in,longitude,latitude
0,Dingle,0.32617032111760996,0.05936483031111638,0.8312491936969403,-10.264013499999999,52.14094
1,Tralee,0.32617032111760996,0.05936483031111638,0.8312491936969403,-9.6999325,52.27131
2,Killarney,0.3096792918866262,0.07880431936487323,0.8349057179001524,-9.5044265,52.059940000000005
3,Bantry,0.29841965968098577,0.06039232813403241,0.8535182412227693,-9.4539805,51.68035
4,Mayo,0.28949845616270675,0.07347590557039475,0.8541905615848655,-9.4289369,54.01526
5,Ballycastle,0.2856253921330314,0.2133464048807061,0.7862297236843541,-9.3724643,54.279669999999996
6,Abbeyfeale,0.3210753317811277,0.05608333603589132,0.8371027132218297,-9.2970823,52.386179999999996
7,Ennistymon,0.3320139702417112,0.05521837026037054,0.828558628581991,-9.2934951,52.940369999999994
8,Galway,0.34030764368748706,0.03782463,0.8390176228164029,-9.0567905,53.270669999999996
9,Claremorris,0.33457156556522893,0.07832164461232133,0.8147072245395968,-9.0017356,53.72388
10,Clare,0.3320139702417112,0.05521837026037054,0.828558628581991,-8.9811351,52.90453
11,Adare,0.3150609288328148,0.08263290812106265,0.828538410833632,-8.7925892,52.56363
12,Charleville,0.3252002674700406,0.07880431936487323,0.8221582671014872,-8.681017599999999,52.36206
13,Mallow,0.28149975311028874,0.06983382486238092,0.8626123769846287,-8.6539164,52.13898
14,Limerick,0.3150609288328148,0.08263290812106265,0.828538410833632,-8.6267343,52.66384
15,Loughrea,0.3137219765915653,0.044551195134234715,0.8490077578388701,-8.5660931,53.19891
16,Sligo,0.20888190278683916,0.268422433410128,0.8212462220088483,-8.476088800000001,54.27661
17,Cork,0.3137332299328406,0.05378561492952762,0.8443015153041936,-8.4756035,51.898509999999995
18,Nenagh,0.32495585896421825,0.08035014046781723,0.8215729151489982,-8.19834,52.8635
19,Roscommon,0.27617371861074846,0.1000008076126579,0.8516428043749925,-8.1890955,53.627590000000005
20,Tipperary,0.28149975311028874,0.06983382486238092,0.8626123769846287,-8.161851400000002,52.47379
21,Donegal,0.06270275795559453,0.2961892922928136,0.9271804841605171,-8.1096143,54.653830000000006
22,Leitrim,0.03494624,0.2522287901041202,1.0,-8.0020132,54.12469
23,Athlone,0.25131864347691674,0.12814263852860042,0.8577427878798769,-7.9406898,53.423930000000006
24,Longford,0.10720218139768765,0.1489795498594186,0.9655078794662771,-7.7932573000000005,53.727630000000005
25,Offaly,0.20273918048870682,0.08193760409843234,0.921142437567272,-7.7122229,53.235690000000005
26,Fermanagh,0.03494624,0.33352913733970624,0.9381195696892949,-7.6318728,54.343830000000004
27,Enniskillen,0.03494624,0.33352913733970624,0.9381195696892949,-7.631533599999999,54.343819999999994
28,Doon,0.03494624,0.28495426451661665,0.970038901515176,-7.60964,54.185930000000006
29,Westmeath,0.17014680804249727,0.11704099303042897,0.9300558972604631,-7.4653217000000005,53.534530000000004
30,Strabane,0.09242377004203473,0.37596798371045265,0.8621929389353399,-7.4633103,54.82739
31,Cavan,0.03494624,0.282377727759073,0.97442230190939,-7.3633319,53.98972
32,Mullingar,0.1725912056935342,0.1312995837892454,0.920796168512044,-7.340186800000001,53.525819999999996
33,Laois,0.221078063060833,0.05008510849329637,0.9222816916414696,-7.332300699999999,52.99429
34,Omagh,0.07180565604654725,0.4439788753766598,0.8445345007852832,-7.309959700000001,54.59771
35,Derry,0.15985293133324466,0.33774216233998705,0.8262560516855505,-7.308574799999999,54.99661
36,Kilkenny,0.16851429207554944,0.03782463,0.9723780629086471,-7.2447879,52.65415
37,Tyrone,0.05939751877110075,0.46860317459916856,0.8422007949747022,-7.131232000000001,54.491209999999995
38,Waterford,0.20134767358073777,0.03782463,0.9570215598217499,-7.110070200000001,52.25932
39,Monaghan,0.03494624,0.4397845264190922,0.9056421638253775,-6.9683132,54.2492
40,Carlow,0.219815149021395,0.03782463,0.9371410948520472,-6.934135899999999,52.83651
41,Kildare,0.2831054251694028,0.03782463,0.8777750464205922,-6.8194707999999995,53.21204
42,Dungannon,0.21747781440887975,0.2815907470808272,0.807488525625515,-6.7669352,54.508269999999996
43,Cookstown,0.29469077908639985,0.28209001574970877,0.7438193059599997,-6.7443895000000005,54.641819999999996
44,Coleraine,0.28597819219683157,0.2370608148736004,0.7738782840202126,-6.6646103000000005,55.132580000000004
45,Meath,0.2750581530086335,0.050462793600325885,0.8777554705055141,-6.656416900000001,53.60555
46,Armagh,0.2078269411163838,0.2604622118668332,0.8261613812765678,-6.652792,54.350280000000005
47,Magherafelt,0.30056369471263716,0.25235611528721164,0.7541194464573051,-6.607980499999999,54.75536999999999
48,Louth,0.12220386217017012,0.2903303148389614,0.8812919718851349,-6.4889423,53.925230000000006
49,Wexford,0.19729744757418013,0.05396461470377464,0.9398393619663719,-6.4633381,52.33692
50,Craigavon,0.25182598161274367,0.2961555997022433,0.7718703085998598,-6.4175653,54.442930000000004
51,Drogheda,0.2701247350824751,0.060192633285427594,0.8768585084949843,-6.3560985,53.717859999999995
52,Rosslare,0.20837589317046834,0.0398297527279326,0.9379302288713296,-6.3414908,52.25131
53,Newry,0.2377168314701564,0.2008698619272591,0.8319231186422401,-6.34023,54.1751
54,Ballymena,0.30512332978240925,0.22395559594179687,0.7648197700054619,-6.2802213,54.86529
55,Banbridge,0.27637889671851396,0.21249708660043148,0.7942558488662336,-6.2704803,54.34873
56,Dublin,0.277655330397123,0.045228643345757526,0.8782846620458952,-6.2603097000000005,53.34981
57,Antrim,0.28938639163917385,0.27798715416353975,0.7502626702703467,-6.2072498,54.719530000000006
58,Wicklow,0.2929072026424721,0.03782463,0.8726086094232679,-6.044589,52.980819999999994
59,Kilkeel,0.22406074553620392,0.22718131446783818,0.8297559685681404,-6.007004,54.06312
60,Belfast,0.3136429296839269,0.16481891620652728,0.7879010575486978,-5.93012,54.597280000000005
61,Down,0.27900069079104306,0.18865478357179574,0.8042292962233887,-5.7156921999999994,54.32875
62,Balivanich,0.4121460047571156,0.05571290682383485,0.7624944080275372,-7.3743509000000005,57.472269999999995
63,Western Isles,0.41357627317392165,0.06844113469073672,0.7548460017316658,-7.0194034,57.759890000000006
64,Dunvegan,0.4194919358673644,0.06205039477747179,0.7532378884455246,-6.581398200000001,57.4366
65,Stornoway,0.5062504300593312,0.04484572137539972,0.6907335961854565,-6.384869200000001,58.209430000000005
66,Scilly Isles,0.8337703706479412,0.4731029020929913,0.5753221,-6.327496599999999,49.92773
67,Portree,0.4255786649778319,0.06426754390226574,0.7471112688594687,-6.1960231,57.41246999999999
68,Islay,0.38254194145691456,0.04017639522342541,0.7947105877459907,-6.177067,55.73625
69,Mull,0.3702664216824691,0.04577699972149984,0.8019440488255416,-6.0008870000000005,56.4392
70,Broadford,0.4223048413710649,0.06144632574728464,0.7512350476914218,-5.9096592,57.24139
71,Kyle of Lochalsh,0.4289513851358757,0.05490321203958665,0.7491041611977122,-5.7143293,57.28261
72,Campbeltown,0.37476807078539215,0.039701985881668865,0.8013368745414899,-5.605373999999999,55.424119999999995
73,Penzance,0.8367714179510878,0.464584165920992,0.5753221,-5.537592,50.1188
74,Oban,0.3698257048899558,0.04366553428435615,0.80337982987567,-5.471047,56.41516
75,Lochgilphead,0.37750052271379486,0.041351976398529604,0.7982531865417825,-5.4323449,56.03829
76,Helston,0.8295788526898163,0.4615625588752782,0.5753221,-5.274996,50.10159
77,Redruth,0.8286258744246681,0.4715263538522051,0.5753221,-5.226666000000001,50.23302
78,Ullapool,0.5987984557446138,0.06598296366336132,0.6039728196442059,-5.161313,57.895419999999994
79,Ballachulish,0.3909093868066061,0.05524165221902305,0.7801759521757183,-5.133719999999999,56.673930000000006
80,Fort William,0.42652050712400974,0.05374586524402334,0.7516891447378977,-5.1052179,56.81981999999999
81,Achnasheen,0.5772564736897076,0.06169662257648376,0.623845261697893,-5.078765799999999,57.578590000000005
82,Newquay,0.8400613791618362,0.4713380160566015,0.5753221,-5.0737190000000005,50.4155
83,Falmouth,0.8330811034948308,0.4633187378377004,0.5753221,-5.066269999999999,50.152570000000004
84,Rothesay,0.3867658909194094,0.03782463,0.7932664628632052,-5.055793,55.83596
85,Truro,0.8268963765374242,0.4735137750326799,0.5753221,-5.051041000000001,50.2632
86,Milford Haven,0.5930575324337511,0.5282318671083467,0.5753221,-5.0426971,51.71431
87,Stranraer,0.3939058624398596,0.06469803930575094,0.7729052647658559,-5.024055000000001,54.903369999999995
88,Fishguard,0.583230825683829,0.5107910931933269,0.5753221,-4.975989,51.99393
89,Inchnadamph,0.6189751496137584,0.05779787247064233,0.5915648986513158,-4.974295,58.15221
90,Haverfordwest,0.5896602346657693,0.5503367303120124,0.5753221,-4.971319,51.80048
91,Dunoon,0.38570913184027805,0.03782463,0.7944166281031835,-4.926214,55.95097
92,Pembroke,0.5991029992928761,0.5281718640116569,0.5753221,-4.908637000000001,51.674040000000005
93,Girvan,0.38394095059240047,0.05322148486906137,0.7869267546277785,-4.8542179,55.240159999999996
94,Wadebridge,0.8265934350273297,0.47124602392729165,0.5753221,-4.836456,50.51665
95,Invergarry,0.46053607557462667,0.0575348935989252,0.7218249630785405,-4.800261,57.07095
96,St Austell,0.8254617318212334,0.4670957781922121,0.5753221,-4.7834252,50.340379999999996
97,Greenock,0.3935647064583511,0.03782463,0.7889466039638334,-4.7719830000000005,55.956480000000006
98,Helensburgh,0.3945378469599508,0.03782463,0.7871340667776179,-4.734014,56.00232
99,Bodmin,0.8193467130611711,0.4740320983127079,0.5753221,-4.7188629,50.4715
100,Tenby,0.5883607472671867,0.5503367303120124,0.5753221,-4.703579,51.672740000000005
101,Camelford,0.8307544751861677,0.4702427544841115,0.5753221,-4.682364,50.62206
102,Irvine,0.3941217859255789,0.03940342157721452,0.7855933459860068,-4.6696364,55.61156999999999
103,Cardigan,0.5467202976946397,0.5174970544221146,0.5753221,-4.660864,52.0837
104,Holyhead,0.4224587933315669,0.13410099019621327,0.7141544135344667,-4.633038,53.30944
105,Ayr,0.395267829326981,0.040996185165896884,0.783842103878149,-4.629179,55.45856
106,Dumbarton,0.39403898790418196,0.03782463,0.7868702732990294,-4.564554,55.94529
107,Bude,0.8371777104600473,0.4648147771916557,0.5753221,-4.543678,50.826640000000005
108,Isle of Man,0.4699375779503907,0.12686812480290782,0.678838820900916,-4.5126330999999995,54.27697
109,Kilmarnock,0.4052202765360137,0.045520708892105625,0.773366742895066,-4.498792,55.61472
110,Newton Stewart,0.39624565872077877,0.07271252232449599,0.7669070118360476,-4.483164,54.9603
111,Liskeard,0.8342761458197021,0.45458011650064967,0.5753221,-4.4647190000000005,50.45552
112,Altnaharra,0.6325061593483284,0.04443188298298297,0.5872498535015535,-4.442655,58.28023
113,Pwllheli,0.3900639795433011,0.19929318749699512,0.7076019375663094,-4.417633900000001,52.888819999999996
114,Lairg,0.6245109338909572,0.043761059719044176,0.594157584190876,-4.402414,58.022059999999996
115,Launceston,0.8145305955881668,0.46329936775285946,0.5753221,-4.360451599999999,50.636829999999996
116,Carmarthen,0.58013264016398,0.5535074302257366,0.5753221,-4.312131,51.857620000000004
117,Llangefni,0.42354337317107316,0.13407190352158235,0.7132783111055772,-4.311401999999999,53.25578
118,Caernarfon,0.4008726966158976,0.1431894087657016,0.7272603282207034,-4.273911,53.13955
119,Cumnock,0.39808323557318714,0.04599164802322289,0.7789888815220691,-4.265828900000001,55.45355
120,Aberaeron,0.5105926959016229,0.6128628594207574,0.5753221,-4.2581619,52.24279
121,Alness,0.6286411055094914,0.050304551995175556,0.587437268819675,-4.256825,57.69595
122,Glasgow,0.41019874690137487,0.038387343902038594,0.772906227515778,-4.251806,55.86424
123,Dalwhinnie,0.5139336097409235,0.04788051522154266,0.6828798032395893,-4.242783,56.9366
124,Inverness,0.63174425344025,0.045293694021558965,0.587437268819675,-4.224721,57.47776999999999
125,Saltash,0.8743667211502916,0.4198154832217839,0.5753221,-4.21643,50.409209999999995
126,Bideford,0.7388694588576866,0.45975142439527794,0.5753221,-4.206666,51.01668
127,Invergordon,0.629116402881965,0.04102325280888315,0.5917677179681871,-4.1728819999999995,57.688109999999995
128,Llanelli,0.5957068737479436,0.5555364308391436,0.5753221,-4.160248,51.680890000000005
129,Plymouth,0.8833078133863106,0.4324845913183406,0.5753221,-4.1426565,50.37546
130,Tavistock,0.8425592692580325,0.45932294802343737,0.5753221,-4.141654,50.551120000000004
131,Porthmadog,0.4101200907347529,0.17454023810187805,0.7037198089647423,-4.1333839999999995,52.92784
132,Bangor,0.4213011058478731,0.13383031376635085,0.7152429627794461,-4.129263,53.22739
133,Tywyn,0.5198816257905327,0.4084780526843593,0.5753221,-4.087249,52.58701
134,Aberystwyth,0.46799586861708437,0.5551829741118501,0.5753221,-4.08292,52.4153
135,Lampeter,0.5332597385653451,0.5539567909561515,0.5753221,-4.0785089999999995,52.1129
136,Barnstaple,0.7331362722189507,0.4671196910982536,0.5753221,-4.058338,51.07816
137,Tain,0.6331397459065873,0.04233177459884053,0.5877976582070898,-4.05523,57.8115
138,Okehampton,0.7756689007544779,0.41841881808158937,0.5753221,-4.004263,50.73831
139,Llandeilo,0.5446687901356962,0.5661939524702285,0.5753221,-3.9914300000000003,51.88469
140,Motherwell,0.4264152024200623,0.03782463,0.7601892637979711,-3.9810968,55.78321
141,Golspie,0.6356256402535769,0.05342818323368364,0.580112346497548,-3.976086,57.97341
142,Airdrie,0.4225629258124649,0.03782463,0.7648422341703051,-3.9625660000000003,55.86626999999999
143,Swansea,0.6146806713977849,0.5453576089920603,0.5753221,-3.9436459999999998,51.62144
144,Stirling,0.45421087722178766,0.04426209504061473,0.7337707641089397,-3.9369029,56.116519999999994
145,Tregaron,0.52791346368115,0.6495010278763913,0.5753221,-3.934385,52.22
146,Castle Douglas,0.41770699182987886,0.07925361700054932,0.7459537225367562,-3.9314139999999997,54.940419999999996
147,Dolgellau,0.4212827410200974,0.1956186760931889,0.6838306792457433,-3.8844,52.74215
148,Aberfeldy,0.5420605157023379,0.03782463,0.6688162732977456,-3.866969,56.62175
149,Machynlleth,0.520793459026643,0.33988220969385047,0.5753221,-3.853485,52.59027
150,Brora,0.6356256402535769,0.048333724731030286,0.5827034274539052,-3.8525480000000005,58.012159999999994
151,Llandudno,0.4200786725777447,0.12169637524510729,0.7224183379470447,-3.827609,53.324059999999996
152,Aviemore,0.6415684985217681,0.03782463,0.5889067461170695,-3.823812,57.19449
153,Dalbeattie,0.42846346682856895,0.07764154642176489,0.7379394712705795,-3.8225269999999996,54.934219999999996
154,Falkirk,0.4998705279641818,0.03782463,0.7011627451722905,-3.7839131,56.00188000000001
155,Kingsbridge,0.9015882020282662,0.42054523697185126,0.5753221,-3.777493,50.28395
156,Pitlochry,0.6370220314242521,0.03782463,0.601775824322529,-3.729711,56.70436
157,Colwyn Bay,0.4178719626870463,0.12517743817945934,0.7224603780269657,-3.72764,53.29318000000001
158,Totnes,0.8974484572548278,0.43394605475538106,0.5753221,-3.685797,50.43374
159,Grantown-on-Spey,0.6518117742693836,0.03782463,0.5787677057733548,-3.609628,57.33041
160,Dumfries,0.45329091657253395,0.05354825252180208,0.7298029507643268,-3.60512,55.070859999999996
161,Whitehaven,0.6887625892359682,0.14712967520973638,0.5753221,-3.589233,54.5497
162,Dartmouth,0.8785231505651345,0.44707367231949263,0.5753221,-3.578807,50.35252
163,Bridgend,0.6138612093379757,0.5307045499256681,0.5753221,-3.576945,51.504290000000005
164,Paignton,0.8847111206729779,0.4508257902521405,0.5753221,-3.564235,50.43508
165,Workington,0.6490742427077665,0.138536613435318,0.5753221,-3.5427519999999997,54.64357
166,Llanidloes,0.5886948699103979,0.46355818237180946,0.5753221,-3.5401949999999998,52.447790000000005
167,Exeter,0.8075307437962341,0.4228763982898297,0.5753221,-3.533899,50.71841
168,Torquay,0.8738810691408804,0.45274298698822435,0.5753221,-3.525315,50.46192
169,Thurso,0.6441641129461916,0.03782463,0.5824775021389095,-3.5220800000000003,58.59356999999999
170,Livingston,0.5210908129402015,0.03782463,0.6857433424238322,-3.518068,55.90071
171,Rhyl,0.4201508033693911,0.11403168945879982,0.7262577846354096,-3.4916339999999995,53.319140000000004
172,Tiverton,0.7834694199633258,0.4158991296837906,0.5753221,-3.491207,50.90205
173,Minehead,0.6756831588941701,0.49005229418149154,0.5753221,-3.481152,51.20428
174,Dunfermline,0.5211657961412683,0.03782463,0.6861146429770282,-3.452151,56.071740000000005
175,Perth,0.6278300053074352,0.03782463,0.6118343145894479,-3.4308381000000003,56.39499
176,Prestatyn,0.42341915660192697,0.11937978881181377,0.7208532274907465,-3.4076129999999996,53.33651
177,Builth Wells,0.5367322930531054,0.5371917616947045,0.5753221,-3.4045919999999996,52.15002
178,Braemar,0.6680133425553423,0.038512586958746514,0.5753221,-3.3979439,57.00646999999999
179,Brecon,0.5637600445350981,0.5484149907547279,0.5753221,-3.391463,51.94895
180,Merthyr Tydfil,0.711749961385019,0.4960130434491824,0.5753221,-3.381646,51.74873
181,Llandrindod Wells,0.5961586875853258,0.5484803569042238,0.5753221,-3.377742,52.2417
182,Corwen,0.4107004583665642,0.17431372798924263,0.7033581359107645,-3.369242,52.98005
183,Cockermouth,0.6783943545112749,0.16437939825538003,0.5753221,-3.367985,54.66326
184,Lockerbie,0.5830052118209005,0.04434626342230156,0.6279488227814872,-3.349008,55.122240000000005
185,Blairgowrie,0.6454163597558792,0.03782463,0.5920023080324797,-3.3378318,56.58941
186,Elgin,0.6628704483702368,0.04736705023640968,0.5753221,-3.318485,57.64945
187,Newtown,0.6750689921644314,0.33461853110147893,0.5753221,-3.313106,52.51211
188,Ruthin,0.4080183729551888,0.1682460331391235,0.7086471630648052,-3.3103108,53.114869999999996
189,Sidmouth,0.8120969042409819,0.42618073286053504,0.5753221,-3.2375599999999998,50.67865
190,Barrow-in-Furness,0.5252668184799714,0.11531144004782076,0.6392746128622107,-3.2188939999999997,54.10896999999999
191,Peebles,0.5923432187814828,0.03782463,0.6290922487720124,-3.1936419999999996,55.65306999999999
192,Edinburgh,0.58301845794136,0.03782463,0.6446823791732802,-3.1882669999999997,55.95325
193,Cardiff,0.7367976327658851,0.45695077512517684,0.5753221,-3.17909,51.48158
194,Llangollen,0.4294700547611812,0.18000872221670497,0.685045990563767,-3.1716599999999997,52.96921
195,Kirkcaldy,0.6063218223504564,0.03782463,0.6313543901717352,-3.158137,56.11682
196,Welshpool,0.6293048572742242,0.3554808696120721,0.5753221,-3.146407,52.66035
197,Mold,0.40970227136580667,0.13905241292579013,0.722112825305176,-3.1419029999999997,53.1672
198,Taunton,0.8329728291591578,0.4031363889947128,0.5753221,-3.106849,51.01534
199,Wick,0.6551445997696426,0.03782463,0.5753221,-3.093716,58.43894
200,John o' Groats,0.6551445997696426,0.03782463,0.5753221,-3.0688997000000002,58.63734
201,Dalkeith,0.5863993055125469,0.03782463,0.642891343401986,-3.066606,55.893119999999996
202,Oswestry,0.47425800136985985,0.18461678337721152,0.6459179082396633,-3.056412,52.85715
203,Blackpool,0.5062005715056255,0.09885652142804593,0.6633032463285535,-3.0356748,53.81751
204,Birkenhead,0.4287683620437459,0.11844062362335168,0.7169377235585545,-3.023009,53.389990000000004
205,Cupar,0.6232349300274664,0.03782463,0.6142241808121373,-3.010137,56.32023
206,Southport,0.4651613551351712,0.10047193602799188,0.6961872535761343,-3.010113,53.64571
207,Bridgwater,0.8335542517917137,0.3817612164463756,0.5753221,-3.003632,51.12789
208,Langholm,0.6156785458057293,0.0794269382482957,0.58327112899116,-2.998913,55.153059999999996
209,Newport,0.7697686332570854,0.4389743268769328,0.5753221,-2.997664,51.58415
210,Axminster,0.8817463341361629,0.4155664311255937,0.5753221,-2.9949369999999997,50.78273
211,Wrexham,0.4442483488945292,0.17739079531044571,0.6742400854408466,-2.9924939999999998,53.043040000000005
212,Liverpool,0.43111667647882485,0.11326515147595632,0.7176411728347915,-2.9915726,53.40837
213,Weston-super-Mare,0.7825806795212907,0.43008787456664954,0.5753221,-2.977255,51.347409999999996
214,Dundee,0.6390180146847507,0.03782463,0.5962448260214617,-2.9707209999999997,56.462019999999995
215,Kirkwall,0.6526311581809897,0.03782463,0.5753221,-2.9622491,58.984669999999994
216,Ambleside,0.6916778298118906,0.14030200422961892,0.5753221,-2.961333,54.428740000000005
217,Orkney Islands,0.6526311581809897,0.03782463,0.5753221,-2.9605206,58.980940000000004
218,Lyme Regis,0.9592808005220612,0.4311958181816576,0.5753221,-2.936639,50.725159999999995
219,Carlisle,0.643964991324182,0.15201547941086171,0.5753221,-2.932931,54.892469999999996
220,Chester,0.4247897197914115,0.13372210628914477,0.712432695757546,-2.893075,53.19339
221,Forfar,0.64636703264903,0.03782463,0.5829450776842909,-2.889062,56.64356
222,Morecambe,0.6311448957950367,0.11351437569459422,0.5753221,-2.864968,54.074169999999995
223,Selkirk,0.6222285765394641,0.03782463,0.6091764829718421,-2.838524,55.55066
224,Galashiels,0.6252016077117272,0.03782463,0.6038139659070998,-2.814449,55.62373
225,Lancaster,0.6247871096414213,0.10528398247934817,0.5753221,-2.8007399,54.046569999999996
226,St Andrews,0.6268080221787726,0.03782463,0.6077641288364783,-2.7967214,56.339780000000005
227,Hawick,0.6162289826756766,0.03782463,0.604854377655986,-2.780914,55.42706
228,Bridport,0.9325209410809827,0.4281790063360999,0.5753221,-2.758301,50.733579999999996
229,Shrewsbury,0.6443884373637657,0.30609220084670613,0.5753221,-2.7553267999999997,52.7073
230,Penrith,0.6698809283178181,0.16488750018770684,0.5753221,-2.752708,54.6641
231,Kendal,0.674096828515373,0.14203717264398882,0.5753221,-2.74629,54.32801
232,Street,0.8437332506421144,0.4080507751125579,0.5753221,-2.7429189999999997,51.12468
233,Glastonbury,0.8330552364395383,0.4042353731567976,0.5753221,-2.718454,51.14743
234,Hereford,0.8114527676752774,0.4714366331334955,0.5753221,-2.715974,52.0564
235,Ludlow,0.7442230796729921,0.33557984254329337,0.5753221,-2.7139129,52.36775
236,Preston,0.6167692602791947,0.07465741765095513,0.5848012595336312,-2.70309,53.7632
237,Whitchurch,0.5805912138209475,0.21589568471104692,0.5753221,-2.682045,52.96872
238,Wells,0.8363318343075223,0.4023800723595703,0.5753221,-2.6445979,51.20935
239,Yeovil,0.9293742646009857,0.43408580960203497,0.5753221,-2.633308,50.94206
240,Wigan,0.542078059973979,0.11127274581110876,0.6275216827328234,-2.6325074,53.54506
241,Warrington,0.5516595767360457,0.11430570990982376,0.6181098394967511,-2.5969501,53.39004
242,Arbroath,0.6477101267450543,0.03782463,0.5820266142588398,-2.591543,56.55911
243,Bristol,0.8274453285915087,0.41570315742478064,0.5753221,-2.58791,51.45451
244,Guernsey,0.8930880610293704,0.5664219137618585,0.5753221,-2.5852779999999997,49.46569
245,Ross-on-Wye,0.906243412350675,0.43420455390063667,0.5753221,-2.582446,51.91445
246,Jedburgh,0.6312727071815347,0.06861275238053298,0.5759638570842669,-2.5549369,55.47772
247,Sedbergh,0.6610839022945838,0.1456263168660692,0.5753221,-2.5281740000000004,54.32363
248,Nantwich,0.5717460094303781,0.18086182618131333,0.5753221,-2.524102,53.06718000000001
249,Banff,0.6657013279606966,0.048758036850103714,0.5753221,-2.524038,57.666509999999995
250,Dunbar,0.6204850119756261,0.03782463,0.6140951723226084,-2.516737,56.00209
251,Cinderford,0.9192843547023474,0.4181485833148991,0.5753221,-2.5009579,51.8253
252,Banchory,0.666885077870191,0.04641892559502439,0.5753221,-2.4909599,57.05386
253,Blackburn,0.6288932116133387,0.09339428369236974,0.5753221,-2.487529,53.748580000000004
254,Market Drayton,0.6301464743496693,0.2889679101419872,0.5753221,-2.483485,52.90355
255,Telford,0.7180041620951596,0.33140921720755057,0.5753221,-2.4672611,52.67759
256,Montrose,0.6668077111489235,0.03782463,0.5753221,-2.4661150000000003,56.70692
257,Turriff,0.6586497029840775,0.049232320002382486,0.5753221,-2.4623,57.53893000000001
258,Weymouth,0.9173041964530172,0.525457528344365,0.5753221,-2.457621,50.61443
259,Crewe,0.59836696044009,0.1643747923394406,0.5753221,-2.4438209,53.1004
260,Fortuneswell,0.9160588657593218,0.5460751854575208,0.5753221,-2.4422189999999997,50.55919
261,Dorchester,0.9137857689699196,0.5111698509109177,0.5753221,-2.4411810000000003,50.71116
262,Alston,0.5935859705844694,0.16020322058261435,0.5753221,-2.438685,54.812169999999995
263,Kelso,0.6362323438299005,0.06791416743148009,0.5753221,-2.432207,55.600030000000004
264,Wincanton,0.9132753439800622,0.44515634939393084,0.5753221,-2.416007,51.055690000000006
265,Clitheroe,0.6170092924856322,0.0684983616189151,0.5877366840453723,-2.3930830000000003,53.8711
266,Sark,0.9149753018464584,0.578323095791316,0.5753221,-2.3666256000000003,49.43007
267,Bath,0.9216043013396282,0.48296038243487893,0.5753221,-2.3590167,51.38106
268,Kidderminster,0.7615720198798089,0.365803295084882,0.5753221,-2.2496839,52.3886
269,Manchester,0.6128502451059786,0.09018989118807519,0.5801197275802819,-2.2426305,53.48076
270,Burnley,0.6527133310167601,0.09060442362261976,0.5753221,-2.2405035,53.78929
271,Gloucester,0.9606224488763246,0.4678115880049835,0.5753221,-2.238156,51.86424
272,Newcastle-under-Lyme,0.6236583760670502,0.24421437018011402,0.5753221,-2.2273002,53.01321
273,Worcester,0.7724814699864596,0.36537273658665786,0.5753221,-2.221575,52.19364
274,Trowbridge,0.9483936617274527,0.47192315666512,0.5753221,-2.208853,51.31966
275,Shaftesbury,0.9453071202898953,0.4978437372982404,0.5753221,-2.198083,51.0046
276,Alderney,0.9288682549846148,0.5838519615712658,0.5753221,-2.1973557,49.715
277,Stoke-on-Trent,0.6697351428445609,0.26696772111014944,0.5753221,-2.179404,53.002669999999995
278,Colne,0.6690935851695653,0.0982713177247886,0.5753221,-2.176991,53.85564
279,Blandford Forum,0.9021480557567112,0.5663311204325876,0.5753221,-2.165353,50.85691
280,Rochdale,0.6450602383934385,0.07957830252690644,0.5753221,-2.1561,53.60971
281,Jersey,0.924711122235942,0.5936298794474062,0.5753221,-2.13125,49.21444
282,Wolverhampton,0.7692813401354052,0.34628664116545577,0.5753221,-2.12882,52.586969999999994
283,Stafford,0.7322946942176073,0.3323375931956614,0.5753221,-2.12066,52.80669
284,Macclesfield,0.620809913130848,0.110208779229111,0.5753221,-2.119287,53.25866
285,Hexham,0.5782091784361443,0.13946315967600095,0.5835089282218587,-2.1121439,54.97266
286,Aberdeen,0.6712823209735047,0.04622478308344241,0.5753221,-2.094278,57.149719999999995
287,Dudley,0.787008791164908,0.3796532843146101,0.5753221,-2.081112,52.51225
288,Cheltenham,0.9205534424498463,0.48924846720796067,0.5753221,-2.0782533,51.899390000000004
289,Bromsgrove,0.7862403989559558,0.37999191377826314,0.5753221,-2.061906,52.33559
290,Skipton,0.6811195386567707,0.0886723365281565,0.5753221,-2.0162787,53.96285
291,Fraserburgh,0.6624656406771402,0.049290682635860956,0.5753221,-2.007631,57.69335
292,Berwick,0.6279635996609776,0.07366783976611536,0.5761105159890298,-2.005395,55.77024
293,Poole,0.9011880832273675,0.6047262880822493,0.5753221,-1.987248,50.71505
294,Walsall,0.7857077017281576,0.3891080309381267,0.5753221,-1.9829189999999999,52.586209999999994
295,Cirencester,1.0,0.4831779961893301,0.5753221,-1.968243,51.71849
296,Evesham,0.8409118269842542,0.3862303429918339,0.5753221,-1.9467700000000001,52.09215
297,Buxton,0.6789387348954664,0.09212456516683322,0.5753221,-1.91483,53.259080000000004
298,Keighley,0.6842945438604642,0.09431351094334081,0.5753221,-1.9123580000000002,53.8678
299,Birmingham,0.7913060827162002,0.3828031629644987,0.5753221,-1.8904009999999998,52.48624
300,Bournemouth,0.925439776083516,0.5941574776540518,0.5753221,-1.880769,50.719159999999995
301,Halifax,0.6865881936273345,0.08272395382928913,0.5753221,-1.8575400000000002,53.727019999999996
302,Salisbury,0.9125849827521054,0.5978468794162374,0.5753221,-1.794472,51.06878
303,Ringwood,0.929102152557093,0.6089360321561075,0.5753221,-1.7888169999999999,50.84495
304,Huddersfield,0.6910547932610773,0.09152043304190716,0.5753221,-1.7850351000000002,53.645790000000005
305,Peterhead,0.6642571100896012,0.04766542525664735,0.5753221,-1.784066,57.50812
306,Swindon,0.947038102993002,0.5632717196382754,0.5753221,-1.7797176,51.55577
307,Bradford,0.6910526441854865,0.07565412524129007,0.5753221,-1.759398,53.79598000000001
308,Ashbourne,0.8452834374768852,0.2603721125796903,0.5753221,-1.7321790000000001,53.016630000000006
309,Marlborough,0.9394533509734667,0.588728806319468,0.5753221,-1.7270619999999999,51.42007
310,Stratford-upon-Avon,0.8312475122007906,0.38542298271292486,0.5753221,-1.7082979999999999,52.19173
311,Alnwick,0.5628101140498787,0.10413193564185205,0.6141266221533891,-1.7062990000000002,55.41274
312,Otley,0.7530030303138053,0.08902207066585519,0.5753221,-1.691786,53.90583
313,Bishop Auckland,0.5711422364116783,0.14069678801088914,0.5886853136350421,-1.6787880000000002,54.663819999999994
314,Burton upon Trent,0.841327888018626,0.41082858408717876,0.5753221,-1.6371358999999999,52.81403
315,Newcastle,0.5696834829747691,0.1323455683706579,0.5941312690263456,-1.61778,54.97825
316,Durham,0.5767302627627835,0.13295146714827302,0.5880354574377887,-1.5848520000000001,54.77525
317,Ashington,0.5580928149799477,0.13544446647151884,0.6020745977149451,-1.5659829,55.18298000000001
318,Darlington,0.6096701211949688,0.12057202699798641,0.5753221,-1.559458,54.52361
319,Leeds,0.7652684298959235,0.07414168125522187,0.5753221,-1.5490774,53.80076
320,Harrogate,0.7516780666009466,0.09979890444819171,0.5753221,-1.5418120000000002,53.99211999999999
321,Leamington Spa,0.8012414154687101,0.4057020103624275,0.5753221,-1.5200789,52.28519
322,Coventry,0.7766163304971917,0.44705852958215764,0.5753221,-1.519693,52.40682
323,Blyth,0.5590167221134681,0.13406067265805893,0.6020194000527588,-1.510277,55.12696
324,Wakefield,0.7390923766076013,0.07550522165749626,0.5753221,-1.505924,53.6833
325,Andover,0.9637322784784653,0.6481654384434478,0.5753221,-1.4919233,51.2112
326,Witney,0.9181841061480793,0.6062554521741248,0.5753221,-1.4850543999999999,51.785940000000004
327,Barnsley,0.7608193745338215,0.06443247354973905,0.5753221,-1.479726,53.55263000000001
328,Derby,0.9098132613515443,0.4079378355299346,0.5753221,-1.4746186000000001,52.92253
329,Sheffield,0.767624832670044,0.045429600089140244,0.5753221,-1.470085,53.381130000000006
330,Nuneaton,0.8108595837381247,0.4629191588562741,0.5753221,-1.465382,52.52049
331,Northallerton,0.6933720047112426,0.1187096595900028,0.5753221,-1.429959,54.337959999999995
332,South Shields,0.5691213629484285,0.14241801248796312,0.5894696339047145,-1.427406,54.99941999999999
333,Chesterfield,0.8095504450364344,0.16875230532402238,0.5753221,-1.421629,53.23505
334,Southampton,0.9602607789914497,0.636748256156059,0.5753221,-1.4043508999999998,50.9097
335,Wetherby,0.767176144760794,0.08991681715813471,0.5753221,-1.384816,53.92706
336,Sunderland,0.5760775689688176,0.12468176591069495,0.5927776426362145,-1.383801,54.90687
337,Rotherham,0.7759790318992761,0.07632381279992874,0.5753221,-1.3635008999999998,53.4326
338,Castleford,0.7568810958284918,0.0690421751734569,0.5753221,-1.345968,53.72346999999999
339,Thirsk,0.7103757252299794,0.09698286006180004,0.5753221,-1.341377,54.23385
340,Banbury,0.8888122602339859,0.5014656907845465,0.5753221,-1.339775,52.0629
341,Stockton,0.6207182062142748,0.11794823228100984,0.5753221,-1.3289821000000002,54.57046
342,Newbury,0.966857542350758,0.6413761290645789,0.5753221,-1.3231138999999998,51.40141
343,Isle of Wight,0.9381064276154807,0.6264397115258061,0.5753221,-1.304734,50.69385
344,Abingdon,0.9223249059222622,0.663038067201197,0.5753221,-1.2879528999999998,51.67078
345,Shetland Islands,0.6588896570423117,0.046775726343479436,0.5753221,-1.2659409,60.52965
346,Rugby,0.8252052884921028,0.47252905544273516,0.5753221,-1.265032,52.37088
347,Oxford,0.8862239135924693,0.6189942168624223,0.5753221,-1.2577263,51.75202
348,Middlesbrough,0.6182381729825328,0.11775863259062837,0.5753221,-1.234956,54.57423000000001
349,Hartlepool,0.6187494966767281,0.11127249343215317,0.5753221,-1.212926,54.69174
350,Loughborough,0.9019045850293285,0.4455407225432833,0.5753221,-1.206166,52.7721
351,Mansfield,0.8522168242219105,0.2181739095430919,0.5753221,-1.198674,53.1472
352,Nottingham,0.8977293218974899,0.40418899852370926,0.5753221,-1.1581086,52.95478000000001
353,Bicester,0.8603554516323382,0.502744494952484,0.5753221,-1.1535898999999998,51.8996
354,Leicester,0.9406582790460557,0.5023699645823992,0.5753221,-1.1397591999999999,52.636880000000005
355,Doncaster,0.7718472191684727,0.0753659715687535,0.5753221,-1.128462,53.522819999999996
356,Worksop,0.8340300180534072,0.14512957198674356,0.5753221,-1.122745,53.3093
357,Basingstoke,0.9455567256512373,0.6167997818436307,0.5753221,-1.0923964,51.26654
358,Portsmouth,0.9373191626154311,0.6248431622527901,0.5753221,-1.0879769,50.81977
359,York,0.7326589039190894,0.10931314941048692,0.5753221,-1.0872979,53.95997
360,Selby,0.7396197206834733,0.09503285406149037,0.5753221,-1.067189,53.783519999999996
361,Helmsley,0.711745272492821,0.09913798705825953,0.5753221,-1.0562636,54.24651
362,Towcester,0.8848983246939842,0.47947332550033184,0.5753221,-0.9896879999999999,52.13511
363,Reading,0.9324745601223238,0.6204901931216387,0.5753221,-0.9781303,51.45426
364,Retford,0.8327535843747982,0.14840967817771292,0.5753221,-0.9455030000000001,53.32136
365,Petersfield,0.9554323141023239,0.645503029746267,0.5753221,-0.93899,51.00759
366,Northampton,0.8518874295449989,0.5052360430967352,0.5753221,-0.9026559999999999,52.24048
367,Melton Mowbray,0.9137304791160843,0.4767758361283251,0.5753221,-0.887126,52.7664
368,Aylesbury,0.8582606499687662,0.4912124171455662,0.5753221,-0.8084,51.81561
369,Newark-on-Trent,0.8898486226320557,0.3863756501755107,0.5753221,-0.80657,53.070040000000006
370,Malton,0.6985300987218901,0.11888178203771023,0.5753221,-0.7978970000000001,54.13684
371,Chichester,0.9249028197786382,0.6166338426803353,0.5753221,-0.774936,50.83761
372,Gainsborough,0.7253968258309822,0.12426464659185564,0.5753221,-0.774465,53.400569999999995
373,Milton Keynes,0.8711045025517146,0.5295997610476049,0.5753221,-0.7594171,52.040620000000004
374,Aldershot,0.9282231806404705,0.5868928756070818,0.5753221,-0.7557509,51.24837
375,High Wycombe,0.792575717501122,0.5932567371615772,0.5753221,-0.748229,51.628609999999995
376,Midhurst,0.9243780155193734,0.6009575131385329,0.5753221,-0.737274,50.9869
377,Kettering,0.8568672675039177,0.5208290875831951,0.5753221,-0.7302489999999999,52.39632
378,Wellingborough,0.8493733236966179,0.5308420333617218,0.5753221,-0.693964,52.30242
379,Corby,0.8834031151202355,0.5503013341634918,0.5753221,-0.6842333,52.4923
380,Bognor Regis,0.9042960763467308,0.6348137714615177,0.5753221,-0.673061,50.783
381,Scunthorpe,0.7300904850694147,0.11023307070358583,0.5753221,-0.654413,53.58865
382,Grantham,0.8940634678288658,0.44955783837929303,0.5753221,-0.643582,52.912519999999994
383,Whitby,0.602509987438067,0.12670748559767941,0.5753221,-0.613347,54.486340000000006
384,Slough,0.8173656170334012,0.6276939087455744,0.5753221,-0.5950406,51.51054
385,Guildford,0.9101625447461958,0.6633862239704231,0.5753221,-0.570409,51.23622
386,Woking,0.8916306751860191,0.6440567721413004,0.5753221,-0.5600349,51.31677
387,Lincoln,0.8740609272307767,0.23812635882407052,0.5753221,-0.540579,53.23069
388,Bedford,0.8469292777124957,0.5365778498852496,0.5753221,-0.46677820000000003,52.13864
389,Heathrow,0.8080770388114065,0.5518432433926244,0.5753221,-0.4542955,51.47002
390,Driffield,0.722386010002423,0.12546798945207396,0.5753221,-0.443377,54.006
391,Beverley,0.7512903733643729,0.13199116522228088,0.5753221,-0.435093,53.84196
392,Luton,0.8182484182119857,0.5781437805433745,0.5753221,-0.4200255,51.87867
393,Scarborough,0.6884678532872202,0.11113728140669973,0.5753221,-0.399752,54.28311
394,Worthing,0.8564255347847616,0.5910013526250125,0.5753221,-0.372882,50.81787
395,Dorking,0.8201091660066726,0.6097197319079306,0.5753221,-0.332378,51.2322
396,Hull,0.7435481136410854,0.12488392145411671,0.5753221,-0.3274198,53.767619999999994
397,Horsham,0.8217197614025945,0.598981070442626,0.5753221,-0.325858,51.06288
398,Biggleswade,0.8314499551214405,0.5863166313567476,0.5753221,-0.26421999999999995,52.086940000000006
399,Peterborough,0.8582271634636517,0.5849225531008477,0.5753221,-0.2405299,52.5695
400,Welwyn Garden City,0.811612463528722,0.5489276355082553,0.5753221,-0.208661,51.80317
401,Bridlington,0.6911774077920557,0.11467304747967436,0.5753221,-0.198802,54.08535
402,Stevenage,0.7631785906432609,0.6581657652741951,0.5753221,-0.19661199999999998,51.90376
403,Crawley,0.8157880392533736,0.5672345109040958,0.5753221,-0.18722750000000002,51.109140000000004
404,Huntingdon,0.8651792667033676,0.5972756827450149,0.5753221,-0.182552,52.33146
405,Hove,0.8439611698770405,0.6019464600759837,0.5753221,-0.168749,50.82793
406,Spalding,0.8720509554418872,0.4893020346412831,0.5753221,-0.1537024,52.7901
407,Brighton,0.8332449412030501,0.5869551501143718,0.5753221,-0.137163,50.82253
408,London,0.8838785297150142,0.3272731046939835,0.5753221,-0.12775830000000002,51.50735
409,Grimsby,0.7362487979341055,0.16312179391971146,0.5753221,-0.08078400000000001,53.56746999999999
410,Boston,0.8817810710125299,0.4421153091686372,0.5753221,-0.026576999999999996,52.97894
411,Royston,0.8254497360720268,0.6686610072368403,0.5753221,-0.024066,52.048140000000004
412,Louth_Lincs,0.735046917641445,0.25592652037184,0.5753221,-0.007711,53.36596
413,Lewes,0.8269277139669478,0.5942925003952886,0.5753221,0.00878,50.873870000000004
414,Chatteris,0.8623264665418822,0.6962296855446547,0.5753221,0.054012,52.4561
415,Uckfield,0.7816902588928846,0.5960803529166363,0.5753221,0.095913,50.966409999999996
416,Cambridge,0.8499682268942431,0.729319342790057,0.5753221,0.12181700000000001,52.20534
417,Bishop's Stortford,0.7997212375440067,0.6860795718037688,0.5753221,0.15365020000000001,51.87216
418,Wisbech,0.8810622247644699,0.6415521002913589,0.5753221,0.158797,52.66631999999999
419,Sevenoaks,0.7512800187274356,0.5454718735642003,0.5753221,0.190898,51.27241
420,Tunbridge Wells,0.7605244432145655,0.6101038526783276,0.5753221,0.26369499999999996,51.13238
421,Eastbourne,0.7734564860449386,0.617225986804871,0.5753221,0.29047199999999995,50.768029999999996
422,Brentwood,0.7071979066909672,0.8480322833064824,0.5753221,0.30717490000000003,51.620470000000005
423,Skegness,0.7814168183295359,0.48360375948739814,0.5753221,0.337881,53.1464
424,Downham Market,0.8917754447326333,0.6391077470118016,0.5753221,0.385472,52.606609999999996
425,King's Lynn,0.9047306194311835,0.6241100013868223,0.5753221,0.4022963,52.75168000000001
426,Bexhill,0.7606353355150489,0.6146535512053557,0.5753221,0.4662071,50.849909999999994
427,Chelmsford,0.6977313459359555,0.9056343097075924,0.5753221,0.4685497,51.73559
428,Mildenhall,0.8678498252547562,0.7381006161706011,0.5753221,0.5156095,52.347570000000005
429,Medway,0.7106130613234031,0.8094673277144523,0.5753221,0.5417860999999999,51.404740000000004
430,Braintree,0.7437151163515386,0.910835082845285,0.5753221,0.5509269,51.88009
431,Gillingham,0.7103770537494356,0.8109330815937378,0.5753221,0.551438,51.38632
432,Hastings,0.7674268832710839,0.617291352954367,0.5753221,0.573453,50.85426
433,Maldon,0.6895282853319067,0.909219668245339,0.5753221,0.6714479999999999,51.7318
434,Southend,0.6853529440518646,0.912500026815264,0.5753221,0.7077123000000001,51.54593
435,Bury St Edmunds,0.8276812970913747,0.767517717949103,0.5753221,0.7104931999999999,52.24292
436,Thetford,0.8709697750492245,0.7332859197402112,0.5753221,0.751657,52.412859999999995
437,Ashford,0.7071794637149882,0.8475312479849119,0.5753221,0.8750190000000001,51.14647
438,Faversham,0.6823861647358656,0.898155311737855,0.5753221,0.889358,51.31599
439,Colchester,0.7430285062373403,0.8990519510723014,0.5753221,0.891874,51.89593
440,New Romney,0.753597425548109,0.7738235954385532,0.5753221,0.939473,50.98512
441,Canterbury,0.6787958799798331,0.9039118864304795,0.5753221,1.0789089,51.280229999999996
442,Ipswich,0.803004087268255,0.8945372070306215,0.5753221,1.14822,52.056740000000005
443,Clacton,0.7271864587606656,0.945638267009616,0.5753221,1.153035,51.78953
444,Folkestone,0.6944611171465402,0.845572850384329,0.5753221,1.169456,51.0814
445,Sheringham,0.884663528417168,0.6750933896777765,0.5753221,1.2109589,52.944419999999994
446,Harwich,0.7379813045271763,0.9685505535869295,0.5753221,1.260297,51.93473
447,Norwich,0.8440890594117417,0.7328140341880105,0.5753221,1.297355,52.63089
448,Cromer,0.8859796613830535,0.678935733087045,0.5753221,1.301866,52.93145
449,Dover,0.6803152373484018,0.8958680643581478,0.5753221,1.3134027,51.12788
450,Felixstowe,0.7557526357728324,1.0,0.5753221,1.3512549999999999,51.961729999999996
451,Margate,0.711883125923443,0.9104772094862688,0.5753221,1.3868339,51.38965
452,Ramsgate,0.709443886053824,0.9032112824497819,0.5753221,1.4198950000000001,51.33555
453,Great Yarmouth,0.8512644711423887,0.7465665420461447,0.5753221,1.728047,52.59823000000001
454,Lowestoft,0.8426130742960047,0.7758534793783048,0.5753221,1.7534490000000003,52.48114
455,Swaffham,0.8992973265226132,0.6655245677663364,0.5753221,0.687481,52.64747
456,Dereham,0.8934766138961806,0.6786551507831761,0.5753221,0.9378270000000001,52.681619999999995
457,Ely,0.8690719459320714,0.759271487954394,0.5753221,0.262363,52.39954
458,March,0.8729693140529734,0.6675502243585821,0.5753221,0.088622,52.551719999999996
459,St Neots,0.8700571212569795,0.5728600378240342,0.5753221,-0.26510300000000003,52.23008
460,Banham,0.8545108256556956,0.7501132866036871,0.5753221,1.0402849,52.45125
461,Holt,0.8921315660950737,0.6681092437451978,0.5753221,1.086747,52.90936
462,Hunstanton,0.8839228788203871,0.552944688249526,0.5753221,0.49103199999999997,52.93891
463,Horncastle,0.8142627426213542,0.311071448356136,0.5753221,-0.11245,53.20731
464,Market Weighton,0.7411064902512657,0.10312115792474338,0.5753221,-0.6677465,53.86484
465,Hawes,0.6673532637561644,0.1442817048854635,0.5753221,-2.1968695,54.303830000000005
466,Reeth,0.6386149262521267,0.1626374787039483,0.5753221,-1.9428115000000001,54.38946
467,Aysgarth,0.7212992029391226,0.14141897039228904,0.5753221,-1.9967433999999997,54.29159
468,Stanhope,0.5870888852584707,0.1495729558787324,0.5753221,-2.011302,54.74946
469,Keswick,0.7049259039764111,0.17555682053496513,0.5753221,-3.134706,54.60128
470,Oxenholme,0.6630097084685184,0.13383637086128486,0.5753221,-2.7243327999999996,54.30134
