,placename,at,at_the,down_,down_the,in_,in_the,up_,up_the,longitude,latitude
0,Leitrim,0.01,0.01,0.01,0.2612211663093663,0.2281795598252061,1.0,0.01,0.25919313255997883,-8.0020132,54.12469
1,Meath,0.033913342109002195,0.2751750231994086,0.029129724063199188,0.051212226305476616,0.22167630698941426,0.8873963879576953,0.22353469295961287,0.14635135641309896,-6.656416900000001,53.60555
2,Rosslare,0.0396212049693553,0.20741373930531126,0.2248532813539824,0.039707065216780316,0.27031172891613764,0.9290348991015358,0.01,0.053794799942559035,-6.3414908,52.25131
3,Wexford,0.0396212049693553,0.20741373930531126,0.2248532813539824,0.039707065216780316,0.27031172891613764,0.9290348991015358,0.01,0.053794799942559035,-6.4633381,52.33692
4,Drogheda,0.039885564842071335,0.2689376500103798,0.03001984218603305,0.059127684952126974,0.24005782327757336,0.8782704491914363,0.2303652276284192,0.15082340724624815,-6.3560985,53.71786
5,Offaly,0.05393884086246758,0.20386891698325127,0.24085778318230425,0.08316747063935219,0.2374985807133053,0.9065254670718134,0.30804770457883224,0.17287134106799756,-7.7122229,53.23569000000001
6,Dublin,0.06551043619378998,0.28126136682305863,0.029857970134154168,0.046578024509269365,0.2165260326032009,0.8828832787800711,0.2291230594072076,0.15001013977696093,-6.2603097000000005,53.34981
7,Bantry,0.0674847301045901,0.2997750990225873,0.1906755832460078,0.0623243476129824,0.17121860041988082,0.8711723841392487,0.2032221891801565,0.2280899547292227,-9.4539805,51.68035
8,Wicklow,0.06781515951160852,0.2891370411436643,0.030161056524456026,0.032148321437685284,0.20415012905402008,0.8890953533330784,0.2314488967644534,0.15153289872799616,-6.044589,52.98082
9,Cork,0.07215855707406504,0.3161237220680852,0.19456692634109904,0.05613983784895802,0.1675475631218903,0.8676571551423109,0.2073695858040535,0.15516323528290546,-8.4756035,51.89851
10,Newtown,0.0801096781514589,0.6745098256244321,0.15583385065936844,0.34160370348303226,0.15249514229044506,0.4263071233162882,0.2790275667465601,0.4523587427732776,-3.313106,52.51211
11,Killarney,0.08142858952714782,0.3118929086739637,0.20228498065822206,0.08107257001082581,0.1671036883348006,0.8508777593398302,0.215595506034446,0.2419773528601813,-9.5044265,52.05994000000001
12,Charleville,0.08187769888939157,0.32833476871268985,0.2026588934946585,0.08167646291739224,0.1678743705122293,0.8431867803862458,0.21599400900567872,0.16161642034274454,-8.681017599999999,52.36206
13,Louth,0.08309291515268667,0.12445643086424145,0.01,0.2932493415143316,0.3034364809512894,0.8567257698838271,0.01,0.09813073207353534,-6.4889423,53.925230000000006
14,Abbeyfeale,0.08323499870789784,0.3230601403531481,0.20378896452704226,0.05738212179090111,0.17020362470791028,0.8513584455244296,0.217198445470326,0.2437764397504017,-9.2970823,52.38618
15,Adare,0.08460752857575471,0.31772636754842304,0.20493170793826865,0.08534682493555662,0.1725590013805522,0.8469849449222197,0.21841637842888206,0.1634289415412349,-8.7925892,52.56363
16,Limerick,0.08460752857575471,0.31772636754842304,0.20493170793826865,0.08534682493555662,0.1725590013805522,0.8469849449222197,0.21841637842888206,0.1634289415412349,-8.6267343,52.66384
17,Dingle,0.08553113979754931,0.3273473099543227,0.2057006755611356,0.06022431793475511,0.1871096356902695,0.8376997915336358,0.21923594863951887,0.2460632711590225,-10.2640135,52.14094
18,Tralee,0.08553113979754931,0.3273473099543227,0.2057006755611356,0.06022431793475511,0.1871096356902695,0.8376997915336358,0.21923594863951887,0.2460632711590225,-9.6999325,52.27131
19,Kilkenny,0.0882320896050009,0.16780652094545606,0.20939354563128096,0.03619331486688078,0.2345492286716713,0.9592430848965492,0.26780617272607243,0.15028845247890396,-7.2447879,52.65415
20,Llanidloes,0.09081942705862113,0.5899432390759575,0.13361853099043494,0.4799560250736054,0.10558359652189583,0.4341255415747913,0.4557143752068074,0.5896215513829023,-3.540195,52.44779000000001
21,Clare,0.09441486300243664,0.33572321954308204,0.2130971054514235,0.05756487053435425,0.14909334618356485,0.8485845279218839,0.2271190696099025,0.25491102876881266,-8.9811351,52.90453
22,Ennistymon,0.09441486300243664,0.33572321954308204,0.2130971054514235,0.05756487053435425,0.14909334618356485,0.8485845279218839,0.2271190696099025,0.25491102876881266,-9.2934951,52.94037
23,Laois,0.09877152896209118,0.22931120970584,0.2909725646013114,0.0564754041691164,0.2068450979271538,0.9127169214720354,0.3721425541519942,0.06961344218436799,-7.3323006999999985,52.99429
24,Doon,0.09893742479482004,0.01952421504548504,0.01,0.2872886831523224,0.2610916693693295,0.9634272857354852,0.01,0.0835893721008037,-7.60964,54.185930000000006
25,Slough,0.1004581411356958,0.8099762484357349,0.1506126295723327,0.6274117775347061,0.2367020524872433,0.14835794286595105,0.2889415069082009,0.3002764013841508,-0.5950406,51.51054
26,Carlow,0.11588953228354973,0.19763661331809546,0.01,0.022683397954675458,0.25300303096750537,0.9436234881794128,0.2974614170002843,0.0556434971582744,-6.9341358999999985,52.83651
27,Kildare,0.1161419860175069,0.28686923188517593,0.029560913859235288,0.04026121336734337,0.225301802720428,0.8710527196460363,0.2268435074286397,0.14851768561763612,-6.8194708,53.21204
28,Waterford,0.12294853755426385,0.1987744679513572,0.16354185478418662,0.012217185604710723,0.2521821079415302,0.9359788200607718,0.20916364961601425,0.1565056387547119,-7.110070200000001,52.25932
29,Pwllheli,0.12706073261441506,0.391659585527557,0.10662028825742292,0.2059855166878199,0.13664474198421772,0.7382788797916078,0.2832158501515715,0.2354609045803708,-4.417633900000001,52.88882
30,Tipperary,0.13634787503349452,0.2819754092605499,0.1754215384136349,0.0714154828164188,0.18176288987019407,0.8751936519676526,0.1869644177850323,0.1398951723505026,-8.161851400000002,52.47379
31,Mallow,0.13634787503349452,0.2819754092605499,0.1754215384136349,0.0714154828164188,0.18176288987019407,0.8751936519676526,0.1869644177850323,0.1398951723505026,-8.6539164,52.13898
32,Welshpool,0.13710749758437518,0.627439507695157,0.08666615221864117,0.36107266275528616,0.16023451350031032,0.4615655563672158,0.2955803446223968,0.2488122943584684,-3.146407,52.66035
33,High Wycombe,0.1402187323885526,0.7710736938942062,0.4497373162964179,0.5969339102975579,0.18813884746111287,0.17593587605733196,0.4154196753477401,0.5887944605218972,-0.748229,51.62861
34,Machynlleth,0.14090749025542482,0.5249049654380985,0.1285629279360463,0.3552851976468764,0.10402122361413868,0.5642485086728023,0.21923594863951887,0.3759300012471654,-3.853485,52.59027
35,Castle Douglas,0.14346839989532406,0.4146490313702982,0.2397202658710764,0.07835796776090137,0.23030142366808365,0.7318545190755005,0.1962194369120181,0.2248184186893235,-3.931414,54.94042
36,Dalbeattie,0.1446914900123979,0.42374455987280896,0.2452805895830195,0.07681826919726015,0.2295645348537076,0.7247855250583868,0.2007707584752636,0.23003308992972296,-3.822527,54.93422
37,Porthmadog,0.14487130812637564,0.4118973783041783,0.0982179803020251,0.1802748552343287,0.14219010155769435,0.7310854887872001,0.2898852916039036,0.2169051914329036,-4.133384,52.92784
38,Cavan,0.14736949938773294,0.01,0.01,0.18722253948946704,0.3404231440446593,0.9810466992374935,0.01,0.09913206674342714,-7.3633319,53.98972
39,Dolgellau,0.15082930888133925,0.4241632602986744,0.10474909777139543,0.2039466843012295,0.12864304029143284,0.7156433605981328,0.2782454011047564,0.2197621262709214,-3.8844,52.74215
40,Holyhead,0.15281003265197254,0.4196144187735959,0.11473559013020684,0.13517814243525592,0.1962894749154077,0.7206239725839856,0.2476276990636156,0.20587351717237728,-4.633038,53.30944
41,Stranraer,0.15468469098052773,0.3925553703958901,0.23955265607304524,0.06585018284710878,0.22851618042117586,0.7561180162331304,0.1960822400851922,0.2109064602121692,-5.0240550000000015,54.90337
42,Newton Stewart,0.15521618973317586,0.3943279716640653,0.2399553124594737,0.07375482130671883,0.2278682324212143,0.7496754016112789,0.1964118232979189,0.22963148149197365,-4.483164,54.9603
43,Glasgow,0.15533824808933036,0.4087388537012298,0.096019107864164,0.04040391336655647,0.19512799218979396,0.7740849300148634,0.245609394803074,0.22971996956020946,-4.251806,55.86424
44,Dumbarton,0.15627343850785838,0.3929742398058845,0.13482348509202902,0.03828568610103413,0.2051822433223036,0.7811752202553449,0.2463342558508265,0.2303979409109372,-4.564554,55.94529
45,Helensburgh,0.15629575230109288,0.38722210454355227,0.1252020339908102,0.03312122487889818,0.2052141707941447,0.788598137222722,0.24635157343002384,0.2304141337771368,-4.734014,56.00232
46,Caernarfon,0.15672641668406948,0.39935723506816095,0.07360459338374642,0.1452398624683966,0.18386001337774896,0.7376812333961289,0.28241221865755084,0.21131349833129545,-4.273911,53.13955
47,Airdrie,0.15683270008749786,0.4231936293659267,0.09647196952942497,0.03631233692432389,0.17825453064301305,0.7738493194166456,0.19741420965332115,0.2308034008376503,-3.962566,55.86626999999999
48,Llangefni,0.1596413772923233,0.4204647891572347,0.07326814949153063,0.13500171717773546,0.2026596275114464,0.7170975884224263,0.2530091893829311,0.21034759211380136,-4.311401999999998,53.25578
49,Mullingar,0.1601815400086449,0.17315131996460456,0.01,0.13292571674605216,0.2448810829522021,0.9065934121654166,0.3449527979698376,0.06452729526184145,-7.3401868000000015,53.52582
50,Lochgilphead,0.1607230922285744,0.3755180102862329,0.12694609868071854,0.043011437921354916,0.19382629119499065,0.799259432283249,0.2497832352068115,0.2149338892137954,-5.4323449,56.03829
51,Campbeltown,0.1614347087920568,0.37298312161170977,0.12956801112231026,0.04130782055014886,0.20198438221413145,0.8003891462276445,0.2039537692616732,0.20029716882248624,-5.6053739999999985,55.42412
52,Corwen,0.16262167181532244,0.412816102768036,0.08832168385088138,0.17863882890164706,0.15356485081128604,0.7277805177416128,0.2606768922881981,0.17554514001023613,-3.369242,52.98005
53,Girvan,0.16542944992957806,0.38345223760757,0.21189100928252208,0.054426454205033815,0.2009585566903015,0.780903101845639,0.20647644509501828,0.22208648455952493,-4.8542179,55.24016
54,Greenock,0.16633200063590226,0.392905336527246,0.12465017793134553,0.034842126444986785,0.20030742976457225,0.7859269823488109,0.2452657074620806,0.21104664391831268,-4.7719830000000005,55.956480000000006
55,Motherwell,0.16640082193225186,0.4283441388826481,0.09590488286034904,0.039080267238946816,0.16703319911125528,0.7728575238712071,0.19625376825323387,0.2294466843410228,-3.9810968,55.78321
56,Magherafelt,0.1664184768016242,0.23374611368187598,0.3383903129595165,0.24882699335949665,0.3452549038903625,0.7298834352904113,0.8655760073984624,0.01,-6.607980499999999,54.75536999999999
57,Heathrow,0.1690077759073969,0.8046233804244222,0.15115249849333912,0.5540178164918762,0.1798524245908705,0.21784008294033885,0.19331814644738216,0.19889280490450087,-0.4542955,51.47002
58,Llandrindod Wells,0.16929393191514053,0.5944195019175895,0.4652369786921853,0.5630549210210659,0.07815181678717446,0.3621889272483826,0.3966799513065196,0.8676094385943781,-3.377742,52.2417
59,Ballachulish,0.16987011274459518,0.39079464026278377,0.10227086653361064,0.057714807411912414,0.1869685190290151,0.7834796068379131,0.2616008938114439,0.2055286143683953,-5.1337199999999985,56.67393000000001
60,Monaghan,0.17072552930892218,0.01,0.01,0.4341585295112873,0.3681969347277392,0.8288206185302156,0.5700134711368596,0.10662741837658786,-6.9683132,54.2492
61,Hexham,0.1711312098721234,0.5755945009522677,0.14874299229784327,0.1337748203848951,0.2183179792370537,0.5782086901436685,0.2853547230910323,0.24317011221481405,-2.1121439,54.97266
62,Stockton,0.17251635425312747,0.6200638996585759,0.13532827884189114,0.11719379713807458,0.18633266476838725,0.5740207709165251,0.17307958709515964,0.1888627975649007,-1.3289821000000002,54.57046
63,Dunoon,0.17423530644207927,0.384753077433344,0.12546654591573794,0.03667888832555215,0.20033555634690844,0.7903887101621183,0.2468720356280329,0.21242884756665287,-4.926214,55.95097
64,Rothesay,0.17486308962121178,0.3857228773502207,0.1257011356772124,0.03720661835710777,0.20117721149745574,0.7888165080210704,0.2473336040344397,0.2128260230761284,-5.055793,55.83596
65,Kilmarnock,0.17565772221398052,0.40446026004460667,0.13340331069049371,0.04701975513214116,0.19366230008962496,0.7727378593779946,0.19499157146876708,0.22797101323065586,-4.498792,55.61472
66,Ruthin,0.17578076139621138,0.40956349625121374,0.06814244177754572,0.1686379548553692,0.18569335515366409,0.7200425518825013,0.2614545707839748,0.1565056387547119,-3.3103108,53.11487
67,Irvine,0.1760300819357583,0.3932085785469071,0.12613720438478562,0.04042625635018509,0.2046989083914449,0.7793123077635551,0.19855331373922866,0.23213516353290986,-4.6696364,55.61156999999999
68,Donegal,0.1760778972069751,0.06759466554280957,0.01,0.3116100747464142,0.28110038100807466,0.8836120828686755,0.01,0.2166901681812768,-8.1096143,54.653830000000006
69,Hartlepool,0.17626790501407827,0.6176181078661183,0.13414714369605982,0.11402734668778618,0.1892902405527682,0.5758039070795069,0.17156896134056107,0.18721441712081885,-1.212926,54.69174
70,Oban,0.17699001096754266,0.3679172308976327,0.12870223273793133,0.04548132126568645,0.1969684519951456,0.8031329786892406,0.25323866483521,0.1800103141213195,-5.471047,56.41516
71,Llangollen,0.17808575716571778,0.4305667871326359,0.08919050470256723,0.18439488736325813,0.15286265375202732,0.7089928542719716,0.2632411793897764,0.17727198415911005,-3.17166,52.96921
72,Galway,0.17903198187760352,0.3437542747703907,0.3162647963270969,0.02193013025818932,0.08307624922971517,0.8694315023877124,0.3370752742467113,0.3152685691780578,-9.0567905,53.27067
73,Market Drayton,0.18131659826085908,0.6325455321398942,0.0250849876239191,0.29405326735923354,0.16822267020504142,0.4853409305638325,0.192496332663732,0.25206020122941275,-2.483485,52.90355
74,Dumfries,0.18245007901780075,0.4491663632697448,0.20413586975579368,0.05291429793567695,0.2148504622952798,0.720197034010745,0.19891948355146066,0.2279119949548205,-3.60512,55.07086
75,Stornoway,0.1836719703474481,0.4580708129682814,0.09414439067429134,0.03969996886034483,0.17267330449402662,0.7526487600358451,0.10702844702178012,0.15015653570310158,-6.3848692000000025,58.20943000000001
76,Balivanich,0.18533994682560406,0.4102238017356528,0.052555150841417625,0.056436339078243726,0.2134064698188296,0.7595514406895106,0.1613183800594222,0.1911172869583635,-7.3743509,57.47227
77,Darlington,0.1857393609999849,0.6089720771470003,0.1352392524111462,0.12042179618477393,0.18945547558560824,0.5781907742732154,0.17296572576472855,0.1887385531649569,-1.559458,54.52361
78,Middlesbrough,0.18579649411892604,0.6207342174526639,0.13526149988229394,0.11701470196427145,0.1861173962082465,0.572040222143272,0.17299417941206022,0.18876960114977048,-1.234956,54.57423000000001
79,Stirling,0.1860756208731232,0.4556837009146519,0.0920279846325616,0.04691612022380078,0.16688759048967688,0.7459316607572465,0.23540040141961616,0.2025577261690497,-3.9369029,56.11652
80,Mull,0.18617413940344799,0.3705178121523415,0.12773794419588694,0.04783422012026423,0.1906479182839163,0.8020671534149503,0.25134130318242304,0.17866160662330896,-6.0008870000000005,56.4392
81,Bangor,0.18657428919738595,0.41857778563366216,0.07074909619991082,0.1349736830567675,0.19673466273705367,0.7182962615662999,0.2714559986078629,0.20311557128396976,-4.129263,53.22739
82,Oswestry,0.18711257199706136,0.4769650551805,0.09047110934260214,0.1909701885579192,0.13890502731215534,0.6732848342832687,0.2937228998728069,0.17981727189864818,-3.056412,52.85715
83,Sunderland,0.1881891648415809,0.575762724652782,0.14814006298839252,0.13065474216477935,0.21424155979659573,0.5804982031734074,0.2841980443498529,0.2303705476875013,-1.383801,54.90687
84,Fort William,0.1885980603346987,0.4275715856904577,0.0905770292329578,0.05597711347762498,0.18609770068990286,0.7560311411631996,0.20594574659513548,0.1926223229397516,-5.1052179,56.81981999999999
85,Durham,0.1890240657938132,0.5687390260650413,0.14643843751962646,0.13008661208420969,0.2138336897991797,0.5877524405302962,0.2497187324826756,0.227724378041802,-1.584852,54.77525
86,Westmeath,0.19030167349362484,0.17462591772112054,0.01,0.12299868696327655,0.2242663713122129,0.9151345498772758,0.3772486225133601,0.07056858958876346,-7.4653217,53.53453
87,Nantwich,0.19085834678222974,0.5662117416763276,0.097798055857909,0.17916515371410646,0.2294471910286292,0.5740745185278832,0.1563498590831655,0.0818915911739856,-2.524102,53.06718000000001
88,Cumnock,0.19111842916344665,0.3977093440872579,0.20245574256202167,0.04699755267042217,0.18671890424916648,0.7782268764423539,0.19728228288602154,0.2121972248784818,-4.265828900000002,55.45355
89,Islay,0.1915786545545544,0.3801526957488915,0.12757330377285495,0.04141876259778917,0.2024512005524144,0.7910333434631242,0.20081387714411525,0.19721357757491573,-6.177067,55.73625
90,South Shields,0.1923491206826113,0.5611005632156529,0.14990219061483442,0.13801225856930707,0.21976169528517625,0.5850992015268375,0.2875785713583763,0.2331108012083305,-1.427406,54.99941999999999
91,Blyth,0.19411583365244234,0.5556697090287629,0.15065056448001468,0.13220392595731958,0.21450955706023173,0.5935010686985741,0.2890142944930998,0.2462886772554721,-1.510277,55.12696
92,Reading,0.1942485993599292,0.9139519718377808,0.35091044966186674,0.6237773188644481,0.1841313968883984,0.060145943356778135,0.7180812388673644,0.3134253628478572,-0.9781303,51.45426
93,Ashington,0.1947686278965189,0.5580986024083111,0.1509270818164776,0.1251597734112312,0.21536178559431088,0.5943880733036289,0.2895447709727365,0.2467407266463021,-1.5659829,55.18298000000001
94,Stanhope,0.19512589379479006,0.5787131453007499,0.15268562791984353,0.14839689795074087,0.21212045613161915,0.5697527373252822,0.2603719533227907,0.2374392933643033,-2.011302,54.74946
95,Newcastle,0.1954234655282545,0.5579139450012425,0.14962941925913964,0.1270860477482207,0.21136207501476995,0.5957682713990705,0.28705528132354824,0.24461926444657225,-1.61778,54.97825
96,Wrexham,0.19557663786716087,0.4421913321111838,0.08237109289866021,0.1799008561718909,0.1805428043391231,0.6894327801611143,0.2431140391452777,0.14552706782726502,-2.992494,53.04304000000001
97,Western Isles,0.19885608434341387,0.41223974014972503,0.054603005435089176,0.06988512895976688,0.20667654575438224,0.7522495403565125,0.16760426400866832,0.1985643048094771,-7.0194034,57.75989000000001
98,Woking,0.19898944944461397,0.8803981451964021,0.19430256973732507,0.640546079382513,0.2167859443382537,0.08321414772345062,0.4970107953605388,0.2014381407330045,-0.5600349,51.31677
99,Bishop Auckland,0.1993639615347257,0.5700518637639812,0.15233911556224586,0.1406689657924705,0.16786213855873172,0.603474461940775,0.2597810405951049,0.21260295148036729,-1.6787880000000002,54.66382
100,Cinderford,0.19961878559836727,0.9156332371841802,0.5089004594418002,0.4142321714232396,0.061983523904174165,0.19378515355760195,0.3027273633094085,0.7154073600528915,-2.5009579,51.8253
101,Athlone,0.2015749069815881,0.2699294601100712,0.04870655760977628,0.14674822464619391,0.12225761503029275,0.8589808033138273,0.31146893140405224,0.2913187998337206,-7.9406898,53.42393000000001
102,Shrewsbury,0.20211302631025085,0.6400445408367468,0.15791678042418425,0.3086352961808393,0.18713693298762285,0.4504499418748315,0.20196939904295952,0.3148386931720454,-2.7553268,52.7073
103,Ayr,0.20284044507162816,0.3938790653251241,0.20582940025148505,0.04182353595843247,0.19597047662532427,0.7773080965198931,0.2005697366703164,0.2157332152548131,-4.629179,55.45856
104,Armagh,0.202879541888834,0.20341912347763247,0.01,0.2592892710959922,0.3283240143585166,0.7638377281864981,0.7355012511950971,0.06879188155439485,-6.652792,54.35028000000001
105,Newcastle-under-Lyme,0.20343409005427368,0.6178030187493806,0.09266109192854256,0.24399556906314604,0.21595354953668194,0.5011173756562532,0.14813740029085354,0.15887505203226068,-2.2273002,53.01321
106,Broadford,0.2054127431920794,0.4223501028395164,0.0527371689605987,0.062349079469074475,0.2070329309757775,0.7459958874626429,0.1618770647955922,0.21196645904824127,-5.9096592,57.24139
107,Llandudno,0.20690738590642835,0.4239840948758013,0.07225415818026906,0.1102868642367243,0.2111533025203284,0.7213291142021805,0.22178460084166005,0.15557737308202846,-3.827609,53.32406
108,Alston,0.2071197892422724,0.5881670046490068,0.2522976338503341,0.15213815327230562,0.2380631855724869,0.5427464218119299,0.2581430687014425,0.2354067214314297,-2.438685,54.81217
109,Portree,0.20737175256319146,0.4243393840072237,0.053018711393214124,0.062362218267623386,0.20145149750554536,0.7467618754333191,0.1627412844462513,0.213098084212557,-6.1960231,57.41246999999999
110,Aberfeldy,0.21379687173696527,0.546385467500085,0.10572657947497466,0.033157620053488226,0.1522990854990744,0.6927847381122283,0.15453733253494853,0.108404786541301,-3.866969,56.62175
111,Colwyn Bay,0.2138242803767625,0.40768126652928816,0.06878369886583215,0.12810405872241976,0.22334911301405908,0.7199925226593504,0.2111319876359028,0.1481047850164436,-3.72764,53.29318000000001
112,Rhyl,0.2161964354873227,0.41371087373159454,0.10446982120031786,0.11215503276408846,0.25811038985585444,0.7051142373366062,0.20041923031399936,0.1405900010694986,-3.4916339999999995,53.31914
113,Ross-on-Wye,0.2170437602365207,0.9006887877593979,0.28533590511054285,0.4371638013312484,0.07984328172393419,0.18532041182163486,0.31733346766726755,0.7974132455826876,-2.582446,51.91445
114,Prestatyn,0.21798649756680205,0.4135761933807057,0.10496490280979803,0.1153639208310803,0.2560516207787581,0.7043654891657997,0.20136900955634726,0.141256256199542,-3.407613,53.33651
115,Kyle of Lochalsh,0.2191362981798456,0.4259815295277375,0.0528959345894015,0.05514065681064728,0.20680791831708767,0.7448962586591964,0.16236441092110113,0.21260459524864234,-5.7143293,57.28261
116,Tywyn,0.22014510504442936,0.5119233934108525,0.4309996007149963,0.41602916560338427,0.11716324827334225,0.5118151785282687,0.2839678327251789,0.4312042975587103,-4.087249,52.58701
117,Dalwhinnie,0.22114761827502386,0.513284180356423,0.10461685551373924,0.049654962503133636,0.1737767372708383,0.6950049539071977,0.16056104562935558,0.17019689511058678,-4.242783,56.9366
118,Holt,0.2262942034132475,0.8683152307676837,0.9027935075976988,0.6607138541112777,0.10849666734552857,0.06043834388397833,0.7773798084341542,0.6928721888327419,1.086747,52.90936
119,Dunvegan,0.2274273844733325,0.4199987731752228,0.05316680554509677,0.06322242313732586,0.2011034742410609,0.7490121763692369,0.16319585337226727,0.1933415633663227,-6.5813982000000015,57.4366
120,Mold,0.22847196424453026,0.402065543705168,0.10568581224037042,0.13765350613406238,0.2482847449502937,0.7022760930286643,0.2534400488837167,0.16118994553810992,-3.141903,53.1672
121,Whitchurch,0.2293053939576481,0.5785214328062915,0.09241811482476274,0.22200972186779472,0.16863295895032426,0.562856817377448,0.2256529413867369,0.13266287610205044,-2.682045,52.96872
122,Strabane,0.2293593121466727,0.09940242142428103,0.01,0.3995488263048021,0.22608292006722466,0.8529083373362346,0.01,0.01,-7.4633103,54.82739
123,Roscommon,0.229754367094048,0.2777232616201302,0.05831833311676692,0.10084435399829796,0.12951994005375286,0.8719900915095341,0.37293434846131385,0.20928466422255806,-8.1890955,53.62759000000001
124,Invergarry,0.2316745248544733,0.4686583868386372,0.048957976875092235,0.05835270662060544,0.1905871040518381,0.7201987241872027,0.15027683412356768,0.15929548948586356,-4.800261,57.07095
125,Cromer,0.23203813887707125,0.8634335750003528,0.8976560137491016,0.6784526373714085,0.1125077805935842,0.055731202448998166,0.7047540061829833,0.6889292914890086,1.301866,52.93145
126,Swindon,0.2321121640006588,0.9450353772498862,0.4940937121227668,0.5789185096583519,0.08588248050471943,0.09819215345720528,0.7928889976710194,0.2431089911396693,-1.7797176,51.55577
127,Falkirk,0.2332925064479097,0.4981282472940782,0.07494495098530349,0.03641779861748922,0.1847662145427976,0.7055567255332591,0.2300439877028361,0.17212924089591947,-3.7839131,56.00188000000001
128,Chester,0.2335634868966404,0.41846841065610535,0.2013383256354037,0.1293645402516579,0.2512446703754595,0.6878517891024856,0.2491972887214732,0.15849150755864108,-2.893075,53.19339
129,Nenagh,0.23544452059469115,0.3247944244700509,0.25223572466573563,0.0809175040835667,0.14286818024536746,0.8370318337975118,0.2688330397349284,0.15086471129588466,-8.19834,52.8635
130,Braintree,0.2360449496243641,0.7328220662179517,0.7150431607335843,0.9257480824380212,0.12030720585762684,0.060941340397819815,0.7978167136630944,0.4312384319807638,0.5509269,51.88009
131,Birkenhead,0.2360536135880375,0.4173493132611731,0.20842181994693096,0.11396425235036944,0.2870912739386068,0.6818661981948236,0.18816238060671373,0.13199207437890564,-3.023009,53.38999
132,Aldershot,0.2361447759227904,0.935233959794113,0.24039003809589346,0.5774763332999828,0.18914739621446608,0.06808571628495114,0.6368596306557657,0.2629114325762276,-0.7557509,51.24837
133,Liverpool,0.236213733444984,0.417571358406804,0.2085057573257542,0.10844989157329454,0.2845243604882471,0.6855676846374114,0.1882381596222973,0.1320452301726747,-2.9915726,53.40837
134,Luton,0.2396929414987649,0.8060069802274203,0.4103894063956245,0.5796007435295282,0.17454223641712402,0.1564893818044393,0.4936296490323814,0.5026045071146836,-0.4200255,51.87867
135,Alnwick,0.2416487086947915,0.5580591868601997,0.15306220862550993,0.10294002749732728,0.20554160014822084,0.6074047982757497,0.2283873544232235,0.2258185030461124,-1.7062990000000002,55.41274
136,Southport,0.24318187607780184,0.4466317280714153,0.2375826630601217,0.09228551578847967,0.3245422675153109,0.6440150344576271,0.3114554349101434,0.1449425857971846,-3.010113,53.64571
137,Sheringham,0.2440342411832249,0.8588044660139542,0.8890937341418244,0.6777619721856554,0.11504407960665905,0.058057899360808685,0.6980317122267987,0.6823579430974988,1.2109589,52.94442
138,Dereham,0.2443718905599713,0.8689198559815859,0.9074544030541182,0.6837026764364993,0.08995903815934114,0.05515383817101272,0.7813932333674322,0.6964493171331926,0.937827,52.68162
139,Dunfermline,0.2482344653837189,0.5209620165078905,0.07283399032049534,0.03146145034349174,0.16591414813393254,0.6987564695729361,0.22356439693148847,0.15334084273131612,-3.452151,56.07174000000001
140,Norwich,0.24859483723123146,0.8227408448412228,0.9632032400504328,0.7322824355482209,0.10393276654929748,0.05284201481203017,0.8054726611805931,0.7710897087235621,1.297355,52.63089
141,Brentwood,0.2498361543662221,0.6964107601996072,0.4568493166079373,0.8465961658878006,0.17600861958811215,0.12051735625302742,0.6272551282908352,0.3428971312676272,0.30717490000000003,51.62047000000001
142,Witney,0.2501602356489138,0.9138948129561144,0.3505410685485061,0.6137498159162984,0.1088567152422649,0.09369662211474172,0.747213917593867,0.3182563540911888,-1.4850544,51.78594
143,Swaffham,0.2511717670303761,0.8775184444064605,0.9584877811863362,0.6578466450675124,0.09300831904141288,0.05472994191539566,0.7790565988150593,0.7200839813452586,0.687481,52.64747
144,Livingston,0.25119307275236546,0.5193298832970257,0.07576949617161677,0.03175162808684478,0.18725531341892984,0.6877088001741557,0.2325749483969443,0.16677206019213622,-3.518068,55.90071
145,Banham,0.2513572248942921,0.8322024352133858,0.9976626359121766,0.7539262524155717,0.08938959580442613,0.0425556008898438,0.7393480090351957,0.7673604968838699,1.0402849,52.45125
146,Nuneaton,0.25144936805512125,0.8189798918180503,0.4514702892286369,0.4792650085830782,0.0540405632310104,0.27595105384192314,0.27310068953528954,0.2539731278161335,-1.465382,52.52049
147,Loughrea,0.2516024041681838,0.3131220992290015,0.26250229761100896,0.04374088715416153,0.1340331162518641,0.857309894867644,0.2797751673416258,0.261675428126442,-8.5660931,53.19891
148,Crewe,0.251650055968388,0.5940220512459579,0.12154285033796328,0.16176165573031484,0.2165717123843416,0.5545367547462688,0.2798074187036937,0.08141951928661298,-2.4438209,53.1004
149,Bishop's Stortford,0.2519226711272457,0.7856073429011583,0.5059581194599114,0.6891970831024089,0.13501194895999716,0.12749237645908676,0.9451075858113216,0.4226042462101873,0.1536502,51.87216
150,Dungannon,0.25461100642155,0.21335479882397185,0.3283571785718717,0.28466942501807113,0.3027744351066188,0.7399061816851804,0.839912032774021,0.01,-6.7669352,54.50827
151,Basingstoke,0.25484299903375,0.9329187082413812,0.19483200473141127,0.6308911702777049,0.1206311798576076,0.05833813061751271,0.789077996775822,0.4488600388321021,-1.0923964,51.26654
152,Cirencester,0.2561981192387536,1.0,0.4132171467756215,0.4895198057200286,0.06974183045448204,0.0922738315725637,0.5677976740247566,0.493481606302949,-1.968243,51.71849
153,Cookstown,0.257623804430909,0.2311619238876894,0.3307344236500687,0.2757915318124741,0.3067752513994702,0.7273343111567532,0.8459928401275093,0.01,-6.7443895000000005,54.64182
154,Derry,0.2582696511569456,0.11666119298908505,0.5631148513500724,0.3173517999732446,0.30387468895766273,0.8161720139906048,0.01,0.01,-7.308574799999999,54.99661
155,Dorking,0.2589677813618797,0.8064314683597072,0.16881816919813045,0.5986291666151421,0.1899487619362616,0.15946781075837885,0.6858376241375083,0.2565872527239164,-0.332378,51.2322
156,Maldon,0.259482306374375,0.6751202807907881,0.6257078875791336,0.9178570043426892,0.13333596400958458,0.11067883909215903,0.5617181286810883,0.4452522079130445,0.6714479999999999,51.7318
157,Guildford,0.2619096601968926,0.9004166388194903,0.16014966819472834,0.6620637075750303,0.1846342891234368,0.06161470669860894,0.5735104886629393,0.2298890853366847,-0.570409,51.23622
158,Wigan,0.26378099461485616,0.5334991180295839,0.2513659627505885,0.10814271067887818,0.22098081331710054,0.6198407786169691,0.31315240576289305,0.07483815090338355,-2.6325074,53.54506
159,Hereford,0.2640379710468315,0.8110791233542741,0.3480807083799472,0.4699900004609121,0.11656664683523775,0.22198980417953565,0.3116271500426027,0.7106237714143661,-2.715974,52.0564
160,Coleraine,0.26417313432917144,0.26987154079982384,0.3359021503044267,0.2451914807749165,0.2900652281013997,0.7302978665578643,0.4296057407704928,0.01,-6.6646103000000005,55.13258
161,Blackpool,0.2645639390302163,0.4820101608466984,0.2396469086037888,0.09280242563299496,0.3211492480078329,0.6155426598847769,0.3141615228373356,0.12900169703336198,-3.0356748,53.81751
162,Gloucester,0.2648059033741915,0.962841277178668,0.4413604444640901,0.4778944281376575,0.062032520825246365,0.1317854246619052,0.4631653629813094,0.4999866181524198,-2.238156,51.86424
163,Warrington,0.2668694252127609,0.5463803979762122,0.23638362029891066,0.11133803838159227,0.2029778656236289,0.6162599707734686,0.2706867218256103,0.09995478588029633,-2.5969501,53.39004
164,Carlisle,0.2668886603019227,0.6289552953331401,0.29818104675895823,0.14838474280555927,0.2282396829864653,0.5117144440113838,0.2773541300398989,0.17510243736560882,-2.932931,54.89247
165,Lockerbie,0.2673959653446902,0.5729360426333437,0.2004316338318052,0.04090606841056228,0.23053887560151665,0.6095567309418235,0.3015814583928041,0.1805254300045347,-3.349008,55.12224000000001
166,Aberystwyth,0.2674257988045092,0.4663034240155681,0.3807772456921724,0.5789082515589501,0.06751361081254934,0.4770026140269097,0.3066291471147166,0.5938283915713439,-4.08292,52.4153
167,Huntingdon,0.26780428868926354,0.8583250157936791,0.42268213465572907,0.6000283432691691,0.07020809593610967,0.13270589476082487,0.8334156736314535,0.6235990285399442,-0.182552,52.33146
168,Marlborough,0.2686542562198335,0.936976566379374,0.4575607423115892,0.6049253912973095,0.0643248718391889,0.09310066589572047,0.8005126354000694,0.32289814148564056,-1.727062,51.42007
169,Isle of Man,0.2690862011257431,0.4590571310837771,0.3145477026987197,0.12121953906565296,0.2768301853099491,0.6372800193085755,0.3474359308288211,0.13340420247895646,-4.5126331,54.27697
170,Longford,0.2694102824084348,0.11106131242706747,0.01,0.15571281987002286,0.22383507401403027,0.9332593261401676,0.4107302688766841,0.15366341476841158,-7.7932573,53.72763000000001
171,Biggleswade,0.2694258938901483,0.8166250557330779,0.5363625368227625,0.5892648568194159,0.12205291985368373,0.14656128529130688,0.8066696073832529,0.5679415506078831,-0.26421999999999995,52.08694000000001
172,Enniskillen,0.2719132415743293,0.029272444746625638,0.01,0.33990598803203004,0.2632338506942878,0.9065839471772528,0.01,0.09935736791849764,-7.631533599999999,54.34382
173,Fermanagh,0.2719132415743293,0.029272444746625638,0.01,0.33990598803203004,0.2632338506942878,0.9065839471772528,0.01,0.09935736791849764,-7.6318728,54.34383
174,Sligo,0.2727174099761727,0.248108919734313,0.0647216395496337,0.2570915786905831,0.08550273708963957,0.8454888007217726,0.01,0.2322639720128516,-8.476088800000001,54.27661
175,Stafford,0.2727715188813787,0.7308345171375675,0.21576569646800245,0.3420530925499781,0.13958227671484558,0.3800963468188004,0.15330883608678753,0.2552354325583211,-2.12066,52.80669
176,Thetford,0.2728646701134529,0.8468400094597315,1.0,0.7289711772700752,0.08035571073627584,0.03914414872741536,0.7624575005047162,0.8281523287405048,0.751657,52.41286
177,Bromsgrove,0.27348381657408066,0.7853389538581231,0.3513045633848361,0.3901826897242511,0.11947225409402445,0.30940809682412457,0.24369075426248785,0.33334097510712296,-2.061906,52.33559
178,Chelmsford,0.27398016905899675,0.6737289499638839,0.5154605580111628,0.9072459139039124,0.15922029796624074,0.10673531938081372,0.6015692204031324,0.4275122803479669,0.4685497,51.73559
179,Great Yarmouth,0.27437901108483304,0.8277858237693243,0.9374140445882446,0.7407922316115839,0.09836923181327928,0.04672763245828385,0.7003568601527539,0.7904986775009881,1.728047,52.59823000000001
180,Kettering,0.2749909375757329,0.8559957808042647,0.5576613977284848,0.5238220469882782,0.07038625399326633,0.19976229358297448,0.5586946102283255,0.2801760094608307,-0.7302489999999999,52.39632
181,Bicester,0.2751671048370936,0.8592745798610967,0.2538044865922303,0.5154418121255794,0.08554295741130953,0.19976432179472392,0.4219878405120133,0.398735891484434,-1.1535898999999998,51.8996
182,St Neots,0.2756590980950041,0.8664078224105229,0.4411279561064612,0.581359445489303,0.07826611990064887,0.1419460894556312,0.6360914289189153,0.5380328851931382,-0.26510300000000003,52.23008
183,Banbury,0.27591313204875084,0.8966479547724115,0.23555734830682856,0.5181891559804439,0.049125114709117575,0.1954127934864655,0.4467086965014903,0.27983511989960563,-1.339775,52.0629
184,Newbury,0.2764016924153945,0.964832374925763,0.2734808261791649,0.6623049134328829,0.08465202891136236,0.043503451847379686,0.8452806342337855,0.24935584393546384,-1.3231138999999998,51.40141
185,Peterborough,0.27728598885863315,0.8569064785219904,0.4459264935147662,0.5648375819664299,0.10544552057224534,0.13783287602792285,0.709734773328605,0.5879542238864152,-0.2405299,52.5695
186,Corby,0.2773868504734733,0.8783401297341854,0.4243302931014329,0.5535287299854644,0.06811276921268443,0.16341268261088973,0.5992333337084307,0.3933841098599585,-0.6842333,52.4923
187,Stoke-on-Trent,0.2779754823450625,0.6614390299770239,0.14536797326414952,0.2673877595299149,0.20769546057002145,0.4443389398740005,0.15493329980126502,0.20094195878702206,-2.179404,53.00267
188,Milton Keynes,0.27822496635562216,0.8602338605159372,0.3644249523908686,0.5188590941845288,0.11591545080242653,0.1641343879583717,0.6680555785852872,0.4863068419441261,-0.7594171,52.04062
189,Telford,0.2783756321390004,0.7164210580924345,0.2950423168828923,0.3393505751842804,0.15232721208141062,0.3824490724480616,0.15722817117681515,0.26176051499330005,-2.4672611,52.67759
190,Bath,0.27954014514318754,0.9199678490795984,0.5754265927467104,0.4861716604406093,0.043735384284095874,0.15460348291282286,0.4741679385213318,0.6208890492087563,-2.3590167,51.38106
191,Colchester,0.28059374306525303,0.7332234457705848,0.5821923365237089,0.9099430211760898,0.11272878504152332,0.0774830973903337,0.526184910076133,0.4531438781977501,0.891874,51.89593
192,Bedford,0.2809964811502256,0.8371605140531002,0.4312479957860823,0.5368274199840142,0.11536874467745895,0.1673257791459945,0.7732505707293346,0.4996834172249709,-0.4667782,52.13864
193,Rugby,0.28100920464404794,0.8339407327033548,0.3731636402827129,0.4884444618067071,0.04067069252275883,0.26525865953457234,0.3597819158222857,0.22250616133312826,-1.265032,52.37088
194,Kelso,0.2828474906722758,0.6364328007995653,0.09186211991337613,0.06836671946543217,0.1825035795740751,0.5805996137608754,0.2349761324145575,0.08302596615278272,-2.432207,55.60003
195,Worcester,0.28704297421340125,0.7691567379337515,0.3798374796193521,0.3736017367383853,0.13437561094979594,0.3192239656204587,0.2930206030932258,0.3288767584036254,-2.221575,52.19364
196,Towcester,0.2875594881232178,0.8903234280188019,0.16540463051829335,0.4818218047285061,0.07863985099960286,0.20680999137671927,0.4548240506493152,0.2493040258892804,-0.989688,52.13511
197,Ludlow,0.2880736317033501,0.7404279573764571,0.3907732217779042,0.3433952173087019,0.12258891438095572,0.3604619049438,0.16659456267042025,0.3957749751878425,-2.7139129,52.36775
198,Mayo,0.2884819550479235,0.2930949451692971,0.051740664983947735,0.0766899024328277,0.07694907713366217,0.8834538823522252,0.3308714326210445,0.30946608028206224,-9.4289369,54.01526
199,Tregaron,0.28975980795425416,0.5045047366673845,0.5188758234967686,0.692651673728361,0.03852111674003647,0.3632121600759362,0.4239806708706317,1.0,-3.934385,52.22
200,Birmingham,0.2907592424807761,0.7897627893737034,0.3575583412292821,0.3910334796260094,0.12225367592662405,0.30275590032150523,0.1917723012705833,0.3394152890664438,-1.890401,52.48624
201,Wolverhampton,0.2913720408170771,0.7651194113674441,0.28815070815208194,0.35523271271363543,0.1415713167462976,0.33899159340033397,0.15355562911826376,0.2728808871648208,-2.12882,52.58697
202,Lowestoft,0.2917957304368449,0.8223596588920165,0.9058509679641714,0.7617223377000049,0.10903183258781764,0.03155829874950606,0.676775587345505,0.8411288213153237,1.7534490000000005,52.48114
203,Northampton,0.2938204824002339,0.8640387494126744,0.34494330330195777,0.5205396659625582,0.040029378802660366,0.22043112345015006,0.34432703974878714,0.2938717118601518,-0.902656,52.24048
204,Kidderminster,0.2939975759973332,0.7609382793072764,0.3741058823574557,0.37317433935029415,0.1383022062366792,0.32342946268276285,0.2551823001813987,0.3430932599275385,-2.2496839,52.3886
205,Berwick,0.2967973167867973,0.6288163058869592,0.11822983185425262,0.07160785731068044,0.14116019871603191,0.6045683441442652,0.22681700522241866,0.061285854170894126,-2.005395,55.77024
206,Stevenage,0.29762197355556663,0.7463234756723266,0.4438547377364858,0.6692411451523875,0.15439323740210725,0.15782428317081132,0.6960750945388501,0.4879664314888925,-0.196612,51.90376
207,Royston,0.2976315093646412,0.816124651480795,0.5756206345505036,0.6703320869976763,0.08795527831944291,0.10387858313183608,1.0,0.7000450777219107,-0.024066,52.04814
208,Ipswich,0.2976736576407509,0.7832360308635993,0.9404679508412568,0.8950033640945162,0.11072958626903097,0.0220808032800238,0.5968199853183853,0.5324458742080797,1.14822,52.05674000000001
209,Mildenhall,0.2991376495402173,0.8477672676221084,0.8098285435365469,0.7383019023294037,0.07541116813290011,0.045432281221023885,0.6979980936874257,0.7834102678090227,0.5156095,52.34757000000001
210,Spalding,0.3013387322359796,0.8409772318388742,0.5192470501908979,0.4952390474413209,0.17007315053726954,0.1448957854097882,0.5934481170994607,0.6554943103234453,-0.1537024,52.7901
211,Chatteris,0.3026605315995597,0.8414982099088743,0.587019453024314,0.6951338527397839,0.1144927433072037,0.06000532067548867,0.8044017523660727,0.7423303958145043,0.054012,52.4561
212,Dudley,0.3027237676363085,0.7832862191499403,0.30447851553031546,0.3888045210957112,0.13211967936801852,0.3075495787911247,0.1910343293430336,0.3023740595459604,-2.081112,52.51225
213,Turriff,0.3034288181141139,0.6573677376007682,0.10168866802992348,0.04952940617689345,0.14556840125672607,0.5887371373346121,0.2312103769084641,0.07568836818506787,-2.4623,57.53893000000001
214,Macclesfield,0.3044027239174847,0.6171950983449609,0.2335563732919904,0.10723669566664157,0.18509744478637866,0.566158408070119,0.3629320208711651,0.060347118218905024,-2.119287,53.25866
215,Aberaeron,0.3044783837511992,0.4798866217884248,0.5682712212871259,0.6617937649866616,0.030152525549406468,0.3972600887477855,0.4643423507323706,0.9970068859551472,-4.2581619,52.24279
216,Penrith,0.30509886522509755,0.6567894316649725,0.3632633328911857,0.16340007093545994,0.2183245444098349,0.4771871812961018,0.35738431918443875,0.1805024216204072,-2.752708,54.6641
217,Abingdon,0.3051697843994436,0.9123878547388768,0.359784933924828,0.6784016279182185,0.1127099879152446,0.057337884189784735,0.7541361699948729,0.2821392720792529,-1.2879528999999998,51.67078
218,Andover,0.30549302108190285,0.9483140495686214,0.452084072745777,0.6474431757501903,0.12172929138911248,0.01,0.8363219537089891,0.7120428374406207,-1.4919233,51.2112
219,Sevenoaks,0.3057206272219285,0.7390448645258461,0.2061725960456221,0.5479353958951865,0.161861294208405,0.23290597784989955,0.79106010005097,0.3650091239631407,0.190898,51.27241
220,Southend,0.30590603059550714,0.6733284998239607,0.5090443690590686,0.9118474443561344,0.16056104446232167,0.10166952250148822,0.4417824879100336,0.4716783928548819,0.7077123000000001,51.54593
221,Wisbech,0.3066740446583735,0.8540452814941847,0.662222803590316,0.6443646920153203,0.13472273582221567,0.0632447128745133,0.819635916944376,0.7103923935427466,0.158797,52.66631999999999
222,Manchester,0.30699649123093803,0.5990128707606845,0.30439013779380114,0.08615377200151537,0.2476092923317331,0.5584596543048286,0.3649716624458865,0.044979231337581804,-2.2426305,53.48076
223,Aylesbury,0.3081321243562136,0.8195351314202245,0.4367413669441975,0.4744652719773457,0.17727224258078464,0.1904487452298995,0.37820193070909375,0.4810790380444222,-0.8084,51.81561
224,Claremorris,0.3084431824482263,0.3370226652497911,0.05403570862562871,0.08059725465155622,0.07100828683751273,0.845283275264504,0.3455478355999906,0.3231930099068865,-9.0017356,53.72388
225,Shetland Islands,0.310274793410102,0.6578861386627998,0.09172080507303007,0.04770311317859434,0.14965580872320727,0.5865361895512614,0.23461464839804624,0.07680278187146028,-1.2659409,60.52965
226,Cheltenham,0.31028958753675195,0.9207162797873604,0.4872820481034729,0.5036768260260067,0.09315406587715512,0.14617085452955472,0.5010157601539119,0.2834477334848678,-2.0782533,51.89939
227,March,0.3121002742090012,0.8485091924409004,0.6050687761155389,0.6621569438620594,0.12201719149233772,0.062261030176072076,0.8291350181187801,0.7651551238110746,0.088622,52.55172
228,Barrow-in-Furness,0.31245269046722873,0.5035977988465311,0.21573880763531747,0.1079230046731966,0.3203391747937171,0.5880242209047108,0.3083828733535402,0.10930069271193016,-3.218894,54.10896999999999
229,Walsall,0.3126524247995878,0.7817398031385592,0.3109901447631527,0.39898779258066797,0.13629381622229314,0.3036625109734707,0.1500921717051766,0.2751489726203464,-1.982919,52.58621
230,Welwyn Garden City,0.3140044935456876,0.8021626757825717,0.2802015999138681,0.5461474653782119,0.1466785374204828,0.1896503058712335,0.5721296278995597,0.4116279573227394,-0.208661,51.80317
231,Cambridge,0.3149683731269457,0.8323172176830738,0.7466932354768645,0.7328605426843732,0.07096398919801024,0.06434772203087563,0.7830930320570009,0.7336226601570645,0.121817,52.20534
232,Oxford,0.3154452453161808,0.8809175179171759,0.17076755018029038,0.6293435322261706,0.12087084321766167,0.11111456658298012,0.6430814909771965,0.28144634068853186,-1.2577263,51.75202
233,Newry,0.31565546903852204,0.2236782082545198,0.01,0.1841286686054943,0.3399874930003165,0.7624936998672535,0.7796681360550819,0.07292283735528457,-6.34023,54.1751
234,Felixstowe,0.3168203362299033,0.7415051889534059,0.9133025734102136,1.0,0.11387209260459548,0.01,0.5590802360252833,0.5117059296457386,1.351255,51.96173
235,Aberdeen,0.31940394109540016,0.6688515610458123,0.1022195922797785,0.047576643459941705,0.1579417478438763,0.5723681163760858,0.23241753604244544,0.07608354144488909,-2.094278,57.14972
236,Peterhead,0.3197230092670354,0.6630780070451172,0.1022874036682215,0.04951914807749161,0.1478964806320147,0.580916352829068,0.2325717349460136,0.07613401737176283,-1.784066,57.50812
237,Ballymena,0.320458247391854,0.2987366493032657,0.3402807632686156,0.2254212425284501,0.3485794382796705,0.6681936847570761,0.8704116317295022,0.01,-6.2802213,54.86529
238,Jedburgh,0.3205733582299685,0.6249379088940656,0.1761809857634275,0.06999853014082541,0.17189495143050626,0.587731820377511,0.18556473204183688,0.08430048986393028,-2.5549369,55.47772
239,Fraserburgh,0.321525685859662,0.6618436624741423,0.10267055354503997,0.05062456367947064,0.1459348761120798,0.5820467428440461,0.23344289565068296,0.0764192024240476,-2.007631,57.69335
240,Leamington Spa,0.321564237773492,0.8060025443940315,0.4261620594240096,0.4202865578989614,0.05615316672491242,0.3060916325786241,0.2484762370737329,0.26088924785990114,-1.5200789,52.28519
241,Ely,0.32205219874642244,0.8490904978449876,0.6702939120265736,0.7329466826149665,0.08503004464939455,0.0345333473505299,0.8572797534911545,0.8535492611821183,0.262363,52.39954
242,Downham Market,0.32238815892270417,0.8645394071411509,0.8233703279693873,0.6386420777681973,0.08545463856063219,0.07095732608675788,0.8326509190510561,0.7421348748242479,0.385472,52.60661
243,Bristol,0.323454616564436,0.8303522279839238,0.5455155575971862,0.4193561623354067,0.04463688616757487,0.25823462421123666,0.2600098499866455,0.6420184531874731,-2.58791,51.45451
244,Antrim,0.3245314273703058,0.2686756401182179,0.34315636997359955,0.2557907673732857,0.30172504406785844,0.6997300112126302,0.8777672209098294,0.01,-6.2072498,54.719530000000006
245,Dalkeith,0.3252660933465799,0.5836492139576497,0.05590604027704104,0.01,0.16400803660076912,0.6517063514465036,0.3432079174850303,0.10165141267194254,-3.066606,55.89312
246,Leicester,0.325339791528142,0.9316612973367848,0.3975278372510598,0.5099215494283007,0.12279789419664296,0.1312459203365749,0.36315899567435617,0.20719554840971013,-1.1397592,52.63688000000001
247,Craigavon,0.3254459387057264,0.2376393812781301,0.3438020126003464,0.28317286668068137,0.25075366455850906,0.7361374262195718,0.8794187126679531,0.01,-6.4175653,54.44293
248,Selkirk,0.32654315614301577,0.6125496823901048,0.14984230060523535,0.015586830736301072,0.20758647870185387,0.5980148539467813,0.324318002589948,0.14339549382960864,-2.838524,55.55066
249,King's Lynn,0.32721442261152833,0.8743129422156235,0.7316071750405996,0.6227959841086583,0.10662531667456446,0.06382004894074933,0.8263298390501619,0.7365009464957623,0.4022963,52.75168000000001
250,Galashiels,0.3274479137080116,0.6150013886270809,0.1501200696474672,0.02139916822271261,0.2095989460340724,0.5921117436502602,0.32491921004588803,0.14366130777224698,-2.814449,55.62373
251,Trowbridge,0.3309551025501341,0.943852699576382,0.5728106190551171,0.4807366242815114,0.04048417250869141,0.1354291070696362,0.5133564517172979,0.5801757287961411,-2.208853,51.31966
252,Hawick,0.33156934488038065,0.6059570200696536,0.16794316290990782,0.03720359713605105,0.2100766141842148,0.594597317149105,0.1982702262401499,0.1359917953929582,-2.780914,55.42706
253,Ramsgate,0.3325599792173851,0.6981149651415313,0.4779565843021734,0.9079041185285444,0.16591124563649245,0.07280299877867802,0.5501590418662526,0.5107555124468581,1.419895,51.33555
254,Aviemore,0.33326388539810153,0.6406587981460075,0.10516542241935868,0.026372098082044552,0.15555195584444467,0.603673226692213,0.239115512939042,0.0838673263213676,-3.823812,57.19449
255,Ballycastle,0.3332888147275394,0.2919970552825664,0.060340376989291664,0.22306223097080405,0.06280251193185599,0.8205472047692723,0.3858649244480878,0.21654109675996489,-9.3724643,54.27967
256,Blackburn,0.3335189001779245,0.6110629177762938,0.298035547383998,0.08161301727520147,0.26239198822249465,0.5416745119023916,0.3386479605027384,0.042428360906322064,-2.487529,53.74858
257,Coventry,0.33351985375883203,0.7823577780986599,0.44672726542800906,0.4619780735233115,0.06043704562525564,0.3000546603066454,0.3165569810696541,0.2426392668681577,-1.519693,52.40682
258,Perth,0.3345751681265309,0.6228481244155788,0.1054441325250518,0.01,0.1619433243146288,0.6246462883217934,0.2996865039068961,0.07287764247116707,-3.4308381000000003,56.39499
259,Braemar,0.3345757402750753,0.6679596205664162,0.09982055655735672,0.0424017133555395,0.1450158210297964,0.5803964545506476,0.226962837468291,0.07429790634983488,-3.3979439,57.00646999999999
260,Cupar,0.3348934461882715,0.6189970606055665,0.10551177945580256,0.01,0.1675280058177106,0.624868039473057,0.23990301875202866,0.07292439806080109,-3.010137,56.32023
261,Banff,0.3355009044714907,0.6643171254177392,0.10000670439192123,0.049774897952989235,0.14575215698751726,0.5792589657945466,0.22738607816905185,0.07443645940287562,-2.524038,57.66651
262,Evesham,0.3355206027285219,0.8401635310112492,0.3918440971776118,0.3949223532136237,0.1085623190733404,0.2627825510238919,0.2698517854768868,0.2797968061092781,-1.94677,52.09215
263,Grantown-on-Spey,0.3360640348650976,0.6483025839954624,0.10576057653458076,0.02971855709854855,0.1614014556853947,0.5930751442312076,0.2404687029685895,0.07871914900507603,-3.609628,57.33041
264,Bury St Edmunds,0.33685460792771743,0.8014909216233864,0.8747945489438061,0.7539277981565774,0.0904081650846558,0.04930447548584959,0.7301825458643291,0.9164670624860674,0.7104931999999999,52.24292
265,Peebles,0.3373616132736282,0.5850813122056983,0.13941818632731273,0.025457230189502227,0.1973964321533967,0.617125679155155,0.3291884607290764,0.16934059238890525,-3.193642,55.65306999999999
266,Orkney Islands,0.3374760157373543,0.6472529390775882,0.10606068441334496,0.03774973553776608,0.15543751451680635,0.5927452217866448,0.2411510646671243,0.07894252224980255,-2.9605206,58.98094
267,Kirkwall,0.3374760157373543,0.6472529390775882,0.10606068441334496,0.03774973553776608,0.15543751451680635,0.5927452217866448,0.2411510646671243,0.07894252224980255,-2.9622491,58.98467
268,Edinburgh,0.3378696539359528,0.5784669776706906,0.05582406725398651,0.010829110181543049,0.16846806945289372,0.6481860519201922,0.3427046326429053,0.14424018525198515,-3.188267,55.95325
269,John o' Groats,0.3380774528382722,0.6503767374420076,0.10618851372292544,0.03809127403908308,0.15592596337172626,0.5897471867857945,0.24144171253984725,0.07903767282562157,-3.0688997,58.63734
270,Thurso,0.33954416925461706,0.6439247544090282,0.10650025241514803,0.035284138111677806,0.14995670095783106,0.5989481693867802,0.2421505180182225,0.07926970208413729,-3.5220800000000003,58.59356999999999
271,Wick,0.33980389744863976,0.6530870316425317,0.10655545538051754,0.03542971881003799,0.15374604958004662,0.5896525369041575,0.2422760412542129,0.07931079191929112,-3.093716,58.43894
272,St Andrews,0.33995551681292546,0.6241193920187613,0.10658768908820107,0.013656832568706766,0.16282595996474708,0.6197173957355495,0.2423493196207085,0.06800123775751116,-2.7967214,56.33978000000001
273,Gillingham,0.3412256593364901,0.6826404125037777,0.5082128892400649,0.811941425409284,0.17911083649492476,0.127447755800601,0.5648674391311922,0.4438886409246959,0.551438,51.38632
274,Montrose,0.3416202511159961,0.6668634627670085,0.10123796258773887,0.03438079301572382,0.13871090551907814,0.5887800678166399,0.2301856015640321,0.053823500311511584,-2.4661150000000003,56.70692
275,Bridgwater,0.3436557376758862,0.8296735454754456,0.4409801908699631,0.3904281815003469,0.027803921370791462,0.2824095561224781,0.2434517085690736,0.6466733164088154,-3.003632,51.12789
276,Kirkcaldy,0.3442733039167245,0.6010622680323175,0.10314706970837136,0.01,0.17551160145503578,0.6363994373740604,0.29315795182864113,0.07129003336429914,-3.158137,56.11682
277,Wellingborough,0.34463432964828805,0.8504349778221004,0.3647320771311693,0.546342580049711,0.04691030184107485,0.2096964747313548,0.4904000373648389,0.2237434947870512,-0.693964,52.30242
278,Margate,0.3460161228735316,0.6960756646716117,0.4772076713812241,0.9177176066083521,0.16525984228243554,0.07024271948039905,0.5492969839916743,0.4871213815851369,1.3868339,51.38965
279,Dundee,0.3463634715303652,0.63417563754121,0.10794964546667528,0.016969636587858217,0.16265547279368212,0.609601689635601,0.2454460229577582,0.06313097094454212,-2.970721,56.46202
280,Langholm,0.34817374952508257,0.6106968559066416,0.16881740172889986,0.07733124442830626,0.19708240957321047,0.5736658338603866,0.2968774453266088,0.12621422452014033,-2.998913,55.15306
281,Workington,0.3486705924230368,0.6225221540305546,0.4463327862435014,0.1290959326214306,0.3369433260423058,0.4533479184293796,0.434927402476117,0.16780098481305006,-3.542752,54.64357
282,Blairgowrie,0.3491120186476833,0.6427932789266398,0.10853382659920807,0.010971529136936916,0.15941483440180945,0.606749685880705,0.2467742766080836,0.0634726124423186,-3.3378318,56.58941
283,Medway,0.3511773386673925,0.6872121936243807,0.5038091233854982,0.8064674646812233,0.182652505335585,0.12405827593212408,0.5599727457294085,0.44004225376298783,0.5417860999999999,51.40474
284,Lampeter,0.35134222642887625,0.5198761244943255,0.4813718771973946,0.5572261424712296,0.055479787318808975,0.4157864509370505,0.3719587330734832,0.834948685401568,-4.078509,52.1129
285,Elgin,0.35150052085951417,0.6603468855506824,0.10054474600523584,0.04792759692920282,0.1445004204129328,0.5818652178924784,0.2286094330957238,0.07483693119234963,-3.318485,57.64945
286,Dover,0.3526396958567317,0.6675731961092078,0.432063294795475,0.8960847504499514,0.166842118029782,0.10261838756489863,0.552592091631822,0.4977004425024196,1.3134027,51.12788
287,Pitlochry,0.3528152092340415,0.6364597537681559,0.10632581762288797,0.01,0.1493019113567607,0.6176858036332705,0.2417539080617199,0.062181327540833824,-3.729711,56.70436
288,Canterbury,0.3531580351928569,0.6628261784467333,0.4805542940533871,0.9061664948552118,0.16968539070068844,0.09826212676255826,0.5531491637998888,0.4982021809097789,1.0789089,51.28023
289,Northallerton,0.3532881853641404,0.6676241025780979,0.08156349599118844,0.11453371738908046,0.3053527512254932,0.4578279001484313,0.15647478637007425,0.2048925547369589,-1.429959,54.33796
290,Arbroath,0.3553558484683651,0.6454981656350326,0.10130031946272183,0.03109096432879426,0.15086919086733327,0.5997979901097634,0.2303273907043699,0.053856655467358634,-2.591543,56.55911
291,Clacton,0.3557288620741937,0.7120222744739925,0.5886692012277095,0.9516198522608852,0.11141920583938254,0.057946347714593886,0.5621540829622587,0.5370530069453057,1.153035,51.78953
292,Dunbar,0.35573706286999784,0.6255223827505733,0.10407836621004014,0.01,0.1583592237256775,0.6204282839537012,0.26622433689884994,0.07746705661047007,-2.516737,56.00209
293,Ashford,0.3570339873944777,0.6852928718861189,0.49803970999092,0.8516868531073891,0.14853482274759114,0.11833669058717035,0.7006706799280061,0.4090920207011281,0.8750190000000001,51.14647
294,New Romney,0.3571886854628361,0.7382007043089515,0.4841927834466243,0.7818066424144586,0.15275277349179495,0.11629597153201998,0.6055022506367628,0.33808183014221954,0.939473,50.98512
295,Bodmin,0.35790575106007544,0.8143694133318845,0.8299580737041269,0.4789233295598517,0.03848421355829805,0.2330476146370635,0.3325130503208537,0.5829284504742062,-4.7188629,50.4715
296,Crawley,0.3581299787991718,0.7933665026647528,0.2850320055683182,0.5640235385440356,0.2007280845721411,0.1669985609837635,0.6644867316669499,0.2347883279372268,-0.1872275,51.10914
297,Hunstanton,0.3581407951311793,0.8487963387222653,0.7361023976451414,0.5561040750229612,0.1171004990429706,0.11093980233724338,0.7486199017008867,0.7171630532093386,0.491032,52.93891
298,Forfar,0.35978722068082675,0.6448318612140106,0.10216878398940776,0.031717129958034496,0.13884877414748295,0.6052349497392225,0.2323020270880826,0.05431837948370148,-2.889062,56.64356
299,Ullapool,0.35996998127303315,0.5894152481645999,0.1345257161671103,0.06992581005260015,0.17583184367259358,0.6060063462745636,0.2580797228196417,0.12069177078539735,-5.161313,57.89542
300,Brecon,0.3600896148091659,0.5364671552730103,0.4575657034519725,0.5637057482454434,0.05552221906709998,0.3990138158404012,0.4267146632371783,0.8164626444216554,-3.391463,51.94895
301,Banchory,0.3601060981362805,0.6644867009912863,0.09964314325355897,0.046998325540925034,0.14933860721725334,0.5757102713037444,0.2265594617369197,0.07416585842230841,-2.4909599,57.05386
302,Newport,0.3609099940864361,0.7671119032336042,0.26926023878416355,0.4457156837065408,0.02904930009384048,0.29678281671963114,0.2754986717872481,0.7987943431848212,-2.997664,51.58415
303,Achnasheen,0.36147805585559295,0.5696731703306791,0.13491474083815788,0.060463134920144185,0.20002333055085186,0.6142726612943841,0.258826026349059,0.12104078301006707,-5.078765799999998,57.57859000000001
304,Faversham,0.3626720208872361,0.6650109742518036,0.5667980732356052,0.8977770558074332,0.17111507801118386,0.09864106432439704,0.5673229129416197,0.4520101371189526,0.889358,51.31599
305,Builth Wells,0.3628958671939696,0.5278112812283726,0.4755775575989769,0.5452766511043335,0.05405293339867179,0.4104397467304381,0.4435120840536868,0.8628246958206807,-3.404592,52.15002
306,Inchnadamph,0.3629732979636552,0.6073001059277011,0.13028932256057485,0.05497968896318437,0.18213675918331187,0.5973205294579164,0.2499524263196308,0.10130555246037486,-4.974295,58.15221
307,Stratford-upon-Avon,0.3659462090459136,0.8283269531967191,0.5009204422939795,0.3893577558538617,0.09116440388196592,0.2733333085440787,0.18418908291160296,0.3415503123544435,-1.708298,52.19173
308,Wells,0.3674414239088071,0.8336922415415204,0.5005862185806091,0.4126988666064858,0.031473507420061934,0.260400416324265,0.2062486640077756,0.6751697488021301,-2.6445979,51.20935
309,Launceston,0.3675168657811713,0.8102267251610858,0.8171688476710808,0.4723014453521535,0.036275413006381256,0.2440307192951557,0.3273891969692461,0.531547637908486,-4.360451599999998,50.63683
310,Llandeilo,0.3675431846142172,0.5232764231399768,0.4797919686939799,0.5718864419964903,0.04994140756060501,0.4059077075764863,0.3707379372222797,0.8465567234004543,-3.99143,51.88469
311,Inverness,0.3692174002360248,0.6204425930918779,0.1483204273941125,0.05179890527811532,0.1723209965904639,0.5915151113606558,0.2529280585108885,0.10251156688258788,-4.224721,57.47776999999999
312,Lairg,0.3696006307801476,0.6225123951970992,0.14842751676139093,0.04694064129702845,0.1726258279287564,0.5919846423806335,0.25311067600596,0.1025855845439337,-4.402414,58.02206
313,Bude,0.3699148220665705,0.8298565552872555,0.7762124867207266,0.4740396311131246,0.05170723171749689,0.21626990901104035,0.383861589026245,0.5736195940046245,-4.543678,50.82664000000001
314,Cardigan,0.3700265545037557,0.5234759933964381,0.5077911740344109,0.5244090070047362,0.055432794503112136,0.42363664451296,0.3923730740342519,0.8504019607987147,-4.660864,52.0837
315,Alness,0.3701124312757645,0.6171349399950029,0.1485705492709673,0.05737832769934158,0.1680384307246769,0.5934263628991391,0.2533545827742367,0.10268443797009587,-4.256825,57.69595
316,Sedbergh,0.3708331204804521,0.6337013413368722,0.2291247044489698,0.13065706077628794,0.36012992684255196,0.4433731730460123,0.4639824559134105,0.08222506629107611,-2.5281740000000004,54.32363
317,Altnaharra,0.37094624242124535,0.6236644022511726,0.13226983172926474,0.04259598489558097,0.17369608930625266,0.5930217346551414,0.2537519289031344,0.10284548354381612,-4.442655,58.28023
318,Wadebridge,0.3720013115824252,0.8205254629087863,0.8240955132999584,0.4791502724438784,0.03419459877015653,0.2289655004561785,0.33016428645187706,0.5788108284319311,-4.836456,50.51665
319,Camelford,0.3721753264754519,0.8263476843386606,0.8243642737152698,0.4702211590022269,0.036540991522150484,0.2285081387066969,0.3302719662712451,0.5647424190631234,-4.682364,50.62206
320,Newquay,0.3737347037108328,0.8338921920122723,0.7817916499749722,0.4816169940452436,0.04204799666516867,0.2153551855120776,0.3466254167071708,0.5627794712088391,-5.0737190000000005,50.4155
321,Truro,0.3737464191334101,0.8208837937545324,0.826790984012684,0.4815208067981128,0.03738395970725408,0.2276955018657857,0.33124419292900337,0.5521057318619439,-5.0510410000000014,50.2632
322,Invergordon,0.37398268923710937,0.6210650038853675,0.14965211442067192,0.04935424561655953,0.1660495980144706,0.5944833992558489,0.2551989400145816,0.1034319590801025,-4.172882,57.68811
323,Redruth,0.3740968192491476,0.8201261111657022,0.8273321960048442,0.4796971837160962,0.03757200007712348,0.22898950096187945,0.3314610249125296,0.5524671379245389,-5.226666000000002,50.23302
324,Harwich,0.3743542316038235,0.7182805594489967,0.8068483143296683,0.9759189711323032,0.10585753699457584,0.036796493627527856,0.4586344439101547,0.5342546794410545,1.260297,51.93473
325,Helmsley,0.3751836290319614,0.6791746747541343,0.13277600509643425,0.0890793678987253,0.3621712118279258,0.4365161271567074,0.1132102268461483,0.11647483628592585,-1.0562636,54.24651
326,Tain,0.3756773659806741,0.6249968421090875,0.15012568861861952,0.040025628385875374,0.16231892130479425,0.597373939033983,0.256006532817204,0.10375927443788543,-4.05523,57.8115
327,Falmouth,0.3775669001713857,0.8263071281476777,0.8326921006091494,0.4689659470445995,0.03943395218494822,0.2273280575038596,0.3336084047329996,0.5560463165636094,-5.0662699999999985,50.15257
328,Liskeard,0.3776261039231543,0.8282683579499553,0.8327835390860475,0.4605569051904296,0.03946574144262552,0.2308862169828253,0.3336450497588855,0.5417045957452702,-4.4647190000000005,50.45552
329,Burton upon Trent,0.3776423965340875,0.8328050748637712,0.29968473825854763,0.41582042030665256,0.1538383075343927,0.2404401084281999,0.19803061965348226,0.2318228125868443,-1.6371359,52.81403
330,Penzance,0.3783543672847641,0.8320361970763885,0.7885389927635145,0.4757654509460497,0.0421813733332495,0.21830521950152634,0.3496170109855968,0.5676366009907796,-5.537592,50.1188
331,Helston,0.3785157131743059,0.8238148657197191,0.834157619651057,0.4694506773718131,0.03538206575856733,0.23080644065401745,0.3341955548017774,0.5570249488700632,-5.274996,50.10159
332,St Austell,0.3797661029505019,0.8195115158881835,0.8360889651062987,0.4703316092231837,0.040614024715594964,0.23091799230023224,0.3349693304153329,0.5583146424639625,-4.7834252,50.34038
333,Reeth,0.3798844014733642,0.6257372038246853,0.12593871308676288,0.15591460933222862,0.2313763152200677,0.495091220513604,0.2818737143932255,0.25610568982344456,-1.9428115,54.38946
334,Yeovil,0.3803354179974228,0.9224209071896072,0.5555325020386815,0.4396803379495717,0.04647105722847293,0.16912581707355398,0.2750339600415673,0.6019438154407758,-2.633308,50.94206
335,Golspie,0.38276595950468817,0.6303225459216482,0.1521066363411555,0.05245907720948219,0.15923508688176893,0.5899838114898871,0.17292306282164527,0.10512840225933502,-3.976086,57.97341
336,Scilly Isles,0.3828649139577135,0.8254004438030179,0.7951269212290231,0.4817921546055775,0.04943236479527685,0.21473725699910484,0.39321537210692575,0.5723789817575995,-6.327496599999999,49.92773
337,Buxton,0.3828936848559499,0.6467488171744654,0.2569668252836744,0.08085335583182786,0.32934230721041874,0.4743716853526942,0.3697318583196262,0.053545157007499566,-1.91483,53.25908
338,Brora,0.38357263446205975,0.6283247310554214,0.15233206215455547,0.04769440082019827,0.15472039032785576,0.5959552049153034,0.1731793442973241,0.10528420613581624,-3.852548000000001,58.01216
339,Ambleside,0.3839701959649632,0.6572908498220301,0.3015359197253498,0.12502655864091702,0.373194275141692,0.4154622750924439,0.4884933859175433,0.08656879390566266,-2.961333,54.42874000000001
340,Folkestone,0.3843071642124899,0.6812798790344008,0.5454156495491366,0.8480946915319251,0.1486444956865778,0.11831573239909375,0.697565329486634,0.4072789311785,1.169456,51.0814
341,Rochdale,0.3848694500058644,0.6280740853459413,0.3521887793038254,0.06759897801225576,0.2259225916372,0.5413668997870713,0.424566091518545,0.047822705636985034,-2.1561,53.60971
342,Keswick,0.3879287827635074,0.6865719550052717,0.37689398843361743,0.15251931895213375,0.3222971166383109,0.3960702045214925,0.4686429062702619,0.15028271240511346,-3.134706,54.60128
343,Tyrone,0.3880817371410636,0.07301816892008413,0.01,0.5035782499064124,0.2281402378956009,0.8032705590529061,0.01,0.01,-7.1312320000000025,54.49121
344,Cockermouth,0.3893586909568244,0.6515468257978945,0.4130805463891203,0.153683261929467,0.3420786041917453,0.41119998810115743,0.5136385109120789,0.14824056639638214,-3.367985,54.66326
345,Weston-super-Mare,0.38954196920723777,0.7818252246158165,0.3564499329295848,0.4399486645359798,0.02004001714684913,0.2886959984396287,0.2655643992451732,0.7600550660623474,-2.977255,51.34741
346,Whitehaven,0.3901730218066243,0.6593014652360357,0.3153611652638821,0.13716926763353235,0.3532579186177036,0.4178609735213577,0.3495566682197567,0.12071722733504102,-3.589233,54.5497
347,Llanelli,0.3902994666349533,0.5875248227124131,0.4408240931103903,0.5704661167950662,0.058242619346375535,0.3579658523509171,0.3406272359410675,0.7514347167986613,-4.160248,51.68089000000001
348,Omagh,0.39046789626837897,0.052518619727494505,0.01,0.4254867819470941,0.23021531624402736,0.8559334151604098,0.01,0.01,-7.309959700000001,54.59771
349,Tenby,0.3909693980901953,0.5829175126786678,0.5040333797219755,0.5586826520643793,0.0675143709904503,0.3592541048470543,0.34619503630270576,0.7637174517268974,-4.703579,51.67274000000001
350,Thirsk,0.39101026584337195,0.6759134922927605,0.17577167797700086,0.08162278354791963,0.3494956599715956,0.4454466815244445,0.11240255224659307,0.11564388082078456,-1.341377,54.23385
351,Horsham,0.3926180577436832,0.8004715248646203,0.3501179097697755,0.6008906559675158,0.1738824711061563,0.14497792798563772,0.7676351061264372,0.2614161061941456,-0.325858,51.06288
352,Haverfordwest,0.39278697779014704,0.5822425055749975,0.5214533414979878,0.5374681296308995,0.06971750476165071,0.3678097780764506,0.3581599177010677,0.7623891383219811,-4.971319,51.80048
353,Pembroke,0.3937259552871361,0.5915063845161194,0.5223366437631312,0.5254051668219902,0.07464864059113646,0.3635221384382969,0.3587666172367802,0.7636805718620866,-4.9086370000000015,51.67404000000001
354,Cardiff,0.3937664688531186,0.7322621795522275,0.2850995519971459,0.4612537533402058,0.027500748602464768,0.3105205709686505,0.3046286044738645,0.8236806932211486,-3.17909,51.48158
355,Merthyr Tydfil,0.3955110587458967,0.567073011536293,0.4731659317265586,0.5397500649211222,0.04132776265753218,0.3934713891999752,0.2899728610630837,0.7971315535379874,-3.381646,51.74873
356,Glastonbury,0.3982371013537988,0.8374861887158986,0.4658896655900839,0.4066138463544682,0.03490778385543845,0.2598943774927988,0.2087666073042955,0.6248342067338679,-2.718454,51.14743
357,Milford Haven,0.3983494059395285,0.5813115720078128,0.5852066267459628,0.5273248366292279,0.07071084995698428,0.3724520167354512,0.3617539463894256,0.7280373279140742,-5.0426971,51.71431
358,Minehead,0.3991576338715208,0.6696308736031666,0.6036371993140068,0.4811273454511934,0.06205961080135395,0.331593014973949,0.2399547845252029,0.7201313358610992,-3.481152,51.20428
359,Carmarthen,0.4017363890969738,0.5704025480778857,0.4499603392002031,0.5643111868930156,0.06462762996502419,0.3662581960881876,0.3476868721333169,0.7939210729973709,-4.312131,51.85762
360,Hove,0.40260782582054616,0.8149909792047285,0.3734391800095609,0.5985772437695396,0.1974501283560386,0.11756157566362214,0.8345126172411506,0.2788289719614401,-0.168749,50.82793
361,Saltash,0.4078920263063002,0.8719933815675998,0.6887903042176765,0.4309306709864975,0.01,0.23362531695033995,0.24395148782836515,0.5416908641597592,-4.21643,50.40921
362,Fishguard,0.40810862539813697,0.5731240797229943,0.4690164631469225,0.5219672983032823,0.06242477262215145,0.3864314662179359,0.3624116404700889,0.7574133031145771,-4.975989,51.99393
363,Burnley,0.4082403285440413,0.6303841406367034,0.3264523930339303,0.08564873625836243,0.2702648743146046,0.5093667889114956,0.33002490447841826,0.05513066768678226,-2.2405035,53.78929
364,Loughborough,0.4129900877989186,0.9023019947478041,0.4596345264014075,0.4504273130749454,0.17575872837993586,0.14615158651793542,0.372307924179525,0.17960918220150096,-1.206166,52.7721
365,Plymouth,0.41383509670877,0.8870314481999007,0.6845821333784411,0.4413760860938394,0.01,0.21469297437591084,0.24246106591616345,0.5081446881907979,-4.1426565,50.37546
366,Tavistock,0.4145280230864661,0.8350098530421071,0.8089744964675494,0.4688501569910775,0.017924787583834634,0.2276508812073,0.3241062303309781,0.5541994379851346,-4.141654,50.55112
367,Bridport,0.4157654169171519,0.925794759819055,0.5273136360406182,0.4319491737873802,0.04414387624524913,0.1645860031078964,0.2829707281145792,0.6422519207432295,-2.758301,50.73358
368,London,0.4176970993839731,0.8813531167559506,0.13419387709027786,0.3414312830999358,0.07622103402577016,0.27638711936803595,0.3243971586503277,0.18604482790410665,-0.12775830000000002,51.50735
369,Whitby,0.4191673304270911,0.5725138357867998,0.0800280732935308,0.1028821324705663,0.4619186461756799,0.4607711734320482,0.10235278243543147,0.14838333816321414,-0.613347,54.48634000000001
370,Brighton,0.4199566229667781,0.8096366325822858,0.3751579273513992,0.5815383298802416,0.20605713897924835,0.12523734302908687,0.8383534389609846,0.2564408174522585,-0.137163,50.82253
371,Street,0.4205137049329149,0.8408263712576245,0.4393372767973348,0.41463385330187147,0.03097787142862377,0.2535099049410952,0.20588527529125814,0.6258387152754825,-2.742919,51.12468
372,Kendal,0.4210140624576422,0.6440890914745732,0.1812565521543492,0.1280359055962569,0.3745001916684917,0.4237546188297148,0.4893978847149589,0.08672908754283153,-2.74629,54.32801
373,Wincanton,0.4214748872424633,0.9042677448755352,0.5957221338180911,0.4505919344920583,0.04985599120736777,0.1662744893892411,0.3068075345398358,0.6402373297117271,-2.416007,51.05569000000001
374,Oxenholme,0.42504253311411866,0.6270602228174029,0.18833477468318552,0.12572980053758062,0.3656419768025495,0.4435692335151174,0.4282183596230428,0.09011593217854064,-2.7243328,54.30134
375,Barnstaple,0.4259113815466564,0.728913083097692,0.6192426628251299,0.4785260741213728,0.04349143628496362,0.30658651624546873,0.2870953618206109,0.4956855279633312,-4.058338,51.07816
376,Kingsbridge,0.427552112856028,0.9018987986157831,0.6362041439647289,0.4328768994346521,0.01418084231443211,0.2112409579784951,0.16549428875703145,0.4428651678437796,-3.777493,50.28395
377,Ashbourne,0.428538878379065,0.841765880769361,0.11594396129718453,0.2872904396761925,0.31201709266921057,0.22471335452363875,0.19771705695430453,0.1479407841572075,-1.732179,53.016630000000006
378,Taunton,0.430004559478996,0.8327032196799591,0.33061532887125505,0.4050721804840923,0.031314284703347815,0.2646336322804772,0.2463169499569053,0.645068906766093,-3.106849,51.01534
379,Okehampton,0.4303335448920689,0.7706241538647808,0.6480645129518747,0.4249138741215976,0.03996524743065051,0.29697448272994564,0.3195563226861421,0.5112144473032022,-4.004263,50.73831
380,Swansea,0.4313437412602606,0.5952921782062689,0.4599169916244073,0.5601277091218955,0.05419239148996041,0.3531542580108445,0.28185344043917193,0.7702266822901596,-3.943646,51.62144
381,Morecambe,0.4328420348272268,0.5941994423354754,0.21596829007179327,0.09624999016346633,0.4384327426036937,0.4511571117047761,0.2992329282293497,0.07750367854355696,-2.864968,54.07417
382,Dartmouth,0.43365492168308106,0.8833538888444366,0.6893499720175237,0.4575784730552049,0.023466000732396845,0.20521919729463609,0.16276646621627172,0.4660127695264107,-3.578807,50.35252
383,Bideford,0.4340861037242647,0.7322110618531762,0.6278598804381613,0.4638577648472639,0.05944577364237925,0.3012185158154877,0.2910904992967743,0.502583356713314,-4.206666,51.01668
384,Totnes,0.4368455761542654,0.8982980847930252,0.7651500755929783,0.440764183438425,0.01,0.2045029005118192,0.16539669333094767,0.47354328730852097,-3.685797,50.43374
385,Preston,0.4383283672201931,0.578398201130149,0.2868330548485956,0.06349700294871176,0.40114594745360105,0.4951804618305759,0.25100144861199425,0.08668179423112879,-2.70309,53.7632
386,Lyme Regis,0.4407184224066447,0.9564552824481,0.3889639404764753,0.4355612894740096,0.0460685775834456,0.1457675784267225,0.17220105298126392,0.6012932635438287,-2.936639,50.72516
387,Banbridge,0.4415846825481479,0.2462228033774181,0.3517435375116392,0.18268108215360504,0.3243956913945857,0.7197978143314117,0.8997325251983339,0.08415253323227305,-6.2704803,54.34873
388,Shaftesbury,0.44177689721392255,0.9366948698361722,0.5587141827820434,0.5033180735907621,0.07013553350010712,0.10885953315297986,0.3195608799438256,0.5712067389043368,-2.198083,51.0046
389,Hawes,0.44345885046366496,0.6385167553255982,0.2329734347286881,0.13287154554989594,0.3189058248078805,0.44590133899159307,0.4717762195773689,0.12540936824809068,-2.1968695,54.30383000000001
390,Paignton,0.4454436065192785,0.8816275469816011,0.6183959706695918,0.4638588187615861,0.015511360962390724,0.2114360043417253,0.08043094737406196,0.4605598262054295,-3.564235,50.43508
391,Kilkeel,0.4469202674222297,0.23469732534455226,0.01,0.16895124845285378,0.3351089476601621,0.7473118588526878,0.7732192658746316,0.0723196705762471,-6.007004,54.06312
392,Dorchester,0.4510299286816839,0.9083889720619382,0.5917447153941774,0.5209540650740101,0.05612227585929992,0.14182473478596105,0.1946104445031123,0.4328039245352279,-2.4411810000000003,50.71116
393,Lancaster,0.4511045531989846,0.5820698037950625,0.3167459995346579,0.09338165694442413,0.4450835390593574,0.4533212136413465,0.36009401786194944,0.05051972280610969,-2.8007399,54.04657
394,Tiverton,0.454586485769644,0.7909956975795811,0.4771260820927848,0.411896697285454,0.032110951143573624,0.2959505738318089,0.1961439500283374,0.5333773880717962,-3.491207,50.90205
395,Midhurst,0.45688393462739707,0.8898142788378385,0.36145991724744747,0.5779090002596845,0.17904760351497967,0.051520972892611976,0.6444086111557391,0.5934019211384334,-0.737274,50.9869
396,Worthing,0.4607024812583889,0.8174308565526679,0.3265059971050695,0.5775002922855721,0.1824934899401167,0.10414698315333497,0.8783756498664063,0.5656574646420197,-0.372882,50.81787
397,Bridgend,0.4642847850308503,0.6057858813929126,0.5033162710914021,0.5385311778771299,0.03671016565865922,0.3582126181137562,0.2643857638701803,0.7740990068911662,-3.576945,51.50429000000001
398,Torquay,0.4648434472167765,0.8812217738416117,0.5560823846058389,0.4597509417778383,0.011023961705830905,0.2134621878793391,0.08051407642831965,0.4911579518619313,-3.525315,50.46192
399,Grantham,0.4649368436553698,0.8809905613069773,0.3660258292500468,0.4366884157110241,0.2069771615606784,0.15139282371358115,0.3706050873181673,0.1824364286609115,-0.643582,52.91252
400,Chichester,0.4654289458939554,0.8975624123870098,0.34319992385243386,0.6087046577954248,0.14913971703552456,0.04845533083344957,0.6880670229110054,0.5291438235337115,-0.774936,50.83761
401,Boston,0.4677661182077965,0.8480342625460786,0.5544070358216812,0.4375814324466213,0.19960737502485268,0.14484913653955306,0.26304022769648583,0.5947341865819685,-0.026577,52.97894
402,Tunbridge Wells,0.4704506119333021,0.740621782172529,0.3191455377666949,0.6103223460189019,0.15412689870843696,0.17618365592604598,0.7653275445410298,0.4342614311318101,0.263695,51.13238
403,Belfast,0.4707972249705786,0.2987406204302994,0.3687805595512176,0.16561251814137853,0.3150171693089644,0.6915661208861523,0.9433118977459816,0.01,-5.93012,54.59728000000001
404,Salisbury,0.4737807344234942,0.8830194692529573,0.5735943421875954,0.5925838438025903,0.12457836905489915,0.05923324806956479,0.6430950926385904,0.6891153695551311,-1.794472,51.06878
405,Axminster,0.475289817077299,0.8862685693491009,0.2755553411920599,0.4145141988958351,0.04598744586928657,0.2148173713632053,0.1441736728368781,0.5753451484948784,-2.994937,50.78273
406,Hastings,0.4755587268932021,0.7424711022353134,0.3581341989752787,0.6094322802434065,0.1736202097303186,0.17141600617387642,0.6949567201327644,0.3584833507957483,0.573453,50.85426
407,Melton Mowbray,0.4777624251251676,0.8716227993724942,0.5164007991839829,0.4737226136850353,0.18426035070323715,0.14293315250698813,0.3802628161157859,0.20590965821580914,-0.887126,52.7664
408,Uckfield,0.47872412509292295,0.7620189328128396,0.4555592830602127,0.5927528213989013,0.13938787849344075,0.1774692041398506,0.7295697933555908,0.3336036457801076,0.095913,50.96641
409,Exeter,0.48213276815955197,0.802998006578721,0.5700120333693428,0.4309324977713225,0.030728394862938883,0.2717678671088618,0.1929767143646784,0.5247646587232789,-3.533899,50.71841
410,Derby,0.4830859948798153,0.8743578497479305,0.3435811459196375,0.3940247695159639,0.2469129002673546,0.15620374198307055,0.3478796090775011,0.19179936772977904,-1.4746186,52.92253
411,Petersfield,0.4908655258842044,0.9225899758107666,0.2802858022523065,0.6408177082337969,0.1491440016746028,0.01,0.6870763101464387,0.6475938485015023,-0.93899,51.00759
412,Eastbourne,0.4935504010420732,0.7552173638627946,0.4661085587784858,0.6015690254861777,0.16219667087690046,0.15699913902411222,0.8708749879831541,0.3878736696231413,0.29047199999999995,50.76803
413,Bognor Regis,0.4950003344344467,0.8739841413464368,0.3149762520351411,0.6278584264244144,0.1522901015784265,0.054021081908993344,0.6469892109027693,0.5434779113217093,-0.673061,50.783
414,Sark,0.4974148012921293,0.8894560747301892,0.3332476021474593,0.5681600117363899,0.12075778403166156,0.07529195263043814,0.4262106772784866,0.7491853204638168,-2.3666256000000003,49.43007
415,Alderney,0.4984464668533233,0.8910583399962365,0.3814506816689115,0.5896011960100771,0.11773144670078298,0.057860486750537676,0.4268779649708375,0.8188031037702519,-2.1973557,49.715
416,Jersey,0.4991768008477607,0.897634061657746,0.3778031105564461,0.5888780702632033,0.11600266393979335,0.057181373849792785,0.4227959942078891,0.7770782319684392,-2.13125,49.21444
417,Sidmouth,0.4998595102871626,0.8054015945849373,0.41302556270067375,0.43760096499205775,0.0397654588568569,0.2747483242745508,0.12677845666505422,0.4341223578435969,-3.23756,50.67865
418,Southampton,0.5008989134762915,0.9150371456687972,0.4046632910568035,0.6342672794171376,0.14233087268353928,0.01,0.80866962418668,0.7012238781613773,-1.4043508999999998,50.9097
419,Bexhill,0.5009855258678573,0.7380512800927992,0.36232405105490384,0.605600599073005,0.16697093363045692,0.17565429265946206,0.6721821754177056,0.38102794745313495,0.4662071,50.84991
420,Guernsey,0.5022045564547822,0.8794549180338256,0.3967577915166546,0.5670102614719277,0.11598835877383855,0.08587245725628236,0.365355173207868,0.737859757048251,-2.585278,49.46569
421,Lewes,0.5041823922375245,0.8029543241813499,0.4757053046797112,0.5874362452096081,0.1527619647336886,0.13771659188762647,0.7473364493991729,0.3154409025434971,0.00878,50.87387
422,Weymouth,0.5108658228565441,0.9052945346899492,0.6117827522656286,0.5301092782682305,0.06152479109447441,0.1263092529386251,0.20120047281899026,0.4662782118724976,-2.457621,50.61443
423,Aysgarth,0.5114982104692012,0.6851562904637777,0.1476527017539102,0.1307235979004902,0.3355913150918741,0.4046860480327864,0.2158194777216764,0.11102150825322064,-1.9967434,54.29159
424,Nottingham,0.5148945932098772,0.8538535267536939,0.28769528825605245,0.3945780042741144,0.2860940587466864,0.15435975946760805,0.4151242598823636,0.12706961355147747,-1.1581086,52.95478000000001
425,Fortuneswell,0.5211417469411507,0.9017986332732624,0.5464211530161696,0.5510946094671297,0.06762549517815702,0.11390504791481225,0.2168848944564244,0.5026265624629497,-2.442219,50.55919
426,Newark-on-Trent,0.5216695675960129,0.847184230130698,0.3524747986402857,0.3215092811910862,0.3633585406021729,0.15073128864799715,0.3806768371336948,0.17989862968481826,-0.80657,53.07004000000001
427,Ringwood,0.529103575369877,0.8960458643204459,0.5100994017010883,0.6020005682706026,0.11981592361234886,0.03778119043184322,0.5366493319101134,0.784718904083603,-1.788817,50.84495
428,Isle of Wight,0.5379282855391769,0.8918770258556701,0.32838527342763324,0.6263341852708306,0.16177477214185726,0.019600976381135903,0.6299879287592184,0.6840074427029593,-1.304734,50.69385
429,Blandford Forum,0.5555815202014072,0.8860365963858855,0.5546224662620071,0.5648792467126305,0.0726614664508959,0.10850087770863416,0.349128519703029,0.5093364770226726,-2.165353,50.85691
430,Portsmouth,0.5725157003690766,0.898344048476139,0.35696865990059706,0.6157769849843908,0.14842273106073772,0.02003366155433341,0.7133577815017195,0.6612771701780704,-1.0879769,50.81977
431,Poole,0.5747289889004544,0.8616011533504778,0.4992643990155855,0.5961657472786528,0.125735290713107,0.06480947823914705,0.4489732095297026,0.7552471968679709,-1.987248,50.71505
432,Scarborough,0.57566131857626,0.6192428902673673,0.1239515616546132,0.08166360516266254,0.5732279026477479,0.3656564932692102,0.05284307383478429,0.06919422444179901,-0.399752,54.28311
433,Clitheroe,0.575758420357808,0.568553354753198,0.3270669897029932,0.05352479537199522,0.42317769980809655,0.4780968342656908,0.2589512808236989,0.08942721950161085,-2.3930830000000003,53.8711
434,Down,0.5792725567179706,0.2808515803100031,0.3680378046571897,0.1930867998214809,0.2303663843250764,0.720692255712881,0.9414119770177262,0.01,-5.7156922,54.32875
435,Bournemouth,0.5875499931818965,0.884307128316662,0.4279409069158315,0.6084992147635689,0.1347058045871484,0.033282954807047835,0.4925877547584461,0.7917564400217985,-1.880769,50.71916
436,Colne,0.6049020869935514,0.6067180823410655,0.2157469300180076,0.0746797365157986,0.4161582170704582,0.4427663996976612,0.3039249872580828,0.05386034083080525,-2.176991,53.85564
437,Malton,0.6166871754674691,0.6272201662955914,0.07713467774816707,0.0930014749179633,0.5784942769315655,0.3490555801006736,0.04932612122765838,0.055362028071505184,-0.7978970000000001,54.13684
438,Skipton,0.6435604204528935,0.6331425953140193,0.1737163405583313,0.07501340579017715,0.3967430661582136,0.4262131495052347,0.2777205218723771,0.08312118667618792,-2.0162787,53.96285
439,Skegness,0.6488976400371024,0.7040081176595933,0.6549794838115248,0.4324119826966942,0.5016517629182041,0.08905066506753408,0.3590113653449369,0.5535373622233651,0.337881,53.1464
440,Keighley,0.6745301400360807,0.6316148942949351,0.21511741338164106,0.07146761644488561,0.4308397401933078,0.4088158251897815,0.2751267761897215,0.0617586605079216,-1.912358,53.8678
441,Wetherby,0.7081127802863767,0.6891300789975455,0.204176061388475,0.06894855043218916,0.5762903829824639,0.2897455980199244,0.2611332140056307,0.058617480538308224,-1.384816,53.92706
442,Harrogate,0.7196673473872086,0.6863717088122941,0.17151511089354782,0.07754561060142254,0.5144970417676984,0.3172126556356736,0.21936113300250207,0.08206792466700928,-1.5418120000000002,53.99211999999999
443,Mansfield,0.7290220305797048,0.7471708888337062,0.3101997519575993,0.1891615310592766,0.6040329372645219,0.160814543359956,0.2489307475733684,0.12223388773090656,-1.198674,53.1472
444,Horncastle,0.7402211027182366,0.7178876291028183,0.3810860698286265,0.2669803865139437,0.602094483617026,0.12958481491384607,0.180516377259186,0.3309226160061481,-0.11245,53.20731
445,Otley,0.7430077113363468,0.6971717379789547,0.20799999510281536,0.07430651032386362,0.4969466072465548,0.3163858213125165,0.2128190961156144,0.05971530353160466,-1.691786,53.90583
446,Leeds,0.7435947084978091,0.6856099283583335,0.2102980355291109,0.05681715345329781,0.562725906731562,0.30159880551849355,0.2151703840042312,0.060375053536133774,-1.5490774,53.80076
447,Bridlington,0.7502869393063462,0.5717206242848273,0.16307966471315902,0.08359929446759619,0.7513605283982768,0.2953600261774532,0.06952417941287821,0.026010556384784188,-0.198802,54.08535
448,Driffield,0.7591895161680322,0.6365203768244687,0.1610920747271633,0.09042669196810488,0.6735129900927396,0.2753354915759912,0.10301524410874828,0.038540315585322456,-0.443377,54.006
449,Castleford,0.7688003311922715,0.6778932681032062,0.2278170282454807,0.041034435174994735,0.6506638391734462,0.2682310038532644,0.2428075694086997,0.05450385862361756,-1.345968,53.72346999999999
450,Halifax,0.7725397033627758,0.6143955382782427,0.2152008117046952,0.041513052799140214,0.5299306572629435,0.3754574885127155,0.3145525121760285,0.05884057836441419,-1.85754,53.72702
451,Bradford,0.7764727069478312,0.6272880134234233,0.2142263267857305,0.05093427396826004,0.5365848399656206,0.3562844648106952,0.3287845241044518,0.06150283595493389,-1.759398,53.79598000000001
452,Lincoln,0.7859167815391094,0.7824358065202695,0.41870430508758455,0.2017089431515804,0.5211136993248998,0.15022153142832387,0.336004061615012,0.16498999242397694,-0.540579,53.23069
453,Selby,0.8126447280394062,0.6886853127697673,0.16300329238817987,0.0474066822102635,0.6635079432025479,0.2478900682189017,0.15635613407643742,0.07799512154057599,-1.067189,53.78352
454,Chesterfield,0.8156041255179475,0.7035674492969456,0.3083318780350324,0.13586698083618404,0.6988086008186286,0.16508359105707315,0.2938252628915443,0.09546259888577692,-1.421629,53.23505
455,Beverley,0.8202089132297226,0.6568401691497334,0.2469167882998804,0.09855855435556088,0.7403746446945767,0.2085373517165937,0.1052656413234178,0.07876448378436587,-0.435093,53.84196
456,Huddersfield,0.8338018548783358,0.6210503022661362,0.2318432723309197,0.04107694305265299,0.6202954231001617,0.3185022602729767,0.2823985702550525,0.06339098798097621,-1.7850351000000002,53.64579000000001
457,Market Weighton,0.8410023443105479,0.6436083316272977,0.194519973669958,0.07526416713788348,0.7613015130235407,0.22139317188993168,0.14927007747489973,0.03723019292453586,-0.6677465,53.86484
458,York,0.8520758162209834,0.6350490742584701,0.14818911706337914,0.0749078035751022,0.7635772783378255,0.2252427177902227,0.14214607878182772,0.07090671622033462,-1.0872979,53.95997
459,Wakefield,0.8561004453086611,0.640347318150053,0.29531980269243185,0.03491365209698033,0.7176255608298847,0.2542336385003266,0.25180166800539033,0.06280310474951804,-1.505924,53.6833
460,Worksop,0.8617200883124901,0.718817295289035,0.3100140152672654,0.10265497880367512,0.7136394643454795,0.15371106974310333,0.2954282607538048,0.12216069632542248,-1.122745,53.3093
461,Retford,0.8702237414128335,0.7231301504778321,0.3060837048356464,0.10539361030014352,0.7039214191664482,0.15168218192315694,0.29168286099869783,0.13784224129832792,-0.945503,53.32136
462,Doncaster,0.8878582041537711,0.6625001235696443,0.2892396556248615,0.037530872663542166,0.775311729952744,0.20074225789320824,0.32368545522347675,0.069198854097659,-1.128462,53.52282
463,Barnsley,0.8940526657286155,0.6499863841037979,0.2991427039779264,0.0323678166605024,0.7603181192480016,0.2193957213521004,0.34008163871414243,0.06361608805673645,-1.479726,53.55263000000001
464,Grimsby,0.9188087703833028,0.6164283328591919,0.30651811069322,0.1105906726053099,0.8275995993724248,0.17672011793375236,0.06533745014958964,0.10999893137575224,-0.08078400000000001,53.56746999999999
465,Hull,0.9214189392883644,0.6123202019427936,0.2644388508931725,0.08891917292176525,0.8845938683912292,0.16635663196509026,0.06764138929940239,0.07591849137186032,-0.3274198,53.76762
466,Sheffield,0.92772611412647,0.6297519287637264,0.3615120229262794,0.01,0.9032895454737384,0.16986577632678002,0.4045647900124917,0.04324479350388374,-1.470085,53.38113000000001
467,Rotherham,0.9434212929984956,0.6227984853276572,0.3652150162810375,0.02267236698477076,0.9188418869357,0.1592595810187776,0.4087087862210402,0.043687754080235064,-1.3635008999999998,53.4326
468,Scunthorpe,0.9472906791144394,0.5982394304018163,0.2872573282850181,0.06734533596540235,0.9684212424941936,0.13925803281714205,0.12246363340503068,0.10308689015060343,-0.654413,53.58865
469,Louth_Lincs,0.9727070431894502,0.6033577061959129,0.3533684800131186,0.19560481191985524,0.8103822609860738,0.13052590516555093,0.22597225324176146,0.2536238751466364,-0.007711,53.36596
470,Gainsborough,1.0,0.5834225217484686,0.3562028992027292,0.05368520113181963,1.0,0.12855515941575316,0.2530942231371949,0.11362587984445616,-0.774465,53.40057
