,placename,at,at_the,down ,down_the,in ,in_the,up ,up_the,longitude,latitude
22,Leitrim,0.01,0.01,0.01,0.2612211663093663,0.2281795598252061,1.0,0.01,0.25919313255997883,-8.0020132,54.12469
45,Meath,0.033913342109002195,0.2751750231994086,0.02912972406319919,0.05121222630547661,0.22167630698941423,0.8873963879576953,0.22353469295961295,0.14635135641309896,-6.656416900000001,53.60555
52,Rosslare,0.0396212049693553,0.20741373930531132,0.22485328135398236,0.039707065216780316,0.27031172891613764,0.9290348991015358,0.01,0.053794799942559035,-6.3414908,52.25131
49,Wexford,0.0396212049693553,0.20741373930531132,0.22485328135398236,0.039707065216780316,0.27031172891613764,0.9290348991015358,0.01,0.053794799942559035,-6.4633381,52.33692
51,Drogheda,0.03988556484207134,0.2689376500103798,0.030019842186033048,0.059127684952126974,0.24005782327757336,0.8782704491914363,0.23036522762841913,0.15082340724624815,-6.3560985,53.717859999999995
25,Offaly,0.05393884086246758,0.20386891698325138,0.24085778318230422,0.08316747063935219,0.23749858071330532,0.9065254670718134,0.30804770457883224,0.17287134106799754,-7.7122229,53.235690000000005
56,Dublin,0.06551043619378998,0.28126136682305863,0.02985797013415417,0.046578024509269365,0.2165260326032009,0.8828832787800711,0.22912305940720756,0.15001013977696093,-6.2603097000000005,53.34981
3,Bantry,0.0674847301045901,0.2997750990225873,0.1906755832460078,0.062324347612982396,0.17121860041988082,0.8711723841392487,0.2032221891801565,0.22808995472922272,-9.4539805,51.68035
58,Wicklow,0.06781515951160853,0.2891370411436643,0.030161056524456022,0.03214832143768528,0.20415012905402008,0.8890953533330784,0.2314488967644534,0.15153289872799616,-6.044589,52.980819999999994
17,Cork,0.07215855707406504,0.3161237220680852,0.19456692634109904,0.05613983784895802,0.1675475631218903,0.867657155142311,0.2073695858040535,0.15516323528290546,-8.4756035,51.898509999999995
187,Newtown,0.0801096781514589,0.6745098256244321,0.15583385065936844,0.34160370348303226,0.15249514229044503,0.42630712331628823,0.2790275667465601,0.45235874277327764,-3.313106,52.51211
2,Killarney,0.08142858952714783,0.31189290867396374,0.20228498065822217,0.08107257001082581,0.1671036883348006,0.8508777593398302,0.21559550603444602,0.2419773528601813,-9.5044265,52.059940000000005
12,Charleville,0.08187769888939157,0.32833476871268985,0.20265889349465852,0.08167646291739224,0.1678743705122293,0.8431867803862458,0.21599400900567872,0.16161642034274457,-8.681017599999999,52.36206
48,Louth,0.08309291515268667,0.12445643086424145,0.01,0.2932493415143316,0.3034364809512894,0.8567257698838271,0.01,0.09813073207353534,-6.4889423,53.925230000000006
6,Abbeyfeale,0.08323499870789784,0.32306014035314806,0.20378896452704223,0.05738212179090111,0.17020362470791028,0.8513584455244296,0.21719844547032596,0.24377643975040178,-9.2970823,52.386179999999996
11,Adare,0.08460752857575471,0.317726367548423,0.20493170793826865,0.08534682493555663,0.1725590013805522,0.8469849449222197,0.21841637842888217,0.1634289415412349,-8.7925892,52.56363
14,Limerick,0.08460752857575471,0.317726367548423,0.20493170793826865,0.08534682493555663,0.1725590013805522,0.8469849449222197,0.21841637842888217,0.1634289415412349,-8.6267343,52.66384
0,Dingle,0.08553113979754931,0.3273473099543227,0.20570067556113558,0.06022431793475511,0.1871096356902695,0.8376997915336358,0.21923594863951895,0.24606327115902243,-10.264013499999999,52.14094
1,Tralee,0.08553113979754931,0.3273473099543227,0.20570067556113558,0.06022431793475511,0.1871096356902695,0.8376997915336358,0.21923594863951895,0.24606327115902243,-9.6999325,52.27131
36,Kilkenny,0.0882320896050009,0.16780652094545603,0.20939354563128096,0.03619331486688078,0.23454922867167133,0.9592430848965491,0.26780617272607243,0.15028845247890396,-7.2447879,52.65415
166,Llanidloes,0.09081942705862112,0.5899432390759575,0.13361853099043494,0.4799560250736054,0.10558359652189583,0.43412554157479144,0.45571437520680746,0.5896215513829023,-3.5401949999999998,52.447790000000005
10,Clare,0.09441486300243665,0.33572321954308204,0.2130971054514235,0.057564870534354246,0.14909334618356485,0.8485845279218839,0.22711906960990258,0.25491102876881266,-8.9811351,52.90453
7,Ennistymon,0.09441486300243665,0.33572321954308204,0.2130971054514235,0.057564870534354246,0.14909334618356485,0.8485845279218839,0.22711906960990258,0.25491102876881266,-9.2934951,52.940369999999994
33,Laois,0.09877152896209118,0.22931120970583999,0.2909725646013114,0.0564754041691164,0.2068450979271538,0.9127169214720354,0.3721425541519942,0.06961344218436799,-7.332300699999999,52.99429
28,Doon,0.09893742479482003,0.01952421504548504,0.01,0.28728868315232237,0.2610916693693295,0.9634272857354853,0.01,0.0835893721008037,-7.60964,54.185930000000006
384,Slough,0.10045814113569579,0.8099762484357349,0.1506126295723327,0.6274117775347061,0.23670205248724338,0.14835794286595105,0.28894150690820086,0.3002764013841508,-0.5950406,51.51054
40,Carlow,0.11588953228354973,0.19763661331809546,0.01,0.022683397954675458,0.25300303096750537,0.9436234881794129,0.2974614170002843,0.055643497158274394,-6.934135899999999,52.83651
41,Kildare,0.1161419860175069,0.28686923188517593,0.029560913859235288,0.04026121336734337,0.22530180272042793,0.8710527196460363,0.2268435074286397,0.14851768561763612,-6.8194707999999995,53.21204
38,Waterford,0.12294853755426383,0.1987744679513572,0.16354185478418662,0.012217185604710723,0.2521821079415302,0.9359788200607718,0.20916364961601422,0.1565056387547119,-7.110070200000001,52.25932
113,Pwllheli,0.12706073261441506,0.39165958552755703,0.10662028825742291,0.2059855166878199,0.13664474198421772,0.7382788797916078,0.28321585015157147,0.23546090458037078,-4.417633900000001,52.888819999999996
20,Tipperary,0.13634787503349452,0.2819754092605499,0.1754215384136349,0.0714154828164188,0.18176288987019412,0.8751936519676526,0.1869644177850323,0.1398951723505026,-8.161851400000002,52.47379
13,Mallow,0.13634787503349452,0.2819754092605499,0.1754215384136349,0.0714154828164188,0.18176288987019412,0.8751936519676526,0.1869644177850323,0.1398951723505026,-8.6539164,52.13898
196,Welshpool,0.13710749758437518,0.627439507695157,0.08666615221864117,0.36107266275528616,0.16023451350031032,0.4615655563672158,0.2955803446223968,0.24881229435846836,-3.146407,52.66035
375,High Wycombe,0.1402187323885526,0.7710736938942062,0.4497373162964179,0.5969339102975579,0.18813884746111292,0.17593587605733194,0.41541967534774005,0.5887944605218972,-0.748229,51.628609999999995
149,Machynlleth,0.14090749025542482,0.5249049654380985,0.1285629279360463,0.3552851976468764,0.10402122361413867,0.5642485086728023,0.21923594863951895,0.3759300012471654,-3.853485,52.59027
146,Castle Douglas,0.14346839989532406,0.4146490313702982,0.23972026587107637,0.07835796776090138,0.23030142366808365,0.7318545190755005,0.1962194369120181,0.2248184186893235,-3.9314139999999997,54.940419999999996
153,Dalbeattie,0.1446914900123979,0.42374455987280896,0.24528058958301951,0.07681826919726015,0.22956453485370756,0.7247855250583868,0.20077075847526357,0.23003308992972296,-3.8225269999999996,54.934219999999996
131,Porthmadog,0.14487130812637564,0.41189737830417833,0.0982179803020251,0.1802748552343287,0.14219010155769435,0.7310854887872001,0.2898852916039036,0.21690519143290357,-4.1333839999999995,52.92784
31,Cavan,0.14736949938773294,0.01,0.01,0.18722253948946702,0.3404231440446593,0.9810466992374935,0.01,0.09913206674342714,-7.3633319,53.98972
147,Dolgellau,0.15082930888133925,0.42416326029867435,0.10474909777139545,0.2039466843012295,0.12864304029143286,0.7156433605981328,0.2782454011047564,0.2197621262709214,-3.8844,52.74215
104,Holyhead,0.15281003265197254,0.4196144187735959,0.11473559013020682,0.13517814243525592,0.19628947491540777,0.7206239725839856,0.2476276990636156,0.20587351717237723,-4.633038,53.30944
87,Stranraer,0.15468469098052773,0.39255537039589006,0.23955265607304524,0.06585018284710877,0.22851618042117586,0.7561180162331304,0.1960822400851922,0.21090646021216922,-5.024055000000001,54.903369999999995
110,Newton Stewart,0.15521618973317583,0.39432797166406525,0.23995531245947374,0.07375482130671883,0.2278682324212143,0.7496754016112789,0.1964118232979189,0.22963148149197363,-4.483164,54.9603
122,Glasgow,0.15533824808933036,0.4087388537012298,0.096019107864164,0.040403913366556465,0.195127992189794,0.7740849300148634,0.24560939480307398,0.22971996956020946,-4.251806,55.86424
106,Dumbarton,0.15627343850785838,0.39297423980588453,0.134823485092029,0.03828568610103413,0.20518224332230361,0.781175220255345,0.24633425585082652,0.2303979409109372,-4.564554,55.94529
98,Helensburgh,0.15629575230109288,0.38722210454355227,0.1252020339908102,0.03312122487889818,0.2052141707941447,0.788598137222722,0.24635157343002384,0.23041413377713676,-4.734014,56.00232
118,Caernarfon,0.15672641668406948,0.39935723506816095,0.07360459338374643,0.1452398624683966,0.18386001337774896,0.7376812333961289,0.28241221865755084,0.21131349833129542,-4.273911,53.13955
142,Airdrie,0.15683270008749783,0.4231936293659267,0.09647196952942497,0.03631233692432389,0.17825453064301305,0.7738493194166456,0.19741420965332113,0.2308034008376503,-3.9625660000000003,55.86626999999999
117,Llangefni,0.1596413772923233,0.42046478915723473,0.07326814949153063,0.13500171717773546,0.20265962751144637,0.7170975884224263,0.2530091893829311,0.21034759211380136,-4.311401999999999,53.25578
32,Mullingar,0.1601815400086449,0.17315131996460456,0.01,0.13292571674605216,0.24488108295220207,0.9065934121654166,0.3449527979698376,0.06452729526184145,-7.340186800000001,53.525819999999996
75,Lochgilphead,0.1607230922285744,0.3755180102862329,0.12694609868071857,0.043011437921354916,0.19382629119499065,0.799259432283249,0.24978323520681148,0.21493388921379541,-5.4323449,56.03829
72,Campbeltown,0.1614347087920568,0.37298312161170977,0.12956801112231026,0.04130782055014886,0.20198438221413145,0.8003891462276445,0.20395376926167316,0.20029716882248624,-5.605373999999999,55.424119999999995
182,Corwen,0.16262167181532244,0.412816102768036,0.08832168385088138,0.17863882890164703,0.15356485081128604,0.7277805177416128,0.26067689228819807,0.17554514001023613,-3.369242,52.98005
93,Girvan,0.16542944992957806,0.38345223760756997,0.21189100928252208,0.05442645420503381,0.2009585566903015,0.780903101845639,0.20647644509501828,0.222086484559525,-4.8542179,55.240159999999996
97,Greenock,0.16633200063590223,0.39290533652724596,0.12465017793134553,0.034842126444986785,0.20030742976457225,0.785926982348811,0.2452657074620806,0.21104664391831268,-4.7719830000000005,55.956480000000006
140,Motherwell,0.16640082193225186,0.4283441388826481,0.09590488286034904,0.03908026723894681,0.16703319911125528,0.772857523871207,0.19625376825323387,0.22944668434102278,-3.9810968,55.78321
47,Magherafelt,0.1664184768016242,0.233746113681876,0.3383903129595165,0.24882699335949665,0.3452549038903625,0.7298834352904113,0.8655760073984624,0.01,-6.607980499999999,54.75536999999999
389,Heathrow,0.1690077759073969,0.8046233804244222,0.15115249849333912,0.5540178164918762,0.1798524245908705,0.21784008294033885,0.19331814644738218,0.19889280490450092,-0.4542955,51.47002
181,Llandrindod Wells,0.16929393191514053,0.5944195019175895,0.46523697869218533,0.5630549210210659,0.07815181678717446,0.3621889272483826,0.3966799513065196,0.8676094385943781,-3.377742,52.2417
79,Ballachulish,0.16987011274459518,0.39079464026278377,0.10227086653361064,0.05771480741191241,0.1869685190290151,0.7834796068379131,0.2616008938114439,0.20552861436839534,-5.133719999999999,56.673930000000006
39,Monaghan,0.17072552930892218,0.01,0.01,0.4341585295112873,0.3681969347277392,0.8288206185302156,0.5700134711368596,0.10662741837658786,-6.9683132,54.2492
285,Hexham,0.1711312098721234,0.5755945009522677,0.14874299229784327,0.1337748203848951,0.2183179792370537,0.5782086901436685,0.28535472309103227,0.24317011221481405,-2.1121439,54.97266
341,Stockton,0.17251635425312747,0.6200638996585759,0.13532827884189114,0.11719379713807458,0.18633266476838725,0.5740207709165251,0.17307958709515966,0.1888627975649007,-1.3289821000000002,54.57046
91,Dunoon,0.17423530644207927,0.38475307743334397,0.12546654591573797,0.03667888832555215,0.20033555634690844,0.7903887101621183,0.24687203562803295,0.21242884756665287,-4.926214,55.95097
84,Rothesay,0.17486308962121178,0.38572287735022065,0.1257011356772124,0.03720661835710777,0.20117721149745577,0.7888165080210704,0.24733360403443974,0.21282602307612838,-5.055793,55.83596
109,Kilmarnock,0.17565772221398052,0.40446026004460667,0.13340331069049371,0.047019755132141156,0.19366230008962496,0.7727378593779946,0.19499157146876708,0.22797101323065586,-4.498792,55.61472
188,Ruthin,0.17578076139621138,0.40956349625121374,0.06814244177754572,0.1686379548553692,0.18569335515366406,0.7200425518825013,0.2614545707839748,0.1565056387547119,-3.3103108,53.114869999999996
102,Irvine,0.1760300819357583,0.3932085785469071,0.12613720438478562,0.04042625635018509,0.2046989083914449,0.779312307763555,0.19855331373922863,0.23213516353290986,-4.6696364,55.61156999999999
21,Donegal,0.1760778972069751,0.06759466554280957,0.01,0.3116100747464142,0.28110038100807466,0.8836120828686755,0.01,0.21669016818127673,-8.1096143,54.653830000000006
349,Hartlepool,0.17626790501407827,0.6176181078661183,0.13414714369605982,0.11402734668778618,0.1892902405527682,0.5758039070795069,0.17156896134056107,0.18721441712081885,-1.212926,54.69174
74,Oban,0.17699001096754263,0.3679172308976327,0.12870223273793133,0.04548132126568645,0.19696845199514562,0.8031329786892406,0.25323866483521,0.1800103141213195,-5.471047,56.41516
194,Llangollen,0.17808575716571778,0.43056678713263585,0.08919050470256722,0.18439488736325813,0.15286265375202732,0.7089928542719716,0.2632411793897764,0.17727198415911005,-3.1716599999999997,52.96921
8,Galway,0.17903198187760352,0.34375427477039067,0.3162647963270969,0.02193013025818932,0.08307624922971518,0.8694315023877124,0.3370752742467113,0.3152685691780578,-9.0567905,53.270669999999996
254,Market Drayton,0.18131659826085908,0.6325455321398942,0.0250849876239191,0.29405326735923354,0.16822267020504142,0.48534093056383254,0.19249633266373198,0.25206020122941275,-2.483485,52.90355
160,Dumfries,0.18245007901780075,0.4491663632697448,0.20413586975579368,0.052914297935676945,0.2148504622952798,0.720197034010745,0.19891948355146064,0.22791199495482048,-3.60512,55.070859999999996
65,Stornoway,0.1836719703474481,0.4580708129682814,0.09414439067429134,0.03969996886034483,0.17267330449402662,0.7526487600358451,0.10702844702178012,0.15015653570310158,-6.384869200000001,58.209430000000005
62,Balivanich,0.18533994682560412,0.41022380173565276,0.052555150841417625,0.05643633907824373,0.21340646981882958,0.7595514406895106,0.1613183800594222,0.1911172869583635,-7.3743509000000005,57.472269999999995
318,Darlington,0.1857393609999849,0.6089720771470003,0.1352392524111462,0.12042179618477393,0.18945547558560824,0.5781907742732154,0.17296572576472857,0.1887385531649569,-1.559458,54.52361
348,Middlesbrough,0.185796494118926,0.6207342174526639,0.13526149988229397,0.11701470196427145,0.1861173962082465,0.572040222143272,0.17299417941206022,0.18876960114977046,-1.234956,54.57423000000001
144,Stirling,0.18607562087312318,0.4556837009146519,0.0920279846325616,0.04691612022380078,0.16688759048967688,0.7459316607572465,0.23540040141961616,0.20255772616904977,-3.9369029,56.116519999999994
69,Mull,0.18617413940344793,0.37051781215234153,0.12773794419588694,0.04783422012026423,0.1906479182839163,0.8020671534149503,0.25134130318242304,0.17866160662330896,-6.0008870000000005,56.4392
132,Bangor,0.18657428919738595,0.41857778563366216,0.07074909619991082,0.1349736830567675,0.19673466273705367,0.7182962615662999,0.2714559986078629,0.20311557128396976,-4.129263,53.22739
202,Oswestry,0.18711257199706136,0.4769650551805,0.09047110934260214,0.1909701885579192,0.13890502731215534,0.6732848342832687,0.2937228998728069,0.17981727189864818,-3.056412,52.85715
336,Sunderland,0.1881891648415809,0.575762724652782,0.14814006298839252,0.13065474216477935,0.21424155979659573,0.5804982031734074,0.2841980443498529,0.23037054768750131,-1.383801,54.90687
80,Fort William,0.1885980603346987,0.4275715856904577,0.09057702923295781,0.05597711347762498,0.18609770068990295,0.7560311411631996,0.20594574659513548,0.19262232293975157,-5.1052179,56.81981999999999
316,Durham,0.18902406579381317,0.5687390260650413,0.14643843751962643,0.13008661208420969,0.21383368979917972,0.5877524405302962,0.2497187324826756,0.22772437804180196,-1.5848520000000001,54.77525
29,Westmeath,0.19030167349362484,0.17462591772112057,0.01,0.12299868696327655,0.22426637131221286,0.9151345498772759,0.3772486225133601,0.07056858958876346,-7.4653217000000005,53.534530000000004
248,Nantwich,0.19085834678222974,0.5662117416763276,0.097798055857909,0.17916515371410646,0.2294471910286292,0.5740745185278832,0.1563498590831655,0.0818915911739856,-2.524102,53.06718000000001
119,Cumnock,0.19111842916344662,0.39770934408725794,0.20245574256202167,0.04699755267042217,0.18671890424916643,0.7782268764423539,0.19728228288602154,0.2121972248784818,-4.265828900000001,55.45355
68,Islay,0.19157865455455442,0.38015269574889154,0.12757330377285497,0.04141876259778917,0.20245120055241436,0.7910333434631242,0.20081387714411525,0.19721357757491578,-6.177067,55.73625
332,South Shields,0.1923491206826113,0.561100563215653,0.14990219061483442,0.13801225856930707,0.21976169528517625,0.5850992015268375,0.2875785713583763,0.23311080120833055,-1.427406,54.99941999999999
323,Blyth,0.19411583365244234,0.5556697090287629,0.15065056448001468,0.13220392595731958,0.21450955706023175,0.5935010686985741,0.2890142944930998,0.24628867725547215,-1.510277,55.12696
363,Reading,0.1942485993599292,0.9139519718377808,0.35091044966186674,0.6237773188644481,0.18413139688839836,0.060145943356778135,0.7180812388673644,0.3134253628478572,-0.9781303,51.45426
317,Ashington,0.194768627896519,0.558098602408311,0.1509270818164776,0.1251597734112312,0.21536178559431088,0.5943880733036289,0.2895447709727365,0.24674072664630214,-1.5659829,55.18298000000001
468,Stanhope,0.19512589379479017,0.5787131453007499,0.15268562791984353,0.14839689795074087,0.21212045613161915,0.5697527373252822,0.2603719533227907,0.23743929336430333,-2.011302,54.74946
315,Newcastle,0.19542346552825446,0.5579139450012425,0.14962941925913964,0.1270860477482207,0.21136207501476995,0.5957682713990705,0.28705528132354824,0.24461926444657223,-1.61778,54.97825
211,Wrexham,0.19557663786716098,0.4421913321111838,0.08237109289866021,0.1799008561718909,0.1805428043391231,0.6894327801611143,0.24311403914527768,0.145527067827265,-2.9924939999999998,53.043040000000005
63,Western Isles,0.19885608434341387,0.412239740149725,0.054603005435089176,0.06988512895976688,0.20667654575438224,0.7522495403565125,0.16760426400866832,0.1985643048094771,-7.0194034,57.759890000000006
386,Woking,0.198989449444614,0.8803981451964021,0.19430256973732507,0.640546079382513,0.2167859443382537,0.08321414772345062,0.49701079536053877,0.2014381407330045,-0.5600349,51.31677
313,Bishop Auckland,0.19936396153472577,0.5700518637639812,0.15233911556224586,0.1406689657924705,0.16786213855873172,0.603474461940775,0.25978104059510493,0.21260295148036723,-1.6787880000000002,54.663819999999994
251,Cinderford,0.19961878559836727,0.9156332371841802,0.5089004594418002,0.4142321714232396,0.061983523904174165,0.19378515355760195,0.3027273633094085,0.7154073600528915,-2.5009579,51.8253
23,Athlone,0.2015749069815881,0.2699294601100712,0.04870655760977628,0.14674822464619391,0.12225761503029274,0.8589808033138273,0.31146893140405224,0.2913187998337206,-7.9406898,53.423930000000006
229,Shrewsbury,0.20211302631025083,0.6400445408367468,0.15791678042418425,0.3086352961808393,0.18713693298762285,0.4504499418748315,0.20196939904295952,0.3148386931720454,-2.7553267999999997,52.7073
105,Ayr,0.20284044507162818,0.3938790653251241,0.20582940025148505,0.04182353595843247,0.19597047662532427,0.7773080965198931,0.20056973667031636,0.2157332152548131,-4.629179,55.45856
46,Armagh,0.20287954188883398,0.20341912347763255,0.01,0.2592892710959922,0.3283240143585166,0.7638377281864981,0.735501251195097,0.06879188155439485,-6.652792,54.350280000000005
272,Newcastle-under-Lyme,0.20343409005427368,0.6178030187493806,0.09266109192854255,0.24399556906314604,0.21595354953668194,0.5011173756562532,0.14813740029085354,0.15887505203226068,-2.2273002,53.01321
70,Broadford,0.2054127431920794,0.42235010283951635,0.0527371689605987,0.06234907946907447,0.2070329309757775,0.745995887462643,0.1618770647955922,0.21196645904824135,-5.9096592,57.24139
151,Llandudno,0.20690738590642835,0.4239840948758013,0.07225415818026906,0.1102868642367243,0.21115330252032838,0.7213291142021805,0.22178460084166005,0.15557737308202843,-3.827609,53.324059999999996
262,Alston,0.20711978924227237,0.5881670046490068,0.2522976338503341,0.15213815327230562,0.23806318557248687,0.5427464218119299,0.2581430687014425,0.23540672143142977,-2.438685,54.812169999999995
67,Portree,0.20737175256319143,0.42433938400722365,0.053018711393214124,0.06236221826762339,0.20145149750554536,0.746761875433319,0.1627412844462513,0.213098084212557,-6.1960231,57.41246999999999
148,Aberfeldy,0.21379687173696527,0.546385467500085,0.10572657947497466,0.033157620053488226,0.1522990854990744,0.6927847381122283,0.15453733253494853,0.108404786541301,-3.866969,56.62175
157,Colwyn Bay,0.21382428037676252,0.40768126652928816,0.06878369886583215,0.12810405872241976,0.22334911301405908,0.7199925226593504,0.21113198763590282,0.1481047850164436,-3.72764,53.29318000000001
171,Rhyl,0.2161964354873227,0.41371087373159454,0.10446982120031786,0.11215503276408846,0.25811038985585444,0.7051142373366062,0.20041923031399936,0.1405900010694986,-3.4916339999999995,53.319140000000004
245,Ross-on-Wye,0.2170437602365207,0.900688787759398,0.28533590511054285,0.4371638013312484,0.07984328172393419,0.18532041182163483,0.31733346766726755,0.7974132455826876,-2.582446,51.91445
176,Prestatyn,0.21798649756680205,0.4135761933807057,0.10496490280979803,0.1153639208310803,0.2560516207787581,0.7043654891657997,0.20136900955634734,0.141256256199542,-3.4076129999999996,53.33651
71,Kyle of Lochalsh,0.21913629817984556,0.4259815295277375,0.0528959345894015,0.055140656810647275,0.20680791831708775,0.7448962586591964,0.16236441092110113,0.21260459524864234,-5.7143293,57.28261
133,Tywyn,0.22014510504442936,0.5119233934108525,0.4309996007149963,0.41602916560338427,0.11716324827334226,0.5118151785282687,0.283967832725179,0.4312042975587103,-4.087249,52.58701
123,Dalwhinnie,0.22114761827502386,0.513284180356423,0.10461685551373924,0.049654962503133636,0.1737767372708383,0.6950049539071977,0.16056104562935558,0.17019689511058678,-4.242783,56.9366
461,Holt,0.22629420341324752,0.8683152307676837,0.9027935075976987,0.6607138541112777,0.10849666734552857,0.06043834388397832,0.7773798084341542,0.6928721888327419,1.086747,52.90936
64,Dunvegan,0.22742738447333252,0.4199987731752228,0.05316680554509676,0.06322242313732586,0.2011034742410609,0.7490121763692369,0.16319585337226727,0.1933415633663227,-6.581398200000001,57.4366
197,Mold,0.22847196424453026,0.402065543705168,0.10568581224037042,0.13765350613406238,0.24828474495029373,0.7022760930286643,0.2534400488837167,0.16118994553810992,-3.1419029999999997,53.1672
237,Whitchurch,0.22930539395764818,0.5785214328062915,0.09241811482476274,0.22200972186779472,0.16863295895032424,0.562856817377448,0.22565294138673683,0.13266287610205046,-2.682045,52.96872
30,Strabane,0.22935931214667268,0.09940242142428103,0.01,0.3995488263048021,0.22608292006722464,0.8529083373362346,0.01,0.01,-7.4633103,54.82739
19,Roscommon,0.22975436709404798,0.2777232616201302,0.058318333116766916,0.10084435399829798,0.12951994005375286,0.871990091509534,0.37293434846131385,0.20928466422255812,-8.1890955,53.627590000000005
95,Invergarry,0.2316745248544733,0.4686583868386372,0.04895797687509224,0.05835270662060543,0.1905871040518381,0.7201987241872027,0.15027683412356768,0.15929548948586356,-4.800261,57.07095
448,Cromer,0.23203813887707125,0.8634335750003528,0.8976560137491016,0.6784526373714085,0.11250778059358421,0.05573120244899816,0.7047540061829833,0.6889292914890086,1.301866,52.93145
306,Swindon,0.23211216400065873,0.9450353772498862,0.49409371212276676,0.5789185096583519,0.08588248050471943,0.09819215345720529,0.7928889976710194,0.2431089911396693,-1.7797176,51.55577
154,Falkirk,0.23329250644790975,0.49812824729407823,0.07494495098530349,0.036417798617489214,0.18476621454279757,0.7055567255332591,0.23004398770283613,0.17212924089591947,-3.7839131,56.00188000000001
220,Chester,0.23356348689664042,0.41846841065610535,0.20133832563540377,0.1293645402516579,0.2512446703754595,0.6878517891024856,0.2491972887214732,0.15849150755864108,-2.893075,53.19339
18,Nenagh,0.23544452059469115,0.3247944244700509,0.25223572466573563,0.0809175040835667,0.14286818024536743,0.8370318337975118,0.2688330397349284,0.15086471129588466,-8.19834,52.8635
430,Braintree,0.23604494962436406,0.7328220662179517,0.7150431607335843,0.9257480824380213,0.12030720585762682,0.06094134039781981,0.7978167136630944,0.4312384319807638,0.5509269,51.88009
204,Birkenhead,0.2360536135880375,0.4173493132611731,0.20842181994693096,0.11396425235036943,0.2870912739386068,0.6818661981948236,0.18816238060671378,0.13199207437890564,-3.023009,53.389990000000004
374,Aldershot,0.2361447759227904,0.935233959794113,0.24039003809589346,0.5774763332999828,0.18914739621446608,0.06808571628495114,0.6368596306557657,0.2629114325762276,-0.7557509,51.24837
212,Liverpool,0.23621373344498398,0.41757135840680404,0.2085057573257542,0.10844989157329454,0.2845243604882471,0.6855676846374114,0.1882381596222973,0.1320452301726747,-2.9915726,53.40837
392,Luton,0.23969294149876488,0.8060069802274203,0.4103894063956245,0.5796007435295282,0.174542236417124,0.1564893818044393,0.49362964903238143,0.5026045071146836,-0.4200255,51.87867
311,Alnwick,0.24164870869479152,0.5580591868601997,0.15306220862550993,0.10294002749732728,0.20554160014822084,0.6074047982757497,0.22838735442322347,0.22581850304611242,-1.7062990000000002,55.41274
206,Southport,0.24318187607780184,0.4466317280714153,0.23758266306012166,0.09228551578847966,0.3245422675153109,0.644015034457627,0.3114554349101434,0.1449425857971846,-3.010113,53.64571
445,Sheringham,0.24403424118322495,0.8588044660139542,0.8890937341418244,0.6777619721856554,0.11504407960665906,0.058057899360808685,0.6980317122267987,0.6823579430974988,1.2109589,52.944419999999994
456,Dereham,0.24437189055997127,0.8689198559815859,0.9074544030541182,0.6837026764364993,0.08995903815934114,0.05515383817101272,0.7813932333674322,0.6964493171331926,0.9378270000000001,52.681619999999995
174,Dunfermline,0.24823446538371893,0.5209620165078905,0.07283399032049534,0.03146145034349174,0.16591414813393257,0.6987564695729361,0.22356439693148858,0.15334084273131612,-3.452151,56.071740000000005
447,Norwich,0.24859483723123146,0.8227408448412228,0.9632032400504329,0.732282435548221,0.10393276654929749,0.05284201481203016,0.8054726611805931,0.7710897087235621,1.297355,52.63089
422,Brentwood,0.24983615436622214,0.6964107601996072,0.4568493166079373,0.8465961658878006,0.17600861958811215,0.12051735625302742,0.6272551282908352,0.3428971312676272,0.30717490000000003,51.620470000000005
326,Witney,0.2501602356489138,0.9138948129561144,0.3505410685485061,0.6137498159162984,0.1088567152422649,0.09369662211474171,0.747213917593867,0.3182563540911888,-1.4850543999999999,51.785940000000004
455,Swaffham,0.2511717670303761,0.8775184444064605,0.9584877811863362,0.6578466450675124,0.09300831904141289,0.05472994191539566,0.7790565988150593,0.7200839813452586,0.687481,52.64747
170,Livingston,0.25119307275236546,0.5193298832970257,0.07576949617161678,0.03175162808684478,0.18725531341892984,0.6877088001741557,0.23257494839694431,0.16677206019213622,-3.518068,55.90071
460,Banham,0.2513572248942921,0.8322024352133858,0.9976626359121766,0.7539262524155717,0.08938959580442613,0.042555600889843795,0.7393480090351957,0.7673604968838699,1.0402849,52.45125
330,Nuneaton,0.25144936805512125,0.8189798918180503,0.4514702892286369,0.4792650085830782,0.0540405632310104,0.27595105384192314,0.27310068953528954,0.2539731278161335,-1.465382,52.52049
15,Loughrea,0.2516024041681838,0.31312209922900147,0.262502297611009,0.04374088715416153,0.1340331162518641,0.857309894867644,0.2797751673416258,0.261675428126442,-8.5660931,53.19891
259,Crewe,0.25165005596838796,0.5940220512459579,0.12154285033796329,0.16176165573031484,0.21657171238434156,0.5545367547462688,0.2798074187036937,0.08141951928661297,-2.4438209,53.1004
417,Bishop's Stortford,0.2519226711272457,0.7856073429011583,0.5059581194599114,0.689197083102409,0.13501194895999716,0.12749237645908676,0.9451075858113217,0.42260424621018733,0.15365020000000001,51.87216
42,Dungannon,0.25461100642155,0.21335479882397185,0.3283571785718717,0.28466942501807113,0.3027744351066188,0.7399061816851804,0.839912032774021,0.01,-6.7669352,54.508269999999996
357,Basingstoke,0.25484299903375,0.9329187082413812,0.19483200473141127,0.630891170277705,0.1206311798576076,0.05833813061751271,0.789077996775822,0.44886003883210196,-1.0923964,51.26654
295,Cirencester,0.2561981192387536,1.0,0.4132171467756215,0.4895198057200286,0.06974183045448204,0.0922738315725637,0.5677976740247566,0.49348160630294896,-1.968243,51.71849
43,Cookstown,0.257623804430909,0.2311619238876894,0.3307344236500687,0.2757915318124741,0.3067752513994702,0.7273343111567532,0.8459928401275093,0.01,-6.7443895000000005,54.641819999999996
35,Derry,0.2582696511569456,0.11666119298908505,0.5631148513500724,0.3173517999732446,0.30387468895766273,0.8161720139906048,0.01,0.01,-7.308574799999999,54.99661
395,Dorking,0.2589677813618797,0.8064314683597072,0.16881816919813045,0.598629166615142,0.18994876193626153,0.15946781075837885,0.6858376241375083,0.25658725272391636,-0.332378,51.2322
433,Maldon,0.259482306374375,0.6751202807907881,0.6257078875791336,0.9178570043426891,0.13333596400958458,0.11067883909215905,0.5617181286810883,0.4452522079130445,0.6714479999999999,51.7318
385,Guildford,0.2619096601968926,0.9004166388194903,0.16014966819472834,0.6620637075750303,0.1846342891234368,0.06161470669860894,0.5735104886629393,0.22988908533668467,-0.570409,51.23622
240,Wigan,0.26378099461485616,0.533499118029584,0.2513659627505885,0.10814271067887818,0.22098081331710054,0.6198407786169691,0.31315240576289305,0.07483815090338355,-2.6325074,53.54506
234,Hereford,0.2640379710468315,0.8110791233542741,0.3480807083799472,0.46999000046091194,0.11656664683523774,0.22198980417953565,0.3116271500426027,0.7106237714143661,-2.715974,52.0564
44,Coleraine,0.26417313432917144,0.26987154079982384,0.3359021503044267,0.2451914807749165,0.29006522810139973,0.7302978665578643,0.42960574077049274,0.01,-6.6646103000000005,55.132580000000004
203,Blackpool,0.2645639390302163,0.48201016084669834,0.23964690860378873,0.09280242563299498,0.3211492480078329,0.6155426598847769,0.31416152283733556,0.12900169703336198,-3.0356748,53.81751
271,Gloucester,0.2648059033741915,0.962841277178668,0.44136044446409006,0.47789442813765753,0.06203252082524636,0.1317854246619052,0.4631653629813094,0.4999866181524198,-2.238156,51.86424
241,Warrington,0.26686942521276086,0.5463803979762122,0.23638362029891066,0.11133803838159229,0.2029778656236289,0.6162599707734686,0.2706867218256103,0.09995478588029631,-2.5969501,53.39004
219,Carlisle,0.2668886603019227,0.62895529533314,0.29818104675895823,0.14838474280555927,0.22823968298646533,0.5117144440113838,0.277354130039899,0.17510243736560882,-2.932931,54.892469999999996
184,Lockerbie,0.2673959653446902,0.5729360426333437,0.2004316338318052,0.04090606841056228,0.23053887560151665,0.6095567309418235,0.3015814583928041,0.1805254300045347,-3.349008,55.122240000000005
134,Aberystwyth,0.2674257988045092,0.46630342401556807,0.38077724569217236,0.5789082515589501,0.06751361081254934,0.4770026140269097,0.3066291471147166,0.5938283915713439,-4.08292,52.4153
404,Huntingdon,0.26780428868926354,0.8583250157936791,0.42268213465572907,0.6000283432691691,0.07020809593610967,0.13270589476082487,0.8334156736314535,0.6235990285399442,-0.182552,52.33146
309,Marlborough,0.2686542562198335,0.936976566379374,0.4575607423115892,0.6049253912973095,0.0643248718391889,0.09310066589572047,0.8005126354000694,0.32289814148564056,-1.7270619999999999,51.42007
108,Isle of Man,0.2690862011257431,0.4590571310837771,0.3145477026987197,0.12121953906565296,0.2768301853099491,0.6372800193085755,0.3474359308288211,0.13340420247895643,-4.5126330999999995,54.27697
24,Longford,0.2694102824084348,0.11106131242706749,0.01,0.15571281987002286,0.22383507401403027,0.9332593261401676,0.41073026887668423,0.15366341476841158,-7.7932573000000005,53.727630000000005
398,Biggleswade,0.2694258938901483,0.8166250557330779,0.5363625368227625,0.5892648568194159,0.12205291985368372,0.14656128529130688,0.8066696073832529,0.5679415506078831,-0.26421999999999995,52.086940000000006
27,Enniskillen,0.27191324157432933,0.029272444746625634,0.01,0.33990598803203,0.2632338506942878,0.906583947177253,0.01,0.09935736791849764,-7.631533599999999,54.343819999999994
26,Fermanagh,0.27191324157432933,0.029272444746625634,0.01,0.33990598803203,0.2632338506942878,0.906583947177253,0.01,0.09935736791849764,-7.6318728,54.343830000000004
16,Sligo,0.2727174099761727,0.248108919734313,0.0647216395496337,0.2570915786905831,0.08550273708963957,0.8454888007217726,0.01,0.2322639720128516,-8.476088800000001,54.27661
283,Stafford,0.2727715188813787,0.7308345171375675,0.21576569646800245,0.34205309254997807,0.13958227671484558,0.3800963468188004,0.15330883608678753,0.2552354325583211,-2.12066,52.80669
436,Thetford,0.27286467011345295,0.8468400094597315,1.0,0.7289711772700752,0.08035571073627584,0.03914414872741536,0.7624575005047162,0.8281523287405048,0.751657,52.412859999999995
289,Bromsgrove,0.27348381657408066,0.7853389538581231,0.35130456338483607,0.3901826897242511,0.11947225409402445,0.30940809682412457,0.24369075426248785,0.33334097510712296,-2.061906,52.33559
427,Chelmsford,0.27398016905899675,0.6737289499638839,0.5154605580111628,0.9072459139039123,0.15922029796624076,0.10673531938081371,0.6015692204031324,0.42751228034796684,0.4685497,51.73559
453,Great Yarmouth,0.27437901108483304,0.8277858237693243,0.9374140445882446,0.7407922316115839,0.09836923181327928,0.04672763245828385,0.7003568601527539,0.7904986775009881,1.728047,52.59823000000001
377,Kettering,0.27499093757573295,0.8559957808042647,0.5576613977284848,0.5238220469882782,0.07038625399326633,0.19976229358297448,0.5586946102283255,0.2801760094608307,-0.7302489999999999,52.39632
353,Bicester,0.2751671048370936,0.8592745798610967,0.2538044865922303,0.5154418121255794,0.08554295741130952,0.19976432179472392,0.42198784051201327,0.39873589148443395,-1.1535898999999998,51.8996
459,St Neots,0.2756590980950041,0.8664078224105229,0.4411279561064612,0.581359445489303,0.07826611990064887,0.1419460894556312,0.6360914289189153,0.5380328851931382,-0.26510300000000003,52.23008
340,Banbury,0.27591313204875084,0.8966479547724115,0.23555734830682856,0.5181891559804439,0.049125114709117575,0.1954127934864655,0.4467086965014903,0.27983511989960563,-1.339775,52.0629
342,Newbury,0.2764016924153945,0.964832374925763,0.27348082617916486,0.6623049134328829,0.08465202891136236,0.04350345184737969,0.8452806342337855,0.24935584393546384,-1.3231138999999998,51.40141
399,Peterborough,0.27728598885863315,0.8569064785219904,0.4459264935147662,0.5648375819664299,0.10544552057224534,0.13783287602792285,0.709734773328605,0.5879542238864152,-0.2405299,52.5695
379,Corby,0.2773868504734733,0.8783401297341854,0.4243302931014329,0.5535287299854644,0.06811276921268442,0.16341268261088973,0.5992333337084307,0.39338410985995864,-0.6842333,52.4923
277,Stoke-on-Trent,0.2779754823450625,0.6614390299770239,0.14536797326414952,0.2673877595299149,0.20769546057002145,0.4443389398740005,0.15493329980126502,0.20094195878702212,-2.179404,53.002669999999995
373,Milton Keynes,0.27822496635562216,0.8602338605159372,0.3644249523908686,0.5188590941845288,0.11591545080242652,0.1641343879583717,0.6680555785852872,0.486306841944126,-0.7594171,52.040620000000004
255,Telford,0.2783756321390004,0.7164210580924345,0.2950423168828923,0.3393505751842804,0.15232721208141062,0.38244907244806164,0.15722817117681517,0.26176051499330005,-2.4672611,52.67759
267,Bath,0.27954014514318754,0.9199678490795983,0.5754265927467104,0.48617166044060933,0.043735384284095874,0.15460348291282286,0.4741679385213318,0.6208890492087563,-2.3590167,51.38106
439,Colchester,0.28059374306525303,0.7332234457705848,0.5821923365237089,0.9099430211760898,0.11272878504152332,0.0774830973903337,0.526184910076133,0.4531438781977501,0.891874,51.89593
388,Bedford,0.2809964811502256,0.8371605140531002,0.43124799578608225,0.5368274199840142,0.11536874467745895,0.1673257791459945,0.7732505707293346,0.49968341722497084,-0.46677820000000003,52.13864
346,Rugby,0.28100920464404794,0.8339407327033548,0.373163640282713,0.4884444618067071,0.04067069252275883,0.26525865953457234,0.3597819158222857,0.22250616133312826,-1.265032,52.37088
263,Kelso,0.2828474906722758,0.6364328007995653,0.09186211991337612,0.06836671946543217,0.1825035795740751,0.5805996137608754,0.23497613241455748,0.08302596615278272,-2.432207,55.600030000000004
273,Worcester,0.28704297421340125,0.7691567379337515,0.37983747961935205,0.3736017367383853,0.13437561094979597,0.3192239656204587,0.2930206030932258,0.3288767584036254,-2.221575,52.19364
362,Towcester,0.2875594881232178,0.890323428018802,0.16540463051829335,0.481821804728506,0.07863985099960286,0.20680999137671938,0.45482405064931514,0.2493040258892804,-0.9896879999999999,52.13511
235,Ludlow,0.28807363170335015,0.740427957376457,0.3907732217779042,0.3433952173087019,0.12258891438095572,0.3604619049438,0.16659456267042025,0.3957749751878425,-2.7139129,52.36775
4,Mayo,0.2884819550479235,0.2930949451692971,0.05174066498394774,0.0766899024328277,0.07694907713366216,0.8834538823522252,0.33087143262104446,0.30946608028206224,-9.4289369,54.01526
145,Tregaron,0.28975980795425416,0.5045047366673845,0.5188758234967686,0.692651673728361,0.03852111674003647,0.3632121600759362,0.4239806708706317,1.0,-3.934385,52.22
299,Birmingham,0.2907592424807761,0.7897627893737034,0.35755834122928215,0.3910334796260094,0.12225367592662405,0.30275590032150523,0.1917723012705833,0.3394152890664438,-1.8904009999999998,52.48624
282,Wolverhampton,0.29137204081707707,0.7651194113674441,0.28815070815208194,0.35523271271363543,0.1415713167462976,0.338991593400334,0.15355562911826376,0.2728808871648208,-2.12882,52.586969999999994
454,Lowestoft,0.2917957304368449,0.8223596588920165,0.9058509679641714,0.7617223377000049,0.10903183258781764,0.03155829874950606,0.676775587345505,0.8411288213153237,1.7534490000000003,52.48114
366,Northampton,0.2938204824002339,0.8640387494126744,0.34494330330195777,0.5205396659625582,0.040029378802660366,0.22043112345015017,0.34432703974878714,0.2938717118601518,-0.9026559999999999,52.24048
268,Kidderminster,0.29399757599733317,0.7609382793072764,0.3741058823574557,0.37317433935029415,0.1383022062366792,0.32342946268276285,0.2551823001813987,0.3430932599275385,-2.2496839,52.3886
292,Berwick,0.2967973167867973,0.6288163058869592,0.11822983185425262,0.07160785731068044,0.14116019871603191,0.6045683441442652,0.22681700522241866,0.061285854170894126,-2.005395,55.77024
402,Stevenage,0.29762197355556663,0.7463234756723266,0.4438547377364858,0.6692411451523875,0.15439323740210723,0.15782428317081132,0.69607509453885,0.48796643148889246,-0.19661199999999998,51.90376
411,Royston,0.2976315093646412,0.816124651480795,0.5756206345505036,0.6703320869976763,0.08795527831944291,0.10387858313183607,1.0,0.7000450777219107,-0.024066,52.048140000000004
442,Ipswich,0.2976736576407509,0.7832360308635993,0.9404679508412568,0.8950033640945162,0.11072958626903097,0.022080803280023802,0.5968199853183853,0.5324458742080797,1.14822,52.056740000000005
428,Mildenhall,0.29913764954021727,0.8477672676221084,0.8098285435365469,0.7383019023294037,0.07541116813290011,0.045432281221023885,0.6979980936874257,0.7834102678090227,0.5156095,52.347570000000005
406,Spalding,0.30133873223597957,0.8409772318388742,0.5192470501908979,0.4952390474413209,0.17007315053726957,0.1448957854097882,0.5934481170994607,0.6554943103234453,-0.1537024,52.7901
414,Chatteris,0.30266053159955975,0.8414982099088743,0.587019453024314,0.6951338527397839,0.1144927433072037,0.06000532067548867,0.8044017523660727,0.7423303958145043,0.054012,52.4561
287,Dudley,0.30272376763630854,0.7832862191499403,0.30447851553031546,0.3888045210957112,0.13211967936801852,0.3075495787911247,0.19103432934303358,0.3023740595459604,-2.081112,52.51225
257,Turriff,0.3034288181141139,0.6573677376007682,0.10168866802992348,0.04952940617689345,0.14556840125672607,0.588737137334612,0.23121037690846413,0.07568836818506788,-2.4623,57.53893000000001
284,Macclesfield,0.3044027239174847,0.6171950983449609,0.23355637329199036,0.10723669566664157,0.18509744478637863,0.566158408070119,0.3629320208711651,0.060347118218905024,-2.119287,53.25866
120,Aberaeron,0.3044783837511992,0.47988662178842484,0.5682712212871259,0.6617937649866616,0.03015252554940647,0.3972600887477855,0.4643423507323706,0.9970068859551471,-4.2581619,52.24279
230,Penrith,0.30509886522509755,0.6567894316649725,0.36326333289118573,0.16340007093545997,0.2183245444098349,0.47718718129610177,0.35738431918443875,0.1805024216204072,-2.752708,54.6641
344,Abingdon,0.3051697843994436,0.9123878547388767,0.35978493392482797,0.6784016279182185,0.1127099879152446,0.057337884189784735,0.7541361699948729,0.2821392720792529,-1.2879528999999998,51.67078
325,Andover,0.30549302108190285,0.9483140495686214,0.45208407274577705,0.6474431757501903,0.12172929138911248,0.01,0.8363219537089891,0.7120428374406207,-1.4919233,51.2112
419,Sevenoaks,0.30572062722192855,0.7390448645258461,0.2061725960456221,0.5479353958951865,0.161861294208405,0.23290597784989953,0.79106010005097,0.3650091239631407,0.190898,51.27241
434,Southend,0.30590603059550714,0.6733284998239607,0.5090443690590686,0.9118474443561343,0.16056104446232167,0.10166952250148822,0.4417824879100336,0.47167839285488194,0.7077123000000001,51.54593
418,Wisbech,0.3066740446583735,0.8540452814941847,0.662222803590316,0.6443646920153203,0.13472273582221567,0.0632447128745133,0.819635916944376,0.7103923935427466,0.158797,52.66631999999999
269,Manchester,0.30699649123093803,0.5990128707606845,0.30439013779380114,0.08615377200151537,0.2476092923317331,0.5584596543048286,0.3649716624458865,0.044979231337581804,-2.2426305,53.48076
368,Aylesbury,0.3081321243562136,0.8195351314202245,0.4367413669441975,0.47446527197734567,0.17727224258078464,0.1904487452298995,0.37820193070909375,0.4810790380444222,-0.8084,51.81561
9,Claremorris,0.30844318244822627,0.3370226652497911,0.05403570862562871,0.08059725465155623,0.07100828683751272,0.845283275264504,0.3455478355999906,0.3231930099068865,-9.0017356,53.72388
345,Shetland Islands,0.310274793410102,0.6578861386627998,0.09172080507303008,0.04770311317859434,0.14965580872320727,0.5865361895512614,0.23461464839804624,0.07680278187146027,-1.2659409,60.52965
288,Cheltenham,0.31028958753675195,0.9207162797873605,0.4872820481034729,0.5036768260260067,0.09315406587715512,0.14617085452955472,0.5010157601539119,0.2834477334848678,-2.0782533,51.899390000000004
458,March,0.31210027420900116,0.8485091924409004,0.6050687761155389,0.6621569438620594,0.12201719149233772,0.06226103017607208,0.8291350181187801,0.7651551238110746,0.088622,52.551719999999996
190,Barrow-in-Furness,0.31245269046722873,0.5035977988465311,0.21573880763531747,0.1079230046731966,0.3203391747937171,0.5880242209047108,0.3083828733535402,0.10930069271193016,-3.2188939999999997,54.10896999999999
294,Walsall,0.3126524247995878,0.7817398031385592,0.3109901447631527,0.398987792580668,0.13629381622229314,0.3036625109734707,0.1500921717051766,0.2751489726203464,-1.9829189999999999,52.586209999999994
400,Welwyn Garden City,0.3140044935456876,0.8021626757825717,0.28020159991386806,0.5461474653782119,0.1466785374204828,0.1896503058712335,0.5721296278995597,0.4116279573227394,-0.208661,51.80317
416,Cambridge,0.3149683731269457,0.8323172176830738,0.7466932354768645,0.7328605426843732,0.07096398919801024,0.06434772203087563,0.7830930320570009,0.7336226601570645,0.12181700000000001,52.20534
347,Oxford,0.3154452453161808,0.880917517917176,0.17076755018029038,0.6293435322261706,0.12087084321766167,0.11111456658298012,0.6430814909771965,0.28144634068853186,-1.2577263,51.75202
53,Newry,0.31565546903852204,0.2236782082545198,0.01,0.1841286686054943,0.3399874930003165,0.7624936998672535,0.7796681360550819,0.07292283735528457,-6.34023,54.1751
450,Felixstowe,0.31682033622990335,0.7415051889534059,0.9133025734102136,1.0,0.11387209260459548,0.01,0.5590802360252833,0.5117059296457386,1.3512549999999999,51.961729999999996
286,Aberdeen,0.31940394109540016,0.6688515610458123,0.1022195922797785,0.047576643459941705,0.1579417478438763,0.5723681163760858,0.23241753604244542,0.07608354144488909,-2.094278,57.149719999999995
305,Peterhead,0.3197230092670354,0.6630780070451172,0.1022874036682215,0.04951914807749161,0.1478964806320147,0.580916352829068,0.2325717349460136,0.07613401737176283,-1.784066,57.50812
54,Ballymena,0.32045824739185397,0.2987366493032657,0.3402807632686156,0.22542124252845006,0.3485794382796705,0.668193684757076,0.8704116317295022,0.01,-6.2802213,54.86529
246,Jedburgh,0.32057335822996846,0.6249379088940656,0.1761809857634275,0.06999853014082541,0.17189495143050626,0.587731820377511,0.18556473204183688,0.08430048986393027,-2.5549369,55.47772
291,Fraserburgh,0.32152568585966196,0.6618436624741423,0.10267055354503997,0.05062456367947064,0.1459348761120798,0.5820467428440461,0.23344289565068296,0.0764192024240476,-2.007631,57.69335
321,Leamington Spa,0.321564237773492,0.8060025443940315,0.4261620594240096,0.4202865578989614,0.05615316672491242,0.30609163257862415,0.248476237073733,0.26088924785990114,-1.5200789,52.28519
457,Ely,0.32205219874642244,0.8490904978449876,0.6702939120265736,0.7329466826149665,0.08503004464939455,0.0345333473505299,0.8572797534911545,0.8535492611821183,0.262363,52.39954
424,Downham Market,0.32238815892270417,0.864539407141151,0.8233703279693873,0.6386420777681973,0.08545463856063219,0.07095732608675787,0.8326509190510561,0.7421348748242479,0.385472,52.606609999999996
243,Bristol,0.32345461656443597,0.8303522279839238,0.5455155575971862,0.4193561623354067,0.04463688616757487,0.25823462421123666,0.2600098499866455,0.6420184531874731,-2.58791,51.45451
57,Antrim,0.3245314273703058,0.2686756401182179,0.34315636997359955,0.2557907673732857,0.30172504406785844,0.6997300112126302,0.8777672209098294,0.01,-6.2072498,54.719530000000006
201,Dalkeith,0.3252660933465799,0.5836492139576497,0.05590604027704104,0.01,0.16400803660076912,0.6517063514465036,0.3432079174850303,0.10165141267194254,-3.066606,55.893119999999996
354,Leicester,0.32533979152814196,0.9316612973367848,0.3975278372510598,0.5099215494283007,0.12279789419664294,0.1312459203365749,0.36315899567435617,0.20719554840971013,-1.1397591999999999,52.636880000000005
50,Craigavon,0.32544593870572636,0.23763938127813006,0.3438020126003464,0.28317286668068137,0.25075366455850906,0.7361374262195718,0.879418712667953,0.01,-6.4175653,54.442930000000004
223,Selkirk,0.32654315614301577,0.6125496823901048,0.14984230060523537,0.015586830736301073,0.20758647870185387,0.5980148539467813,0.324318002589948,0.14339549382960864,-2.838524,55.55066
425,King's Lynn,0.32721442261152833,0.8743129422156235,0.7316071750405996,0.6227959841086583,0.10662531667456446,0.06382004894074932,0.8263298390501619,0.7365009464957623,0.4022963,52.75168000000001
224,Galashiels,0.3274479137080116,0.6150013886270809,0.1501200696474672,0.021399168222712615,0.20959894603407242,0.5921117436502602,0.32491921004588803,0.143661307772247,-2.814449,55.62373
274,Trowbridge,0.3309551025501341,0.9438526995763821,0.5728106190551171,0.4807366242815114,0.040484172508691414,0.1354291070696362,0.513356451717298,0.5801757287961411,-2.208853,51.31966
227,Hawick,0.33156934488038065,0.6059570200696536,0.16794316290990782,0.03720359713605105,0.21007661418421478,0.594597317149105,0.1982702262401499,0.1359917953929582,-2.780914,55.42706
452,Ramsgate,0.3325599792173851,0.6981149651415313,0.4779565843021734,0.9079041185285445,0.16591124563649245,0.07280299877867803,0.5501590418662526,0.5107555124468581,1.4198950000000001,51.33555
152,Aviemore,0.33326388539810153,0.6406587981460075,0.10516542241935867,0.026372098082044552,0.15555195584444467,0.603673226692213,0.23911551293904199,0.0838673263213676,-3.823812,57.19449
5,Ballycastle,0.3332888147275394,0.29199705528256636,0.06034037698929166,0.22306223097080405,0.06280251193185599,0.8205472047692723,0.3858649244480878,0.21654109675996486,-9.3724643,54.279669999999996
253,Blackburn,0.33351890017792446,0.6110629177762938,0.298035547383998,0.08161301727520148,0.26239198822249465,0.5416745119023916,0.3386479605027384,0.042428360906322064,-2.487529,53.748580000000004
322,Coventry,0.33351985375883203,0.7823577780986599,0.44672726542800906,0.4619780735233115,0.060437045625255634,0.3000546603066454,0.3165569810696541,0.2426392668681577,-1.519693,52.40682
175,Perth,0.3345751681265309,0.6228481244155788,0.1054441325250518,0.01,0.1619433243146288,0.6246462883217934,0.2996865039068961,0.07287764247116708,-3.4308381000000003,56.39499
178,Braemar,0.3345757402750753,0.6679596205664162,0.09982055655735671,0.0424017133555395,0.1450158210297964,0.5803964545506476,0.226962837468291,0.07429790634983488,-3.3979439,57.00646999999999
205,Cupar,0.3348934461882715,0.6189970606055665,0.10551177945580256,0.01,0.1675280058177106,0.624868039473057,0.23990301875202866,0.07292439806080109,-3.010137,56.32023
249,Banff,0.33550090447149067,0.6643171254177392,0.10000670439192123,0.04977489795298924,0.14575215698751723,0.5792589657945466,0.22738607816905185,0.07443645940287563,-2.524038,57.666509999999995
296,Evesham,0.3355206027285219,0.8401635310112492,0.3918440971776118,0.3949223532136237,0.1085623190733404,0.2627825510238919,0.2698517854768868,0.27979680610927815,-1.9467700000000001,52.09215
159,Grantown-on-Spey,0.33606403486509756,0.6483025839954624,0.10576057653458076,0.02971855709854855,0.1614014556853947,0.5930751442312076,0.24046870296858947,0.07871914900507603,-3.609628,57.33041
435,Bury St Edmunds,0.33685460792771743,0.8014909216233864,0.8747945489438061,0.7539277981565774,0.09040816508465581,0.04930447548584959,0.730182545864329,0.9164670624860674,0.7104931999999999,52.24292
191,Peebles,0.3373616132736282,0.5850813122056983,0.13941818632731273,0.025457230189502227,0.1973964321533967,0.617125679155155,0.32918846072907637,0.16934059238890523,-3.1936419999999996,55.65306999999999
217,Orkney Islands,0.3374760157373543,0.6472529390775882,0.10606068441334497,0.037749735537766074,0.15543751451680637,0.5927452217866448,0.2411510646671243,0.07894252224980255,-2.9605206,58.980940000000004
215,Kirkwall,0.3374760157373543,0.6472529390775882,0.10606068441334497,0.037749735537766074,0.15543751451680637,0.5927452217866448,0.2411510646671243,0.07894252224980255,-2.9622491,58.984669999999994
192,Edinburgh,0.3378696539359528,0.5784669776706906,0.05582406725398651,0.010829110181543047,0.16846806945289372,0.6481860519201922,0.34270463264290535,0.14424018525198515,-3.1882669999999997,55.95325
200,John o' Groats,0.3380774528382722,0.6503767374420076,0.10618851372292544,0.03809127403908308,0.15592596337172623,0.5897471867857945,0.24144171253984725,0.07903767282562157,-3.0688997000000002,58.63734
169,Thurso,0.33954416925461706,0.6439247544090282,0.10650025241514802,0.035284138111677806,0.14995670095783106,0.5989481693867802,0.2421505180182225,0.07926970208413729,-3.5220800000000003,58.59356999999999
199,Wick,0.33980389744863976,0.6530870316425317,0.10655545538051754,0.03542971881003799,0.15374604958004662,0.5896525369041575,0.2422760412542129,0.07931079191929112,-3.093716,58.43894
226,St Andrews,0.33995551681292546,0.6241193920187613,0.10658768908820107,0.013656832568706766,0.16282595996474708,0.6197173957355495,0.24234931962070858,0.06800123775751116,-2.7967214,56.339780000000005
431,Gillingham,0.34122565933649013,0.6826404125037777,0.5082128892400649,0.811941425409284,0.17911083649492474,0.127447755800601,0.5648674391311922,0.4438886409246959,0.551438,51.38632
256,Montrose,0.34162025111599614,0.6668634627670085,0.10123796258773887,0.03438079301572382,0.13871090551907816,0.58878006781664,0.23018560156403217,0.05382350031151158,-2.4661150000000003,56.70692
207,Bridgwater,0.3436557376758862,0.8296735454754456,0.4409801908699631,0.39042818150034686,0.027803921370791462,0.28240955612247814,0.24345170856907358,0.6466733164088154,-3.003632,51.12789
195,Kirkcaldy,0.3442733039167245,0.6010622680323175,0.10314706970837138,0.01,0.17551160145503578,0.6363994373740604,0.29315795182864113,0.07129003336429914,-3.158137,56.11682
378,Wellingborough,0.34463432964828805,0.8504349778221004,0.36473207713116934,0.546342580049711,0.04691030184107485,0.2096964747313548,0.49040003736483884,0.22374349478705122,-0.693964,52.30242
451,Margate,0.34601612287353156,0.6960756646716117,0.47720767138122405,0.917717606608352,0.16525984228243554,0.07024271948039905,0.5492969839916743,0.48712138158513685,1.3868339,51.38965
214,Dundee,0.3463634715303652,0.63417563754121,0.10794964546667529,0.016969636587858217,0.16265547279368212,0.609601689635601,0.2454460229577582,0.06313097094454212,-2.9707209999999997,56.462019999999995
208,Langholm,0.34817374952508257,0.6106968559066416,0.16881740172889986,0.07733124442830626,0.19708240957321058,0.5736658338603866,0.2968774453266088,0.12621422452014033,-2.998913,55.153059999999996
165,Workington,0.3486705924230368,0.6225221540305546,0.4463327862435014,0.1290959326214306,0.3369433260423058,0.45334791842937955,0.434927402476117,0.16780098481305003,-3.5427519999999997,54.64357
185,Blairgowrie,0.34911201864768326,0.6427932789266398,0.10853382659920807,0.010971529136936916,0.15941483440180945,0.606749685880705,0.2467742766080836,0.0634726124423186,-3.3378318,56.58941
429,Medway,0.3511773386673925,0.6872121936243807,0.5038091233854982,0.8064674646812233,0.182652505335585,0.12405827593212407,0.5599727457294085,0.44004225376298783,0.5417860999999999,51.404740000000004
135,Lampeter,0.35134222642887625,0.5198761244943255,0.48137187719739455,0.5572261424712296,0.055479787318808975,0.41578645093705063,0.3719587330734832,0.834948685401568,-4.0785089999999995,52.1129
186,Elgin,0.35150052085951417,0.6603468855506824,0.10054474600523584,0.047927596929202815,0.1445004204129328,0.5818652178924784,0.2286094330957238,0.07483693119234963,-3.318485,57.64945
449,Dover,0.3526396958567317,0.6675731961092078,0.432063294795475,0.8960847504499514,0.166842118029782,0.10261838756489865,0.552592091631822,0.4977004425024196,1.3134027,51.12788
156,Pitlochry,0.3528152092340415,0.6364597537681559,0.10632581762288795,0.01,0.1493019113567607,0.6176858036332705,0.2417539080617199,0.062181327540833824,-3.729711,56.70436
441,Canterbury,0.35315803519285693,0.6628261784467333,0.4805542940533871,0.9061664948552118,0.16968539070068844,0.09826212676255826,0.5531491637998888,0.49820218090977886,1.0789089,51.280229999999996
331,Northallerton,0.3532881853641404,0.6676241025780979,0.08156349599118844,0.11453371738908044,0.30535275122549316,0.4578279001484313,0.15647478637007425,0.20489255473695897,-1.429959,54.337959999999995
242,Arbroath,0.3553558484683651,0.6454981656350326,0.10130031946272185,0.031090964328794265,0.15086919086733327,0.5997979901097634,0.2303273907043699,0.05385665546735864,-2.591543,56.55911
443,Clacton,0.3557288620741937,0.7120222744739925,0.5886692012277095,0.9516198522608851,0.11141920583938254,0.057946347714593886,0.5621540829622587,0.5370530069453057,1.153035,51.78953
250,Dunbar,0.35573706286999784,0.6255223827505733,0.10407836621004014,0.01,0.1583592237256775,0.6204282839537012,0.26622433689884994,0.07746705661047007,-2.516737,56.00209
437,Ashford,0.35703398739447767,0.6852928718861189,0.49803970999091995,0.8516868531073891,0.14853482274759117,0.11833669058717036,0.7006706799280061,0.409092020701128,0.8750190000000001,51.14647
440,New Romney,0.3571886854628361,0.7382007043089515,0.4841927834466243,0.7818066424144586,0.15275277349179495,0.11629597153201998,0.6055022506367628,0.33808183014221954,0.939473,50.98512
99,Bodmin,0.35790575106007544,0.8143694133318845,0.8299580737041269,0.4789233295598517,0.03848421355829805,0.2330476146370635,0.3325130503208537,0.5829284504742062,-4.7188629,50.4715
403,Crawley,0.3581299787991718,0.7933665026647528,0.2850320055683182,0.5640235385440356,0.2007280845721411,0.1669985609837635,0.6644867316669499,0.23478832793722682,-0.18722750000000002,51.109140000000004
462,Hunstanton,0.3581407951311793,0.8487963387222653,0.7361023976451414,0.5561040750229612,0.1171004990429706,0.11093980233724338,0.7486199017008867,0.7171630532093386,0.49103199999999997,52.93891
221,Forfar,0.35978722068082675,0.6448318612140106,0.10216878398940775,0.031717129958034496,0.13884877414748295,0.6052349497392225,0.2323020270880826,0.054318379483701475,-2.889062,56.64356
78,Ullapool,0.35996998127303315,0.5894152481645999,0.1345257161671103,0.06992581005260015,0.17583184367259358,0.6060063462745636,0.2580797228196417,0.12069177078539736,-5.161313,57.895419999999994
179,Brecon,0.3600896148091659,0.5364671552730103,0.45756570345197245,0.5637057482454434,0.05552221906709998,0.3990138158404012,0.4267146632371783,0.8164626444216554,-3.391463,51.94895
252,Banchory,0.36010609813628053,0.6644867009912863,0.09964314325355898,0.04699832554092503,0.14933860721725337,0.5757102713037444,0.22655946173691976,0.07416585842230841,-2.4909599,57.05386
209,Newport,0.3609099940864361,0.7671119032336042,0.26926023878416355,0.4457156837065408,0.029049300093840477,0.29678281671963114,0.27549867178724813,0.7987943431848212,-2.997664,51.58415
81,Achnasheen,0.36147805585559295,0.5696731703306791,0.13491474083815788,0.06046313492014419,0.20002333055085184,0.6142726612943841,0.258826026349059,0.12104078301006709,-5.078765799999999,57.578590000000005
438,Faversham,0.3626720208872361,0.6650109742518036,0.5667980732356052,0.8977770558074332,0.17111507801118386,0.09864106432439704,0.5673229129416197,0.4520101371189526,0.889358,51.31599
177,Builth Wells,0.3628958671939696,0.5278112812283726,0.4755775575989769,0.5452766511043335,0.05405293339867179,0.410439746730438,0.44351208405368675,0.8628246958206807,-3.4045919999999996,52.15002
89,Inchnadamph,0.3629732979636552,0.6073001059277011,0.13028932256057485,0.054979688963184364,0.18213675918331187,0.5973205294579164,0.2499524263196308,0.10130555246037486,-4.974295,58.15221
310,Stratford-upon-Avon,0.36594620904591363,0.8283269531967191,0.5009204422939795,0.3893577558538617,0.09116440388196592,0.2733333085440787,0.18418908291160296,0.3415503123544435,-1.7082979999999999,52.19173
238,Wells,0.3674414239088071,0.8336922415415204,0.5005862185806091,0.4126988666064858,0.031473507420061934,0.260400416324265,0.20624866400777558,0.6751697488021301,-2.6445979,51.20935
115,Launceston,0.3675168657811713,0.810226725161086,0.8171688476710808,0.4723014453521535,0.036275413006381256,0.24403071929515566,0.327389196969246,0.531547637908486,-4.360451599999999,50.636829999999996
139,Llandeilo,0.3675431846142172,0.5232764231399768,0.4797919686939799,0.5718864419964903,0.049941407560605,0.4059077075764863,0.3707379372222797,0.8465567234004543,-3.9914300000000003,51.88469
124,Inverness,0.3692174002360248,0.620442593091878,0.1483204273941125,0.05179890527811531,0.1723209965904639,0.5915151113606558,0.2529280585108885,0.10251156688258788,-4.224721,57.47776999999999
114,Lairg,0.3696006307801476,0.6225123951970992,0.14842751676139093,0.04694064129702845,0.1726258279287564,0.5919846423806335,0.25311067600596,0.1025855845439337,-4.402414,58.022059999999996
107,Bude,0.3699148220665705,0.8298565552872555,0.7762124867207266,0.47403963111312464,0.05170723171749689,0.21626990901104035,0.383861589026245,0.5736195940046245,-4.543678,50.826640000000005
103,Cardigan,0.3700265545037557,0.5234759933964381,0.5077911740344109,0.5244090070047362,0.05543279450311214,0.42363664451295996,0.3923730740342519,0.8504019607987147,-4.660864,52.0837
121,Alness,0.3701124312757645,0.617134939995003,0.1485705492709673,0.05737832769934158,0.1680384307246769,0.5934263628991391,0.2533545827742367,0.10268443797009588,-4.256825,57.69595
247,Sedbergh,0.3708331204804521,0.6337013413368722,0.2291247044489698,0.13065706077628797,0.360129926842552,0.4433731730460123,0.46398245591341053,0.08222506629107611,-2.5281740000000004,54.32363
112,Altnaharra,0.37094624242124535,0.6236644022511726,0.13226983172926476,0.04259598489558097,0.17369608930625266,0.5930217346551414,0.25375192890313436,0.10284548354381612,-4.442655,58.28023
94,Wadebridge,0.37200131158242516,0.8205254629087863,0.8240955132999584,0.47915027244387837,0.034194598770156535,0.2289655004561785,0.33016428645187706,0.5788108284319311,-4.836456,50.51665
101,Camelford,0.3721753264754519,0.8263476843386606,0.8243642737152698,0.47022115900222694,0.03654099152215048,0.22850813870669692,0.3302719662712451,0.5647424190631234,-4.682364,50.62206
82,Newquay,0.37373470371083284,0.8338921920122723,0.7817916499749722,0.4816169940452436,0.04204799666516867,0.21535518551207758,0.3466254167071708,0.5627794712088391,-5.0737190000000005,50.4155
85,Truro,0.3737464191334101,0.8208837937545324,0.826790984012684,0.48152080679811277,0.03738395970725408,0.22769550186578574,0.33124419292900337,0.5521057318619439,-5.051041000000001,50.2632
127,Invergordon,0.37398268923710937,0.6210650038853675,0.14965211442067192,0.04935424561655953,0.1660495980144706,0.594483399255849,0.2551989400145816,0.1034319590801025,-4.1728819999999995,57.688109999999995
77,Redruth,0.3740968192491476,0.8201261111657022,0.827332196004844,0.47969718371609626,0.037572000077123476,0.22898950096187942,0.3314610249125296,0.552467137924539,-5.226666000000001,50.23302
446,Harwich,0.37435423160382353,0.7182805594489967,0.8068483143296683,0.9759189711323032,0.10585753699457583,0.036796493627527856,0.4586344439101547,0.5342546794410545,1.260297,51.93473
361,Helmsley,0.3751836290319614,0.6791746747541343,0.13277600509643425,0.0890793678987253,0.36217121182792583,0.4365161271567074,0.1132102268461483,0.11647483628592586,-1.0562636,54.24651
137,Tain,0.3756773659806741,0.6249968421090875,0.15012568861861952,0.040025628385875374,0.16231892130479425,0.597373939033983,0.256006532817204,0.10375927443788545,-4.05523,57.8115
83,Falmouth,0.37756690017138567,0.8263071281476777,0.8326921006091494,0.4689659470445995,0.03943395218494822,0.2273280575038596,0.3336084047329996,0.5560463165636094,-5.066269999999999,50.152570000000004
111,Liskeard,0.3776261039231543,0.8282683579499553,0.8327835390860475,0.46055690519042963,0.03946574144262552,0.23088621698282538,0.3336450497588855,0.5417045957452702,-4.4647190000000005,50.45552
314,Burton upon Trent,0.3776423965340875,0.8328050748637712,0.29968473825854763,0.41582042030665256,0.1538383075343927,0.24044010842819988,0.19803061965348226,0.2318228125868443,-1.6371358999999999,52.81403
73,Penzance,0.3783543672847641,0.8320361970763885,0.7885389927635145,0.47576545094604966,0.0421813733332495,0.21830521950152634,0.3496170109855968,0.5676366009907796,-5.537592,50.1188
76,Helston,0.37851571317430593,0.823814865719719,0.834157619651057,0.4694506773718131,0.03538206575856733,0.23080644065401743,0.3341955548017774,0.5570249488700632,-5.274996,50.10159
96,St Austell,0.3797661029505019,0.8195115158881835,0.8360889651062987,0.4703316092231837,0.04061402471559496,0.23091799230023224,0.33496933041533294,0.5583146424639625,-4.7834252,50.340379999999996
466,Reeth,0.3798844014733642,0.6257372038246853,0.12593871308676288,0.15591460933222862,0.23137631522006777,0.49509122051360394,0.2818737143932255,0.25610568982344456,-1.9428115000000001,54.38946
239,Yeovil,0.3803354179974228,0.9224209071896071,0.5555325020386815,0.43968033794957173,0.04647105722847293,0.16912581707355398,0.2750339600415673,0.6019438154407758,-2.633308,50.94206
141,Golspie,0.38276595950468817,0.6303225459216482,0.1521066363411555,0.05245907720948219,0.15923508688176893,0.589983811489887,0.17292306282164527,0.10512840225933501,-3.976086,57.97341
66,Scilly Isles,0.3828649139577135,0.825400443803018,0.7951269212290231,0.48179215460557745,0.04943236479527685,0.21473725699910484,0.39321537210692575,0.5723789817575995,-6.327496599999999,49.92773
297,Buxton,0.38289368485594993,0.6467488171744654,0.2569668252836744,0.08085335583182786,0.32934230721041874,0.4743716853526942,0.3697318583196262,0.05354515700749957,-1.91483,53.259080000000004
150,Brora,0.38357263446205975,0.6283247310554214,0.15233206215455547,0.04769440082019827,0.15472039032785576,0.5959552049153034,0.1731793442973241,0.10528420613581625,-3.8525480000000005,58.012159999999994
216,Ambleside,0.3839701959649632,0.6572908498220301,0.3015359197253498,0.12502655864091702,0.373194275141692,0.41546227509244393,0.48849338591754327,0.08656879390566266,-2.961333,54.428740000000005
444,Folkestone,0.3843071642124899,0.6812798790344008,0.5454156495491366,0.848094691531925,0.1486444956865778,0.11831573239909375,0.697565329486634,0.4072789311785,1.169456,51.0814
280,Rochdale,0.3848694500058644,0.6280740853459413,0.3521887793038254,0.06759897801225576,0.2259225916372,0.5413668997870713,0.424566091518545,0.04782270563698504,-2.1561,53.60971
469,Keswick,0.3879287827635074,0.6865719550052717,0.37689398843361743,0.15251931895213375,0.3222971166383109,0.39607020452149244,0.4686429062702619,0.15028271240511346,-3.134706,54.60128
37,Tyrone,0.3880817371410636,0.07301816892008413,0.01,0.5035782499064124,0.2281402378956009,0.8032705590529061,0.01,0.01,-7.131232000000001,54.491209999999995
183,Cockermouth,0.38935869095682435,0.6515468257978945,0.41308054638912034,0.153683261929467,0.34207860419174535,0.41119998810115743,0.5136385109120789,0.14824056639638217,-3.367985,54.66326
213,Weston-super-Mare,0.38954196920723777,0.7818252246158165,0.3564499329295848,0.4399486645359798,0.020040017146849134,0.2886959984396287,0.2655643992451732,0.7600550660623474,-2.977255,51.347409999999996
161,Whitehaven,0.3901730218066243,0.6593014652360357,0.31536116526388214,0.13716926763353235,0.35325791861770356,0.41786097352135765,0.3495566682197567,0.12071722733504102,-3.589233,54.5497
128,Llanelli,0.39029946663495324,0.5875248227124131,0.4408240931103903,0.5704661167950662,0.05824261934637554,0.3579658523509171,0.3406272359410675,0.7514347167986613,-4.160248,51.680890000000005
34,Omagh,0.39046789626837897,0.052518619727494505,0.01,0.42548678194709405,0.23021531624402738,0.8559334151604098,0.01,0.01,-7.309959700000001,54.59771
100,Tenby,0.3909693980901953,0.5829175126786678,0.5040333797219755,0.5586826520643793,0.0675143709904503,0.3592541048470543,0.34619503630270576,0.7637174517268974,-4.703579,51.672740000000005
339,Thirsk,0.391010265843372,0.6759134922927605,0.17577167797700083,0.08162278354791964,0.3494956599715956,0.44544668152444444,0.11240255224659307,0.11564388082078457,-1.341377,54.23385
397,Horsham,0.39261805774368314,0.8004715248646203,0.35011790976977547,0.6008906559675158,0.1738824711061563,0.14497792798563772,0.7676351061264372,0.26141610619414557,-0.325858,51.06288
90,Haverfordwest,0.392786977790147,0.5822425055749975,0.5214533414979878,0.5374681296308995,0.06971750476165071,0.3678097780764506,0.35815991770106775,0.7623891383219811,-4.971319,51.80048
92,Pembroke,0.3937259552871361,0.5915063845161194,0.5223366437631312,0.5254051668219902,0.07464864059113646,0.3635221384382969,0.3587666172367802,0.7636805718620866,-4.908637000000001,51.674040000000005
193,Cardiff,0.3937664688531186,0.7322621795522275,0.2850995519971459,0.4612537533402058,0.027500748602464768,0.3105205709686505,0.30462860447386453,0.8236806932211486,-3.17909,51.48158
180,Merthyr Tydfil,0.39551105874589665,0.567073011536293,0.4731659317265586,0.5397500649211222,0.041327762657532185,0.3934713891999752,0.2899728610630837,0.7971315535379874,-3.381646,51.74873
233,Glastonbury,0.3982371013537988,0.8374861887158986,0.46588966559008393,0.4066138463544682,0.034907783855438454,0.2598943774927988,0.2087666073042955,0.624834206733868,-2.718454,51.14743
86,Milford Haven,0.39834940593952844,0.5813115720078128,0.5852066267459628,0.5273248366292279,0.07071084995698428,0.37245201673545114,0.36175394638942554,0.7280373279140742,-5.0426971,51.71431
173,Minehead,0.39915763387152076,0.6696308736031666,0.6036371993140068,0.4811273454511934,0.06205961080135395,0.331593014973949,0.2399547845252029,0.7201313358610992,-3.481152,51.20428
116,Carmarthen,0.4017363890969738,0.5704025480778857,0.4499603392002031,0.5643111868930156,0.06462762996502419,0.36625819608818755,0.34768687213331695,0.7939210729973709,-4.312131,51.857620000000004
405,Hove,0.40260782582054616,0.8149909792047285,0.3734391800095609,0.5985772437695396,0.1974501283560386,0.11756157566362214,0.8345126172411506,0.27882897196144013,-0.168749,50.82793
125,Saltash,0.4078920263063002,0.8719933815675998,0.6887903042176765,0.4309306709864975,0.01,0.23362531695033995,0.24395148782836515,0.5416908641597592,-4.21643,50.409209999999995
88,Fishguard,0.40810862539813697,0.5731240797229943,0.46901646314692247,0.5219672983032823,0.062424772622151445,0.3864314662179359,0.3624116404700889,0.7574133031145771,-4.975989,51.99393
270,Burnley,0.40824032854404124,0.6303841406367034,0.3264523930339303,0.08564873625836242,0.2702648743146046,0.5093667889114956,0.33002490447841826,0.055130667686782264,-2.2405035,53.78929
350,Loughborough,0.4129900877989186,0.902301994747804,0.4596345264014075,0.4504273130749454,0.17575872837993584,0.14615158651793542,0.372307924179525,0.17960918220150096,-1.206166,52.7721
129,Plymouth,0.41383509670877,0.8870314481999007,0.6845821333784411,0.4413760860938394,0.01,0.21469297437591084,0.24246106591616343,0.5081446881907979,-4.1426565,50.37546
130,Tavistock,0.4145280230864661,0.835009853042107,0.8089744964675494,0.46885015699107746,0.017924787583834634,0.22765088120729998,0.3241062303309781,0.5541994379851346,-4.141654,50.551120000000004
228,Bridport,0.41576541691715185,0.925794759819055,0.5273136360406182,0.4319491737873802,0.04414387624524913,0.1645860031078964,0.2829707281145792,0.6422519207432295,-2.758301,50.733579999999996
408,London,0.4176970993839731,0.8813531167559506,0.13419387709027783,0.3414312830999358,0.07622103402577016,0.27638711936803595,0.3243971586503277,0.18604482790410662,-0.12775830000000002,51.50735
383,Whitby,0.4191673304270911,0.5725138357867998,0.0800280732935308,0.1028821324705663,0.46191864617567985,0.46077117343204826,0.10235278243543147,0.14838333816321417,-0.613347,54.486340000000006
407,Brighton,0.4199566229667781,0.809636632582286,0.3751579273513992,0.5815383298802416,0.20605713897924835,0.12523734302908687,0.8383534389609846,0.2564408174522585,-0.137163,50.82253
232,Street,0.4205137049329149,0.8408263712576245,0.43933727679733475,0.41463385330187147,0.030977871428623766,0.2535099049410952,0.20588527529125814,0.6258387152754825,-2.7429189999999997,51.12468
231,Kendal,0.4210140624576422,0.6440890914745732,0.18125655215434916,0.1280359055962569,0.3745001916684917,0.42375461882971477,0.4893978847149589,0.08672908754283153,-2.74629,54.32801
264,Wincanton,0.4214748872424633,0.904267744875535,0.5957221338180911,0.4505919344920583,0.04985599120736777,0.1662744893892411,0.3068075345398358,0.6402373297117271,-2.416007,51.055690000000006
470,Oxenholme,0.42504253311411866,0.6270602228174029,0.18833477468318552,0.12572980053758062,0.36564197680254945,0.4435692335151174,0.42821835962304283,0.09011593217854065,-2.7243327999999996,54.30134
136,Barnstaple,0.4259113815466564,0.728913083097692,0.6192426628251299,0.47852607412137277,0.04349143628496362,0.30658651624546873,0.2870953618206109,0.4956855279633312,-4.058338,51.07816
155,Kingsbridge,0.42755211285602795,0.9018987986157831,0.6362041439647289,0.43287689943465224,0.01418084231443211,0.2112409579784951,0.16549428875703145,0.4428651678437796,-3.777493,50.28395
308,Ashbourne,0.428538878379065,0.841765880769361,0.11594396129718453,0.2872904396761925,0.31201709266921057,0.22471335452363875,0.19771705695430453,0.1479407841572075,-1.7321790000000001,53.016630000000006
198,Taunton,0.430004559478996,0.8327032196799591,0.33061532887125505,0.4050721804840923,0.031314284703347815,0.2646336322804772,0.24631694995690528,0.645068906766093,-3.106849,51.01534
138,Okehampton,0.4303335448920689,0.770624153864781,0.6480645129518747,0.4249138741215976,0.03996524743065051,0.29697448272994564,0.31955632268614215,0.5112144473032022,-4.004263,50.73831
143,Swansea,0.4313437412602606,0.5952921782062689,0.4599169916244073,0.5601277091218955,0.05419239148996041,0.35315425801084455,0.28185344043917193,0.7702266822901596,-3.9436459999999998,51.62144
222,Morecambe,0.4328420348272268,0.5941994423354754,0.21596829007179327,0.09624999016346632,0.4384327426036937,0.4511571117047761,0.29923292822934966,0.07750367854355696,-2.864968,54.074169999999995
162,Dartmouth,0.43365492168308106,0.8833538888444366,0.6893499720175237,0.4575784730552049,0.023466000732396845,0.20521919729463603,0.16276646621627172,0.46601276952641074,-3.578807,50.35252
126,Bideford,0.43408610372426465,0.7322110618531762,0.6278598804381613,0.46385776484726393,0.059445773642379254,0.3012185158154877,0.2910904992967743,0.502583356713314,-4.206666,51.01668
158,Totnes,0.4368455761542654,0.8982980847930252,0.7651500755929783,0.440764183438425,0.01,0.20450290051181916,0.16539669333094767,0.473543287308521,-3.685797,50.43374
236,Preston,0.43832836722019314,0.578398201130149,0.2868330548485956,0.06349700294871176,0.40114594745360105,0.49518046183057585,0.25100144861199425,0.08668179423112879,-2.70309,53.7632
218,Lyme Regis,0.44071842240664466,0.9564552824481001,0.38896394047647526,0.4355612894740096,0.0460685775834456,0.1457675784267225,0.17220105298126392,0.6012932635438287,-2.936639,50.725159999999995
55,Banbridge,0.4415846825481479,0.24622280337741814,0.3517435375116392,0.18268108215360504,0.32439569139458574,0.7197978143314117,0.8997325251983339,0.08415253323227305,-6.2704803,54.34873
275,Shaftesbury,0.44177689721392255,0.9366948698361722,0.5587141827820434,0.5033180735907621,0.07013553350010712,0.10885953315297986,0.3195608799438256,0.5712067389043368,-2.198083,51.0046
465,Hawes,0.443458850463665,0.6385167553255982,0.23297343472868803,0.13287154554989594,0.31890582480788054,0.44590133899159307,0.47177621957736904,0.12540936824809068,-2.1968695,54.303830000000005
164,Paignton,0.44544360651927845,0.8816275469816011,0.6183959706695918,0.4638588187615861,0.015511360962390726,0.2114360043417253,0.08043094737406196,0.46055982620542946,-3.564235,50.43508
59,Kilkeel,0.4469202674222297,0.23469732534455226,0.01,0.16895124845285378,0.3351089476601621,0.7473118588526878,0.7732192658746316,0.0723196705762471,-6.007004,54.06312
261,Dorchester,0.4510299286816839,0.9083889720619382,0.5917447153941774,0.5209540650740101,0.056122275859299915,0.14182473478596105,0.1946104445031123,0.43280392453522804,-2.4411810000000003,50.71116
225,Lancaster,0.45110455319898457,0.5820698037950625,0.3167459995346579,0.09338165694442412,0.4450835390593574,0.4533212136413465,0.36009401786194944,0.05051972280610969,-2.8007399,54.046569999999996
172,Tiverton,0.45458648576964394,0.7909956975795811,0.4771260820927848,0.41189669728545397,0.032110951143573624,0.2959505738318089,0.1961439500283374,0.5333773880717962,-3.491207,50.90205
376,Midhurst,0.456883934627397,0.8898142788378385,0.36145991724744747,0.5779090002596845,0.17904760351497967,0.051520972892611976,0.6444086111557391,0.5934019211384334,-0.737274,50.9869
394,Worthing,0.46070248125838886,0.8174308565526679,0.3265059971050695,0.5775002922855721,0.1824934899401167,0.10414698315333495,0.8783756498664063,0.5656574646420197,-0.372882,50.81787
163,Bridgend,0.4642847850308503,0.6057858813929126,0.5033162710914021,0.5385311778771299,0.03671016565865922,0.3582126181137562,0.2643857638701803,0.7740990068911662,-3.576945,51.504290000000005
168,Torquay,0.46484344721677645,0.8812217738416117,0.556082384605839,0.45975094177783826,0.011023961705830905,0.2134621878793391,0.08051407642831965,0.4911579518619313,-3.525315,50.46192
382,Grantham,0.4649368436553698,0.8809905613069773,0.3660258292500468,0.43668841571102407,0.2069771615606784,0.15139282371358115,0.3706050873181673,0.1824364286609115,-0.643582,52.912519999999994
371,Chichester,0.46542894589395545,0.8975624123870098,0.34319992385243386,0.6087046577954248,0.14913971703552456,0.04845533083344957,0.6880670229110054,0.5291438235337115,-0.774936,50.83761
410,Boston,0.46776611820779646,0.8480342625460786,0.5544070358216812,0.43758143244662134,0.19960737502485268,0.14484913653955303,0.26304022769648583,0.5947341865819685,-0.026576999999999996,52.97894
420,Tunbridge Wells,0.47045061193330207,0.740621782172529,0.3191455377666949,0.6103223460189019,0.154126898708437,0.17618365592604598,0.7653275445410298,0.43426143113181004,0.26369499999999996,51.13238
60,Belfast,0.4707972249705786,0.2987406204302994,0.3687805595512176,0.16561251814137853,0.3150171693089644,0.6915661208861523,0.9433118977459816,0.01,-5.93012,54.597280000000005
302,Salisbury,0.47378073442349417,0.8830194692529573,0.5735943421875954,0.5925838438025903,0.12457836905489915,0.05923324806956479,0.6430950926385904,0.6891153695551311,-1.794472,51.06878
210,Axminster,0.47528981707729895,0.8862685693491009,0.2755553411920599,0.4145141988958351,0.04598744586928657,0.2148173713632053,0.1441736728368781,0.5753451484948784,-2.9949369999999997,50.78273
432,Hastings,0.47555872689320206,0.7424711022353134,0.3581341989752787,0.6094322802434065,0.1736202097303186,0.17141600617387642,0.6949567201327644,0.3584833507957483,0.573453,50.85426
367,Melton Mowbray,0.4777624251251676,0.8716227993724942,0.5164007991839829,0.4737226136850353,0.18426035070323715,0.14293315250698813,0.38026281611578594,0.20590965821580914,-0.887126,52.7664
415,Uckfield,0.478724125092923,0.7620189328128396,0.4555592830602127,0.5927528213989013,0.13938787849344075,0.1774692041398506,0.7295697933555908,0.3336036457801076,0.095913,50.966409999999996
167,Exeter,0.482132768159552,0.802998006578721,0.5700120333693428,0.4309324977713225,0.030728394862938872,0.2717678671088618,0.1929767143646784,0.5247646587232789,-3.533899,50.71841
328,Derby,0.4830859948798153,0.8743578497479305,0.3435811459196375,0.3940247695159639,0.2469129002673546,0.15620374198307055,0.3478796090775011,0.19179936772977904,-1.4746186000000001,52.92253
365,Petersfield,0.4908655258842044,0.9225899758107666,0.28028580225230654,0.6408177082337969,0.1491440016746028,0.01,0.6870763101464387,0.6475938485015023,-0.93899,51.00759
421,Eastbourne,0.4935504010420732,0.7552173638627946,0.4661085587784858,0.6015690254861777,0.16219667087690046,0.15699913902411222,0.8708749879831541,0.3878736696231413,0.29047199999999995,50.768029999999996
380,Bognor Regis,0.49500033443444674,0.8739841413464368,0.3149762520351411,0.6278584264244144,0.1522901015784265,0.054021081908993344,0.6469892109027693,0.5434779113217093,-0.673061,50.783
266,Sark,0.49741480129212934,0.8894560747301892,0.33324760214745935,0.5681600117363899,0.12075778403166154,0.07529195263043814,0.4262106772784866,0.7491853204638168,-2.3666256000000003,49.43007
276,Alderney,0.4984464668533233,0.8910583399962365,0.3814506816689115,0.5896011960100771,0.11773144670078298,0.057860486750537676,0.42687796497083746,0.8188031037702519,-2.1973557,49.715
281,Jersey,0.49917680084776067,0.897634061657746,0.37780311055644605,0.5888780702632033,0.11600266393979335,0.057181373849792785,0.4227959942078891,0.7770782319684392,-2.13125,49.21444
189,Sidmouth,0.49985951028716263,0.8054015945849373,0.41302556270067375,0.43760096499205775,0.0397654588568569,0.27474832427455076,0.12677845666505422,0.43412235784359704,-3.2375599999999998,50.67865
334,Southampton,0.5008989134762915,0.9150371456687972,0.4046632910568035,0.6342672794171376,0.14233087268353928,0.01,0.80866962418668,0.7012238781613773,-1.4043508999999998,50.9097
426,Bexhill,0.5009855258678573,0.7380512800927992,0.36232405105490384,0.605600599073005,0.16697093363045692,0.175654292659462,0.6721821754177056,0.38102794745313495,0.4662071,50.849909999999994
244,Guernsey,0.5022045564547822,0.8794549180338256,0.3967577915166546,0.5670102614719277,0.11598835877383856,0.08587245725628236,0.36535517320786803,0.737859757048251,-2.5852779999999997,49.46569
413,Lewes,0.5041823922375245,0.8029543241813499,0.4757053046797112,0.5874362452096081,0.1527619647336886,0.13771659188762647,0.7473364493991729,0.3154409025434971,0.00878,50.873870000000004
258,Weymouth,0.5108658228565441,0.905294534689949,0.6117827522656286,0.5301092782682305,0.061524791094474424,0.1263092529386251,0.20120047281899026,0.46627821187249757,-2.457621,50.61443
467,Aysgarth,0.5114982104692012,0.6851562904637777,0.1476527017539102,0.1307235979004902,0.33559131509187407,0.4046860480327864,0.21581947772167637,0.11102150825322062,-1.9967433999999997,54.29159
352,Nottingham,0.5148945932098772,0.8538535267536939,0.28769528825605245,0.3945780042741144,0.2860940587466864,0.15435975946760805,0.4151242598823636,0.12706961355147747,-1.1581086,52.95478000000001
260,Fortuneswell,0.5211417469411507,0.9017986332732623,0.5464211530161696,0.5510946094671297,0.06762549517815702,0.11390504791481225,0.2168848944564244,0.5026265624629497,-2.4422189999999997,50.55919
369,Newark-on-Trent,0.5216695675960129,0.847184230130698,0.35247479864028575,0.3215092811910862,0.36335854060217293,0.15073128864799715,0.38067683713369477,0.17989862968481826,-0.80657,53.070040000000006
303,Ringwood,0.529103575369877,0.8960458643204459,0.5100994017010883,0.6020005682706026,0.11981592361234882,0.03778119043184322,0.5366493319101134,0.784718904083603,-1.7888169999999999,50.84495
343,Isle of Wight,0.537928285539177,0.8918770258556701,0.32838527342763324,0.6263341852708306,0.16177477214185723,0.019600976381135903,0.6299879287592184,0.6840074427029593,-1.304734,50.69385
279,Blandford Forum,0.5555815202014072,0.8860365963858855,0.554622466262007,0.5648792467126305,0.0726614664508959,0.10850087770863416,0.349128519703029,0.5093364770226726,-2.165353,50.85691
358,Portsmouth,0.5725157003690766,0.898344048476139,0.356968659900597,0.6157769849843908,0.14842273106073772,0.02003366155433341,0.7133577815017195,0.6612771701780704,-1.0879769,50.81977
293,Poole,0.5747289889004544,0.8616011533504778,0.49926439901558545,0.5961657472786528,0.125735290713107,0.06480947823914705,0.4489732095297026,0.7552471968679709,-1.987248,50.71505
393,Scarborough,0.57566131857626,0.6192428902673673,0.12395156165461321,0.08166360516266254,0.573227902647748,0.3656564932692102,0.05284307383478429,0.06919422444179901,-0.399752,54.28311
265,Clitheroe,0.575758420357808,0.568553354753198,0.3270669897029932,0.05352479537199522,0.42317769980809655,0.47809683426569083,0.2589512808236989,0.08942721950161085,-2.3930830000000003,53.8711
61,Down,0.5792725567179706,0.28085158031000307,0.36803780465718966,0.19308679982148097,0.23036638432507642,0.720692255712881,0.9414119770177262,0.01,-5.7156921999999994,54.32875
300,Bournemouth,0.5875499931818965,0.884307128316662,0.4279409069158315,0.608499214763569,0.1347058045871484,0.033282954807047835,0.492587754758446,0.7917564400217985,-1.880769,50.719159999999995
278,Colne,0.6049020869935514,0.6067180823410655,0.21574693001800757,0.0746797365157986,0.4161582170704582,0.4427663996976612,0.3039249872580828,0.05386034083080525,-2.176991,53.85564
370,Malton,0.6166871754674691,0.6272201662955914,0.07713467774816707,0.0930014749179633,0.5784942769315655,0.34905558010067356,0.04932612122765838,0.055362028071505184,-0.7978970000000001,54.13684
290,Skipton,0.6435604204528935,0.6331425953140193,0.1737163405583313,0.07501340579017715,0.3967430661582136,0.4262131495052347,0.2777205218723771,0.08312118667618792,-2.0162787,53.96285
423,Skegness,0.6488976400371024,0.7040081176595933,0.6549794838115248,0.4324119826966942,0.5016517629182041,0.08905066506753408,0.35901136534493694,0.5535373622233651,0.337881,53.1464
298,Keighley,0.6745301400360807,0.6316148942949351,0.215117413381641,0.07146761644488561,0.4308397401933078,0.4088158251897815,0.2751267761897215,0.061758660507921594,-1.9123580000000002,53.8678
335,Wetherby,0.7081127802863767,0.6891300789975455,0.204176061388475,0.06894855043218916,0.576290382982464,0.2897455980199244,0.2611332140056307,0.058617480538308224,-1.384816,53.92706
320,Harrogate,0.7196673473872086,0.6863717088122941,0.17151511089354782,0.07754561060142254,0.5144970417676984,0.3172126556356736,0.21936113300250215,0.08206792466700927,-1.5418120000000002,53.99211999999999
351,Mansfield,0.7290220305797048,0.7471708888337062,0.3101997519575993,0.1891615310592766,0.6040329372645219,0.16081454335995599,0.2489307475733684,0.12223388773090658,-1.198674,53.1472
463,Horncastle,0.7402211027182366,0.7178876291028183,0.38108606982862653,0.26698038651394373,0.602094483617026,0.12958481491384607,0.180516377259186,0.3309226160061481,-0.11245,53.20731
312,Otley,0.7430077113363468,0.6971717379789547,0.20799999510281536,0.07430651032386362,0.49694660724655476,0.31638582131251647,0.2128190961156144,0.05971530353160466,-1.691786,53.90583
319,Leeds,0.7435947084978091,0.6856099283583335,0.21029803552911092,0.05681715345329781,0.562725906731562,0.30159880551849355,0.2151703840042312,0.06037505353613377,-1.5490774,53.80076
401,Bridlington,0.7502869393063462,0.5717206242848273,0.16307966471315902,0.08359929446759619,0.7513605283982768,0.29536002617745316,0.06952417941287821,0.026010556384784188,-0.198802,54.08535
390,Driffield,0.7591895161680322,0.6365203768244687,0.1610920747271633,0.09042669196810489,0.6735129900927396,0.2753354915759912,0.10301524410874828,0.038540315585322456,-0.443377,54.006
338,Castleford,0.7688003311922715,0.6778932681032062,0.22781702824548072,0.041034435174994735,0.6506638391734462,0.26823100385326437,0.24280756940869969,0.05450385862361756,-1.345968,53.72346999999999
301,Halifax,0.7725397033627758,0.6143955382782427,0.21520081170469516,0.04151305279914021,0.5299306572629435,0.37545748851271554,0.31455251217602853,0.05884057836441419,-1.8575400000000002,53.727019999999996
307,Bradford,0.7764727069478312,0.6272880134234233,0.2142263267857305,0.05093427396826004,0.5365848399656206,0.3562844648106952,0.3287845241044518,0.06150283595493389,-1.759398,53.79598000000001
387,Lincoln,0.7859167815391094,0.7824358065202695,0.41870430508758455,0.20170894315158036,0.5211136993248998,0.15022153142832387,0.336004061615012,0.16498999242397694,-0.540579,53.23069
360,Selby,0.8126447280394062,0.6886853127697673,0.16300329238817987,0.0474066822102635,0.6635079432025479,0.2478900682189017,0.15635613407643742,0.077995121540576,-1.067189,53.783519999999996
333,Chesterfield,0.8156041255179475,0.7035674492969456,0.3083318780350324,0.13586698083618404,0.6988086008186286,0.16508359105707315,0.2938252628915443,0.09546259888577692,-1.421629,53.23505
391,Beverley,0.8202089132297226,0.6568401691497334,0.2469167882998804,0.09855855435556089,0.7403746446945767,0.2085373517165937,0.10526564132341781,0.07876448378436587,-0.435093,53.84196
304,Huddersfield,0.8338018548783358,0.6210503022661362,0.23184327233091975,0.04107694305265299,0.6202954231001617,0.3185022602729767,0.28239857025505255,0.06339098798097621,-1.7850351000000002,53.645790000000005
464,Market Weighton,0.8410023443105479,0.6436083316272977,0.19451997366995802,0.07526416713788348,0.7613015130235407,0.22139317188993166,0.14927007747489973,0.03723019292453586,-0.6677465,53.86484
359,York,0.8520758162209834,0.6350490742584701,0.14818911706337914,0.0749078035751022,0.7635772783378255,0.2252427177902227,0.14214607878182772,0.07090671622033462,-1.0872979,53.95997
324,Wakefield,0.8561004453086611,0.640347318150053,0.29531980269243185,0.03491365209698033,0.7176255608298847,0.2542336385003266,0.25180166800539033,0.06280310474951804,-1.505924,53.6833
356,Worksop,0.8617200883124901,0.718817295289035,0.3100140152672654,0.10265497880367513,0.7136394643454795,0.15371106974310333,0.2954282607538048,0.12216069632542247,-1.122745,53.3093
364,Retford,0.8702237414128335,0.7231301504778321,0.3060837048356464,0.10539361030014353,0.7039214191664482,0.151682181923157,0.29168286099869783,0.13784224129832792,-0.9455030000000001,53.32136
355,Doncaster,0.8878582041537711,0.6625001235696443,0.2892396556248615,0.03753087266354217,0.775311729952744,0.20074225789320826,0.32368545522347675,0.069198854097659,-1.128462,53.522819999999996
327,Barnsley,0.8940526657286155,0.649986384103798,0.2991427039779264,0.0323678166605024,0.7603181192480016,0.2193957213521004,0.34008163871414243,0.06361608805673645,-1.479726,53.55263000000001
409,Grimsby,0.9188087703833028,0.6164283328591919,0.30651811069322,0.1105906726053099,0.8275995993724248,0.17672011793375236,0.06533745014958964,0.10999893137575222,-0.08078400000000001,53.56746999999999
396,Hull,0.9214189392883644,0.6123202019427936,0.2644388508931725,0.08891917292176525,0.8845938683912292,0.16635663196509023,0.06764138929940239,0.07591849137186032,-0.3274198,53.767619999999994
329,Sheffield,0.9277261141264701,0.6297519287637264,0.3615120229262794,0.01,0.9032895454737384,0.16986577632678002,0.4045647900124917,0.04324479350388374,-1.470085,53.381130000000006
337,Rotherham,0.9434212929984955,0.6227984853276572,0.3652150162810375,0.02267236698477076,0.9188418869357001,0.1592595810187776,0.40870878622104023,0.04368775408023506,-1.3635008999999998,53.4326
381,Scunthorpe,0.9472906791144394,0.5982394304018163,0.28725732828501815,0.06734533596540235,0.9684212424941936,0.13925803281714205,0.12246363340503069,0.10308689015060345,-0.654413,53.58865
412,Louth_Lincs,0.9727070431894502,0.6033577061959129,0.3533684800131186,0.19560481191985524,0.8103822609860738,0.13052590516555093,0.22597225324176146,0.25362387514663637,-0.007711,53.36596
372,Gainsborough,1.0,0.5834225217484686,0.3562028992027292,0.05368520113181963,1.0,0.12855515941575316,0.25309422313719493,0.11362587984445616,-0.774465,53.400569999999995
