,Unnamed:_0,placename,at,down,in,longitude,latitude
0,0,Dingle,0.13229018,0.05073495,0.8169749,-10.2640135,52.14094
1,1,Tralee,0.10944528,0.05197401,0.8385806999999998,-9.6999325,52.27131
2,2,Killarney,0.10880538,0.04711161,0.844083,-9.5044265,52.05994000000001
3,3,Bantry,0.10560697,0.05225912,0.8421339,-9.4539805,51.68035
4,4,Mayo,0.11060329,0.051188300000000006,0.8382084000000001,-9.4289369,54.01526
5,5,Ballycastle,0.09963437,0.05393053,0.8464351000000001,-9.3724643,54.27967
6,6,Abbeyfeale,0.10807799,0.04679666,0.8451253000000001,-9.2970823,52.38618
7,7,Ennistymon,0.15205149,0.04263878,0.8053097,-9.2934951,52.94037
8,8,Galway,0.14820359,0.03967066,0.8121257,-9.0567905,53.27067
9,9,Claremorris,0.13600783,0.04892368,0.8150685000000001,-9.0017356,53.72388
10,10,Clare,0.14673913,0.04347826,0.8097826,-8.9811351,52.90453
11,11,Adare,0.10807799,0.04345404,0.848468,-8.7925892,52.56363
12,12,Charleville,0.10139276,0.04679666,0.8518106,-8.681017599999999,52.36206
13,13,Mallow,0.09972603,0.05260274,0.8476712,-8.6539164,52.13898
14,14,Limerick,0.15598124,0.04378421,0.8002345999999999,-8.6267343,52.66384
15,15,Loughrea,0.14144487,0.04030418,0.8182510000000001,-8.5660931,53.19891
16,16,Sligo,0.03433476,0.05579399,0.9098712,-8.476088800000001,54.27661
17,17,Cork,0.1020076,0.04883342,0.849159,-8.4756035,51.89851
18,18,Nenagh,0.12346843,0.03393025,0.8426013000000001,-8.19834,52.8635
19,19,Roscommon,0.13453389999999998,0.052966099999999995,0.8125,-8.1890955,53.62759000000001
20,20,Tipperary,0.10924369999999999,0.03601441,0.8547418999999999,-8.161851400000002,52.47379
21,21,Donegal,0.05306122,0.08979592,0.8571429,-8.1096143,54.653830000000006
22,22,Leitrim,0.02955665,0.06896552,0.9014778,-8.0020132,54.12469
23,23,Athlone,0.1025641,0.03846154,0.8589744,-7.9406898,53.42393000000001
24,24,Longford,0.04950495,0.07920792,0.8712870999999999,-7.7932573,53.72763000000001
25,25,Offaly,0.07984791,0.05323194,0.8669201999999999,-7.7122229,53.23569000000001
26,26,Fermanagh,0.02991453,0.11111111,0.8589744,-7.6318728,54.34383
27,27,Enniskillen,0.02991453,0.11111111,0.8589744,-7.631533599999999,54.34382
28,28,Doon,0.02083333,0.07291667,0.90625,-7.60964,54.185930000000006
29,29,Westmeath,0.06910569,0.05081301,0.8800813,-7.4653217,53.53453
30,30,Strabane,0.07011494,0.09195402,0.837931,-7.4633103,54.82739
31,31,Cavan,0.02739726,0.07305936,0.8995434000000001,-7.3633319,53.98972
32,32,Mullingar,0.05610561,0.06765677,0.8762376000000001,-7.3401868000000015,53.52582
33,33,Laois,0.07826087,0.05217391,0.8695652,-7.3323006999999985,52.99429
34,34,Omagh,0.05829596,0.09865471,0.8430493,-7.309959700000001,54.59771
35,35,Derry,0.09232614,0.08633094,0.8213429,-7.308574799999999,54.99661
36,36,Kilkenny,0.07692308,0.05054945,0.8725275,-7.2447879,52.65415
37,37,Tyrone,0.03448276,0.14482759,0.8206896999999999,-7.131232000000002,54.49121
38,38,Waterford,0.08310249,0.05263158,0.8642658999999999,-7.110070200000001,52.25932
39,39,Monaghan,0.01360544,0.06802721,0.9183673,-6.9683132,54.2492
40,40,Carlow,0.09459459,0.04954955,0.8558559000000001,-6.9341358999999985,52.83651
41,41,Kildare,0.10714286,0.03896104,0.8538960999999999,-6.8194708,53.21204
42,42,Dungannon,0.03846154,0.16153846,0.8,-6.7669352,54.50827
43,43,Cookstown,0.03968254,0.13492063,0.8253968,-6.7443895000000005,54.64182
44,44,Coleraine,0.12365591,0.10035842,0.7759857,-6.6646103000000005,55.13258
45,45,Meath,0.09509202,0.06748466,0.8374233,-6.656416900000001,53.60555
46,46,Armagh,0.03448276,0.15172414,0.8137930999999999,-6.652792,54.35028000000001
47,47,Magherafelt,0.06066946,0.15899582,0.7803346999999999,-6.607980499999999,54.75536999999999
48,48,Louth,0.04545455,0.07496013,0.8795853000000001,-6.4889423,53.925230000000006
49,49,Wexford,0.06378601,0.05349794,0.882716,-6.4633381,52.33692
50,50,Craigavon,0.04938272,0.13580247,0.8148148000000001,-6.4175653,54.44293
51,51,Drogheda,0.08423493,0.06646059,0.8493045,-6.3560985,53.71786
52,52,Rosslare,0.06772009,0.05869074,0.8735892,-6.3414908,52.25131
53,53,Newry,0.05952381,0.0952381,0.8452381,-6.34023,54.1751
54,54,Ballymena,0.10572139,0.06716418,0.8271144,-6.2802213,54.86529
55,55,Banbridge,0.07317073,0.14634146,0.7804878000000001,-6.2704803,54.34873
56,56,Dublin,0.11080616,0.0440211,0.8451726999999999,-6.2603097000000005,53.34981
57,57,Antrim,0.10159363,0.06108898,0.8373174000000001,-6.2072498,54.719530000000006
58,58,Wicklow,0.10443038,0.03797468,0.8575949,-6.044589,52.98082
59,59,Kilkeel,0.05952381,0.05952381,0.8809524,-6.007004,54.06312
60,60,Belfast,0.11943319999999999,0.06477733,0.8157895000000001,-5.93012,54.59728000000001
61,61,Down,0.17218543,0.07284768,0.7549669,-5.7156922,54.32875
62,62,Balivanich,0.15222749,0.05668246,0.79109,-7.3743509,57.47227
63,63,Western Isles,0.17616055,0.05817961,0.7656598000000001,-7.0194034,57.75989000000001
64,64,Dunvegan,0.16649726,0.05346615,0.7800366,-6.5813982000000015,57.4366
65,65,Stornoway,0.18459916,0.06054852,0.7548523,-6.384869200000002,58.20943000000001
66,66,Scilly Isles,0.26777131,0.09916519,0.6330635,-6.327496599999999,49.92773
67,67,Portree,0.18102301,0.05229131,0.7666857,-6.1960231,57.41246999999999
68,68,Islay,0.12125446,0.04952647,0.8292190999999999,-6.177067,55.73625
69,69,Mull,0.13088771,0.04492874,0.8241835,-6.0008870000000005,56.4392
70,70,Broadford,0.17005681,0.052592999999999994,0.7773502,-5.9096592,57.24139
71,71,Kyle of Lochalsh,0.18193454,0.053209000000000006,0.7648564999999999,-5.7143293,57.28261
72,72,Campbeltown,0.12345139,0.05042997,0.8261185999999999,-5.6053739999999985,55.42412
73,73,Penzance,0.27373613,0.09381422,0.6324496999999999,-5.537592,50.1188
74,74,Oban,0.13263505,0.04924005,0.8181248999999999,-5.471047,56.41516
75,75,Lochgilphead,0.13423987,0.0493337,0.8164264,-5.4323449,56.03829
76,76,Helston,0.27631579,0.09459729,0.6290869,-5.274996,50.10159
77,77,Redruth,0.27373613,0.09381422,0.6324496999999999,-5.226666000000002,50.23302
78,78,Ullapool,0.19111570000000003,0.05475207,0.7541321999999999,-5.161313,57.89542
79,79,Ballachulish,0.13953488,0.04443184,0.8160333000000001,-5.1337199999999985,56.67393000000001
80,80,Fort William,0.15968535,0.04778761,0.7925270000000001,-5.1052179,56.81981999999999
81,81,Achnasheen,0.18942189,0.05309553,0.7574826,-5.078765799999998,57.57859000000001
82,82,Newquay,0.28236759,0.09619737,0.6214350000000001,-5.0737190000000005,50.4155
83,83,Falmouth,0.27631579,0.09459729,0.6290869,-5.0662699999999985,50.15257
84,84,Rothesay,0.13133029,0.04894362,0.8197261,-5.055793,55.83596
85,85,Truro,0.27586207,0.09369869,0.6304392,-5.0510410000000014,50.2632
86,86,Milford Haven,0.19034017,0.14502727,0.6646326,-5.0426971,51.71431
87,87,Stranraer,0.14285714,0.05773501,0.7994078,-5.0240550000000015,54.90337
88,88,Fishguard,0.15476555,0.14817652,0.6970579,-4.975989,51.99393
89,89,Inchnadamph,0.19311516,0.05341155,0.7534733,-4.974295,58.15221
90,90,Haverfordwest,0.17372263,0.14817518,0.6781022,-4.971319,51.80048
91,91,Dunoon,0.1329364,0.05023004,0.8168335999999999,-4.926214,55.95097
92,92,Pembroke,0.19189821,0.14502727,0.6630745,-4.9086370000000015,51.67404000000001
93,93,Girvan,0.14531226,0.04910235,0.8055854,-4.8542179,55.24016
94,94,Wadebridge,0.27801592,0.09440702,0.6275771,-4.836456,50.51665
95,95,Invergarry,0.18566308,0.04713262,0.7672043000000001,-4.800261,57.07095
96,96,St Austell,0.27784431,0.09471058,0.6274451,-4.7834252,50.34038
97,97,Greenock,0.13283938,0.04943107,0.8177296,-4.7719830000000005,55.956480000000006
98,98,Helensburgh,0.13040815,0.05000278,0.8195891,-4.734014,56.00232
99,99,Bodmin,0.27767584,0.09306829999999999,0.6292559,-4.7188629,50.4715
100,100,Tenby,0.19061329999999999,0.14209617,0.6672905,-4.703579,51.67274000000001
101,101,Camelford,0.27606753,0.09543198,0.6285005,-4.682364,50.62206
102,102,Irvine,0.13312757,0.04835391,0.8185185,-4.6696364,55.61156999999999
103,103,Cardigan,0.15844315,0.14817652,0.6933803000000001,-4.660864,52.0837
104,104,Holyhead,0.10828729,0.06876611,0.8229466000000001,-4.633038,53.30944
105,105,Ayr,0.14158148,0.05733756,0.801081,-4.629179,55.45856
106,106,Dumbarton,0.13073645,0.04807692,0.8211866,-4.564554,55.94529
107,107,Bude,0.27896219,0.09835076,0.622687,-4.543678,50.82664000000001
108,108,Isle of Man,0.20542348,0.06160228,0.7329741999999999,-4.5126331,54.27697
109,109,Kilmarnock,0.1337475,0.04959696,0.8166555,-4.498792,55.61472
110,110,Newton Stewart,0.14468812,0.05553973,0.7997721,-4.483164,54.9603
111,111,Liskeard,0.28006424,0.09636619,0.6235696,-4.4647190000000005,50.45552
112,112,Altnaharra,0.1967752,0.05275517,0.7504696,-4.442655,58.28023
113,113,Pwllheli,0.13007473,0.08675015,0.7831751,-4.417633900000001,52.88882
114,114,Lairg,0.19559271,0.05303951,0.7513678,-4.402414,58.02206
115,115,Launceston,0.28017945,0.10032626,0.6194943,-4.360451599999998,50.63683
116,116,Carmarthen,0.1554833,0.15356193,0.6909548000000001,-4.312131,51.85762
117,117,Llangefni,0.10315423,0.06105638,0.8357894,-4.311401999999998,53.25578
118,118,Caernarfon,0.13296986,0.07716189999999999,0.7898682,-4.273911,53.13955
119,119,Cumnock,0.12828806,0.05260888,0.8191031,-4.265828900000002,55.45355
120,120,Aberaeron,0.16072586,0.1352884,0.7039857,-4.2581619,52.24279
121,121,Alness,0.18884442,0.04814907,0.7630064999999999,-4.256825,57.69595
122,122,Glasgow,0.12237476,0.04548714,0.8321381,-4.251806,55.86424
123,123,Dalwhinnie,0.19259933,0.03654838,0.7708523,-4.242783,56.9366
124,124,Inverness,0.18326593,0.04866026,0.7680738,-4.224721,57.47776999999999
125,125,Saltash,0.27838226,0.09361527,0.6280025,-4.21643,50.40921
126,126,Bideford,0.25822268,0.11399387,0.6277835,-4.206666,51.01668
127,127,Invergordon,0.18884442,0.04814907,0.7630064999999999,-4.172882,57.68811
128,128,Llanelli,0.15433759,0.15383322,0.6918291999999999,-4.160248,51.68089000000001
129,129,Plymouth,0.27941479,0.0939625,0.6266227,-4.1426565,50.37546
130,130,Tavistock,0.27922607,0.09714868,0.6236253,-4.141654,50.55112
131,131,Porthmadog,0.13117377,0.08388322,0.7849430000000001,-4.133384,52.92784
132,132,Bangor,0.10552402,0.06247502,0.832001,-4.129263,53.22739
133,133,Tywyn,0.1354391,0.10564728,0.7589136,-4.087249,52.58701
134,134,Aberystwyth,0.17886717,0.13630341,0.6848294,-4.08292,52.4153
135,135,Lampeter,0.15915537,0.14812479999999997,0.6927198,-4.078509,52.1129
136,136,Barnstaple,0.24147157,0.11906355,0.6394649,-4.058338,51.07816
137,137,Tain,0.18756219,0.04937811,0.7630597,-4.05523,57.8115
138,138,Okehampton,0.28849309,0.10382001,0.6076869,-4.004263,50.73831
139,139,Llandeilo,0.14243411,0.14539532,0.7121706,-3.99143,51.88469
140,140,Motherwell,0.13258971,0.04303904,0.8243713,-3.9810968,55.78321
141,141,Golspie,0.19486143,0.05210739,0.7530312,-3.976086,57.97341
142,142,Airdrie,0.13240346,0.04226085,0.8253357,-3.962566,55.86626999999999
143,143,Swansea,0.15283139999999998,0.15267053,0.6944981,-3.943646,51.62144
144,144,Stirling,0.14777778,0.04063492,0.8115873,-3.9369029,56.11652
145,145,Tregaron,0.15865546,0.13882353,0.702521,-3.934385,52.22
146,146,Castle Douglas,0.16989529,0.0526178,0.7774869000000001,-3.931414,54.94042
147,147,Dolgellau,0.13390488,0.08685446,0.7792406999999999,-3.8844,52.74215
148,148,Aberfeldy,0.20826933,0.03507424,0.7566564,-3.866969,56.62175
149,149,Machynlleth,0.14922514,0.0956817,0.7550932,-3.853485,52.59027
150,150,Brora,0.18909941,0.05031988,0.7605807,-3.852548000000001,58.01216
151,151,Llandudno,0.10751199999999998,0.05929031,0.8331976999999999,-3.827609,53.32406
152,152,Aviemore,0.18418443,0.04995042,0.7658651,-3.823812,57.19449
153,153,Dalbeattie,0.17197632,0.05413025,0.7738934000000001,-3.822527,54.93422
154,154,Falkirk,0.15214598,0.03238242,0.8154716,-3.7839131,56.00188000000001
155,155,Kingsbridge,0.28256228,0.09916963,0.6182681,-3.777493,50.28395
156,156,Pitlochry,0.21402311,0.03755252,0.7484244000000001,-3.729711,56.70436
157,157,Colwyn Bay,0.10674386,0.05891707,0.8343391,-3.72764,53.29318000000001
158,158,Totnes,0.28350287,0.10459973,0.6118974,-3.685797,50.43374
159,159,Grantown-on-Spey,0.19284834,0.04969174,0.7574599,-3.609628,57.33041
160,160,Dumfries,0.16933827,0.05425401,0.7764076999999999,-3.60512,55.07086
161,161,Whitehaven,0.22895706,0.06601227,0.7050307,-3.589233,54.5497
162,162,Dartmouth,0.27740937,0.10853227,0.6140584,-3.578807,50.35252
163,163,Bridgend,0.17209382,0.11590343,0.7120026999999999,-3.576945,51.50429000000001
164,164,Paignton,0.28171944,0.1023804,0.6159001999999999,-3.564235,50.43508
165,165,Workington,0.22421525,0.06477329,0.7110115,-3.542752,54.64357
166,166,Llanidloes,0.18287176,0.10881999,0.7083081999999999,-3.540195,52.44779000000001
167,167,Exeter,0.28252269,0.10751687,0.6099604000000001,-3.533899,50.71841
168,168,Torquay,0.27802377,0.10347238,0.6185038,-3.525315,50.46192
169,169,Thurso,0.19016721,0.05128525,0.7585475,-3.5220800000000003,58.59356999999999
170,170,Livingston,0.19583946,0.04020452,0.7639560000000001,-3.518068,55.90071
171,171,Rhyl,0.12281051,0.058651800000000004,0.8185376999999999,-3.4916339999999995,53.31914
172,172,Tiverton,0.26826827,0.1036036,0.6281281,-3.491207,50.90205
173,173,Minehead,0.20645422,0.10310609,0.6904397,-3.481152,51.20428
174,174,Dunfermline,0.21655677,0.04060847,0.7428348000000001,-3.452151,56.07174000000001
175,175,Perth,0.20042573,0.04084348,0.7587308,-3.4308381000000003,56.39499
176,176,Prestatyn,0.12274729999999999,0.05820318,0.8190495,-3.407613,53.33651
177,177,Builth Wells,0.1537861,0.13973458,0.7064793,-3.404592,52.15002
178,178,Braemar,0.20093813,0.04804767,0.7510142,-3.3979439,57.00646999999999
179,179,Brecon,0.14074387,0.13630599999999998,0.7229501,-3.391463,51.94895
180,180,Merthyr Tydfil,0.16590613,0.13265971,0.7014342,-3.381646,51.74873
181,181,Llandrindod Wells,0.16299919,0.13610432,0.7008965,-3.377742,52.2417
182,182,Corwen,0.16041931,0.05924396,0.7803366999999999,-3.369242,52.98005
183,183,Cockermouth,0.22173913,0.07077295,0.7074879,-3.367985,54.66326
184,184,Lockerbie,0.18395041,0.05126487,0.7647847,-3.349008,55.12224000000001
185,185,Blairgowrie,0.21170830000000002,0.0436538,0.7446379,-3.3378318,56.58941
186,186,Elgin,0.19143207,0.05079559,0.7577723000000001,-3.318485,57.64945
187,187,Newtown,0.18936427,0.1021392,0.7084965,-3.313106,52.51211
188,188,Ruthin,0.12564139,0.05993444,0.8144241999999999,-3.3103108,53.11487
189,189,Sidmouth,0.25640327,0.10054496,0.6430518,-3.23756,50.67865
190,190,Barrow-in-Furness,0.20743661,0.06403154,0.7285319,-3.218894,54.10896999999999
191,191,Peebles,0.19651703,0.04071207,0.7627709,-3.193642,55.65306999999999
192,192,Edinburgh,0.21641524,0.04232502,0.7412597,-3.188267,55.95325
193,193,Cardiff,0.18395526,0.11273267,0.7033121,-3.17909,51.48158
194,194,Llangollen,0.17675572,0.06419795,0.7590463000000001,-3.17166,52.96921
195,195,Kirkcaldy,0.21754631,0.04334149,0.7391121999999999,-3.158137,56.11682
196,196,Welshpool,0.19336695,0.08456168,0.7220714,-3.146407,52.66035
197,197,Mold,0.13041247,0.05789339,0.8116941,-3.141903,53.1672
198,198,Taunton,0.26245716,0.10572107,0.6318218000000001,-3.106849,51.01534
199,199,Wick,0.19141502,0.050287,0.7582979999999999,-3.093716,58.43894
200,200,John o' Groats,0.19266516,0.05061542,0.7567194,-3.0688997,58.63734
201,201,Dalkeith,0.21281612,0.04229176,0.7448921,-3.066606,55.89312
202,202,Oswestry,0.18747425,0.07876665,0.7337591,-3.056412,52.85715
203,203,Blackpool,0.20675621,0.050569800000000005,0.742674,-3.0356748,53.81751
204,204,Birkenhead,0.13279000000000002,0.05505852,0.8121515,-3.023009,53.38999
205,205,Cupar,0.20759359,0.04401888,0.7483875,-3.010137,56.32023
206,206,Southport,0.14770134,0.05097272,0.8013259,-3.010113,53.64571
207,207,Bridgwater,0.21149784,0.09789696,0.6906051999999999,-3.003632,51.12789
208,208,Langholm,0.19689387,0.05383952,0.7492666,-2.998913,55.15306
209,209,Newport,0.1825119,0.1137445,0.7037436,-2.997664,51.58415
210,210,Axminster,0.25775499,0.10331230000000001,0.6389326999999999,-2.994937,50.78273
211,211,Wrexham,0.17249674,0.06971033,0.7577929,-2.992494,53.04304000000001
212,212,Liverpool,0.13149478,0.0563937,0.8121115,-2.9915726,53.40837
213,213,Weston-super-Mare,0.23970752,0.1010968,0.6591956999999999,-2.977255,51.34741
214,214,Dundee,0.2084808,0.04460768,0.7469115,-2.970721,56.46202
215,215,Kirkwall,0.19169811,0.05018868,0.7581131999999999,-2.9622491,58.98467
216,216,Ambleside,0.21933164,0.07117174,0.7094965999999999,-2.961333,54.42874000000001
217,217,Orkney Islands,0.19169811,0.05018868,0.7581131999999999,-2.9605206,58.98094
218,218,Lyme Regis,0.26072651,0.10028955,0.6389839,-2.936639,50.72516
219,219,Carlisle,0.19423110000000002,0.07031917,0.7354497,-2.932931,54.89247
220,220,Chester,0.13896442,0.05741973,0.8036159,-2.893075,53.19339
221,221,Forfar,0.20187823,0.0432505,0.7548713,-2.889062,56.64356
222,222,Morecambe,0.21502479,0.05895667,0.7260185,-2.864968,54.07417
223,223,Selkirk,0.19559807,0.04137502,0.7630269000000001,-2.838524,55.55066
224,224,Galashiels,0.19742586,0.04184856,0.7607255999999999,-2.814449,55.62373
225,225,Lancaster,0.22208975,0.05668762,0.7212225999999999,-2.8007399,54.04657
226,226,St Andrews,0.20973634,0.04356778,0.7466959,-2.7967214,56.33978000000001
227,227,Hawick,0.20074758,0.04426854,0.7549839,-2.780914,55.42706
228,228,Bridport,0.24312403,0.11053451,0.6463415,-2.758301,50.73358
229,229,Shrewsbury,0.20531192,0.10030883,0.6943792,-2.7553268,52.7073
230,230,Penrith,0.21415553,0.07806804,0.7077764,-2.752708,54.6641
231,231,Kendal,0.2181216,0.06825172,0.7136267,-2.74629,54.32801
232,232,Street,0.27926855,0.10025923,0.6204722,-2.742919,51.12468
233,233,Glastonbury,0.27897536,0.09910414,0.6219205,-2.718454,51.14743
234,234,Hereford,0.2627657,0.09650623,0.6407281,-2.715974,52.0564
235,235,Ludlow,0.22838826,0.09085445,0.6807573,-2.7139129,52.36775
236,236,Preston,0.20142349,0.04546263,0.7531139,-2.70309,53.7632
237,237,Whitchurch,0.19354839,0.07116296,0.7352886,-2.682045,52.96872
238,238,Wells,0.28032809999999997,0.1001583,0.6195136,-2.6445979,51.20935
239,239,Yeovil,0.25145754,0.11077313,0.6377693,-2.633308,50.94206
240,240,Wigan,0.17125529,0.05698883,0.7717559,-2.6325074,53.54506
241,241,Warrington,0.16442072,0.056002800000000005,0.7795765,-2.5969501,53.39004
242,242,Arbroath,0.20788488,0.04418148,0.7479336,-2.591543,56.55911
243,243,Bristol,0.27346093,0.10812741,0.6184116999999999,-2.58791,51.45451
244,244,Guernsey,0.26587868,0.11690782,0.6172135,-2.585278,49.46569
245,245,Ross-on-Wye,0.26931426,0.101775,0.6289107,-2.582446,51.91445
246,246,Jedburgh,0.18983259,0.04269697,0.7674704000000001,-2.5549369,55.47772
247,247,Sedbergh,0.22321429,0.07898352,0.6978022,-2.5281740000000004,54.32363
248,248,Nantwich,0.18283868,0.06935114,0.7478102,-2.524102,53.06718000000001
249,249,Banff,0.19534828,0.05290431,0.7517474000000001,-2.524038,57.66651
250,250,Dunbar,0.20591369,0.0426212,0.7514651,-2.516737,56.00209
251,251,Cinderford,0.25714655,0.10813608,0.6347174,-2.5009579,51.8253
252,252,Banchory,0.21811753,0.04620824,0.7356742,-2.4909599,57.05386
253,253,Blackburn,0.18476244,0.05168894,0.7635486,-2.487529,53.74858
254,254,Market Drayton,0.20646018,0.08168682,0.711853,-2.483485,52.90355
255,255,Telford,0.19906323,0.10073975,0.7001970000000001,-2.4672611,52.67759
256,256,Montrose,0.20160308,0.04264187,0.7557550000000001,-2.4661150000000003,56.70692
257,257,Turriff,0.19837812,0.05313483,0.748487,-2.4623,57.53893000000001
258,258,Weymouth,0.23317765,0.12199446,0.6448279,-2.457621,50.61443
259,259,Crewe,0.19307857,0.06522247,0.741699,-2.4438209,53.1004
260,260,Fortuneswell,0.23596856,0.12875636,0.6352751,-2.442219,50.55919
261,261,Dorchester,0.23680320000000002,0.12070615,0.6424907,-2.4411810000000003,50.71116
262,262,Alston,0.19609813,0.05911413,0.7447876999999999,-2.438685,54.81217
263,263,Kelso,0.19328381,0.04162798,0.7650882,-2.432207,55.60003
264,264,Wincanton,0.2543554,0.10452962,0.641115,-2.416007,51.05569000000001
265,265,Clitheroe,0.18809582,0.05340992,0.7584943000000001,-2.3930830000000003,53.8711
266,266,Sark,0.26979084,0.12046598,0.6097431999999999,-2.3666256000000003,49.43007
267,267,Bath,0.29047332,0.09858306,0.6109435999999999,-2.3590167,51.38106
268,268,Kidderminster,0.23065361,0.08428072,0.6850656999999999,-2.2496839,52.3886
269,269,Manchester,0.19866499,0.05172066,0.7496143,-2.2426305,53.48076
270,270,Burnley,0.16903182,0.05172808,0.7792401,-2.2405035,53.78929
271,271,Gloucester,0.28480697,0.09476961,0.6204234000000001,-2.238156,51.86424
272,272,Newcastle-under-Lyme,0.21108659999999999,0.07550282,0.7134106,-2.2273002,53.01321
273,273,Worcester,0.27214685,0.09227853,0.6355746,-2.221575,52.19364
274,274,Trowbridge,0.29898911,0.10217729,0.5988336,-2.208853,51.31966
275,275,Shaftesbury,0.26158049,0.12157587,0.6168435999999999,-2.198083,51.0046
276,276,Alderney,0.25204374,0.13033926,0.617617,-2.1973557,49.715
277,277,Stoke-on-Trent,0.21112972,0.07668545,0.7121848000000001,-2.179404,53.00267
278,278,Colne,0.18853319,0.05274206,0.7587246999999999,-2.176991,53.85564
279,279,Blandford Forum,0.26349632,0.14187470000000002,0.594629,-2.165353,50.85691
280,280,Rochdale,0.20305923,0.05384034,0.7431004,-2.1561,53.60971
281,281,Jersey,0.24403014,0.14332550000000002,0.6126444000000001,-2.13125,49.21444
282,282,Wolverhampton,0.21693496,0.0919609,0.6911041,-2.12882,52.58697
283,283,Stafford,0.21255698,0.08978539999999999,0.6976576,-2.12066,52.80669
284,284,Macclesfield,0.18971683,0.05021556,0.7600676,-2.119287,53.25866
285,285,Hexham,0.18042071,0.06067961,0.7588997,-2.1121439,54.97266
286,286,Aberdeen,0.21785628,0.04409998,0.7380437,-2.094278,57.14972
287,287,Dudley,0.21582166,0.09225442,0.6919239,-2.081112,52.51225
288,288,Cheltenham,0.29305168,0.12073772,0.5862106,-2.0782533,51.89939
289,289,Bromsgrove,0.23728701,0.08873384,0.6739791,-2.061906,52.33559
290,290,Skipton,0.20282267,0.05486,0.7423173000000001,-2.0162787,53.96285
291,291,Fraserburgh,0.19838981,0.04986782,0.7517424,-2.007631,57.69335
292,292,Berwick,0.20582838,0.04609851,0.7480730999999999,-2.005395,55.77024
293,293,Poole,0.27015146,0.14221538,0.5876332,-1.987248,50.71505
294,294,Walsall,0.22036808,0.09391063,0.6857213000000001,-1.982919,52.58621
295,295,Cirencester,0.27850717,0.1303185,0.5911743,-1.968243,51.71849
296,296,Evesham,0.27103622,0.10526316,0.6237005999999999,-1.94677,52.09215
297,297,Buxton,0.19190601,0.04830287,0.7597911,-1.91483,53.25908
298,298,Keighley,0.22018254,0.05291858,0.7268989,-1.912358,53.8678
299,299,Birmingham,0.21571729,0.09345305,0.6908297,-1.890401,52.48624
300,300,Bournemouth,0.26887089,0.14368249,0.5874465999999999,-1.880769,50.71916
301,301,Halifax,0.2219803,0.05609251,0.7219272,-1.85754,53.72702
302,302,Salisbury,0.27899536,0.13466984,0.5863348,-1.794472,51.06878
303,303,Ringwood,0.26699697,0.14230663,0.5906964,-1.788817,50.84495
304,304,Huddersfield,0.21877149,0.05114697,0.7300814999999999,-1.7850351000000002,53.64579000000001
305,305,Peterhead,0.20595562,0.05038496,0.7436594,-1.784066,57.50812
306,306,Swindon,0.26241248,0.16136219,0.5762253,-1.7797176,51.55577
307,307,Bradford,0.22624997,0.0562519,0.7174981,-1.759398,53.79598000000001
308,308,Ashbourne,0.25216859,0.07562278,0.6722085999999999,-1.732179,53.016630000000006
309,309,Marlborough,0.2546047,0.14876736,0.5966279000000001,-1.727062,51.42007
310,310,Stratford-upon-Avon,0.26034281,0.11658929,0.6230679,-1.708298,52.19173
311,311,Alnwick,0.17104342,0.057247900000000004,0.7717086999999999,-1.7062990000000002,55.41274
312,312,Otley,0.21828179,0.05318189,0.7285363,-1.691786,53.90583
313,313,Bishop Auckland,0.19056303,0.05926601,0.750171,-1.6787880000000002,54.66382
314,314,Burton upon Trent,0.27858393,0.11128419999999999,0.6101319000000001,-1.6371359,52.81403
315,315,Newcastle,0.18273946,0.06080418,0.7564564,-1.61778,54.97825
316,316,Durham,0.18134277,0.05998616,0.7586710999999999,-1.584852,54.77525
317,317,Ashington,0.18421486,0.05832921,0.7574559000000001,-1.5659829,55.18298000000001
318,318,Darlington,0.18406158,0.06520263,0.7507358000000001,-1.559458,54.52361
319,319,Leeds,0.22274419,0.05390462,0.7233512,-1.5490774,53.80076
320,320,Harrogate,0.22765987,0.05284295,0.7194972,-1.5418120000000002,53.99211999999999
321,321,Leamington Spa,0.24889263,0.11189506,0.6392123000000001,-1.5200789,52.28519
322,322,Coventry,0.24122409,0.09855895,0.660217,-1.519693,52.40682
323,323,Blyth,0.18348925,0.05711472,0.759396,-1.510277,55.12696
324,324,Wakefield,0.23567723,0.05346893,0.7108538000000001,-1.505924,53.6833
325,325,Andover,0.2736823,0.13421482,0.5921029000000001,-1.4919233,51.2112
326,326,Witney,0.27227578,0.15373941,0.5739848000000001,-1.4850544,51.78594
327,327,Barnsley,0.2271467,0.04820202,0.7246513000000001,-1.479726,53.55263000000001
328,328,Derby,0.27832199,0.09930457,0.6223734000000001,-1.4746186,52.92253
329,329,Sheffield,0.22782067,0.04127628,0.730903,-1.470085,53.38113000000001
330,330,Nuneaton,0.24612297,0.12461374,0.6292633000000001,-1.465382,52.52049
331,331,Northallerton,0.20601549,0.05100091,0.7429836,-1.429959,54.33796
332,332,South Shields,0.17648018,0.05822867,0.7652911,-1.427406,54.99941999999999
333,333,Chesterfield,0.22810092,0.04326319,0.7286359,-1.421629,53.23505
334,334,Southampton,0.27164366,0.13935069,0.5890055999999999,-1.4043508999999998,50.9097
335,335,Wetherby,0.23351897,0.05496696,0.7115140999999999,-1.384816,53.92706
336,336,Sunderland,0.17937693,0.05743956,0.7631835,-1.383801,54.90687
337,337,Rotherham,0.23182524,0.04404372,0.7241310000000001,-1.3635008999999998,53.4326
338,338,Castleford,0.24033009,0.05484092,0.704829,-1.345968,53.72346999999999
339,339,Thirsk,0.21371841,0.05291387,0.7333677,-1.341377,54.23385
340,340,Banbury,0.26526291,0.11958125,0.6151558000000001,-1.339775,52.0629
341,341,Stockton,0.18783304,0.06194494,0.750222,-1.3289821000000002,54.57046
342,342,Newbury,0.28205882,0.13926471,0.5786765,-1.3231138999999998,51.40141
343,343,Isle of Wight,0.27247449,0.14596934,0.5815562,-1.304734,50.69385
344,344,Abingdon,0.26527299,0.14674244,0.5879846,-1.2879528999999998,51.67078
345,345,Shetland Islands,0.19266516,0.04910826,0.7582266,-1.2659409,60.52965
346,346,Rugby,0.25348471,0.12092112,0.6255941999999999,-1.265032,52.37088
347,347,Oxford,0.2539832,0.13625304,0.6097638000000001,-1.2577263,51.75202
348,348,Middlesbrough,0.18380266,0.06221349,0.7539838000000001,-1.234956,54.57423000000001
349,349,Hartlepool,0.18456927,0.05695525,0.7584755,-1.212926,54.69174
350,350,Loughborough,0.2697339,0.11754196,0.6127241,-1.206166,52.7721
351,351,Mansfield,0.26554549,0.07106511,0.6633894,-1.198674,53.1472
352,352,Nottingham,0.27390121,0.09856087,0.6275379,-1.1581086,52.95478000000001
353,353,Bicester,0.26341815,0.11459543,0.6219864,-1.1535898999999998,51.8996
354,354,Leicester,0.27470971,0.13806287,0.5872274000000001,-1.1397592,52.63688000000001
355,355,Doncaster,0.22502278,0.04308947,0.7318878000000001,-1.128462,53.52282
356,356,Worksop,0.22932561,0.04852267,0.7221517,-1.122745,53.3093
357,357,Basingstoke,0.27539503,0.13973987,0.5848651,-1.0923964,51.26654
358,358,Portsmouth,0.27613636,0.14553571,0.5783279,-1.0879769,50.81977
359,359,York,0.23947599,0.05298511,0.7075389,-1.0872979,53.95997
360,360,Selby,0.24979049,0.05413479,0.6960746999999999,-1.067189,53.78352
361,361,Helmsley,0.20916991,0.05064429,0.7401858,-1.0562636,54.24651
362,362,Towcester,0.24488967,0.10493647,0.6501739000000001,-0.989688,52.13511
363,363,Reading,0.27974190000000004,0.14544966,0.5748084,-0.9781303,51.45426
364,364,Retford,0.23333204,0.05324442,0.7134235,-0.945503,53.32136
365,365,Petersfield,0.28979808,0.13990774,0.5702941999999999,-0.93899,51.00759
366,366,Northampton,0.25827907,0.1036897,0.6380312,-0.902656,52.24048
367,367,Melton Mowbray,0.26802542,0.12170356,0.610271,-0.887126,52.7664
368,368,Aylesbury,0.24418605,0.10615737,0.6496566,-0.8084,51.81561
369,369,Newark-on-Trent,0.27086183,0.08739036,0.6417478,-0.80657,53.07004000000001
370,370,Malton,0.19580832,0.05500344,0.7491882,-0.7978970000000001,54.13684
371,371,Chichester,0.26178358,0.14815225,0.5900641999999999,-0.774936,50.83761
372,372,Gainsborough,0.24362952,0.05518539,0.7011851,-0.774465,53.40057
373,373,Milton Keynes,0.24479319,0.10980737,0.6453994000000001,-0.7594171,52.04062
374,374,Aldershot,0.29814764,0.13415963,0.5676926999999999,-0.7557509,51.24837
375,375,High Wycombe,0.22015315,0.13174382,0.648103,-0.748229,51.62861
376,376,Midhurst,0.27069443,0.14463022,0.5846754,-0.737274,50.9869
377,377,Kettering,0.25821008,0.10541489,0.636375,-0.7302489999999999,52.39632
378,378,Wellingborough,0.26844071,0.11216153,0.6193978,-0.693964,52.30242
379,379,Corby,0.25640576,0.12083187,0.6227623999999999,-0.6842333,52.4923
380,380,Bognor Regis,0.2568449,0.14008343,0.6030717,-0.673061,50.783
381,381,Scunthorpe,0.21089445,0.06506994,0.7240356,-0.654413,53.58865
382,382,Grantham,0.26804124,0.09828695,0.6336718000000001,-0.643582,52.91252
383,383,Whitby,0.20952381,0.05434174,0.7361345,-0.613347,54.48634000000001
384,384,Slough,0.22243274,0.15687761,0.6206897,-0.5950406,51.51054
385,385,Guildford,0.27882401,0.14699905,0.5741769,-0.570409,51.23622
386,386,Woking,0.27774086,0.13647841,0.5857806999999999,-0.5600349,51.31677
387,387,Lincoln,0.23579989999999998,0.07556019,0.6886399000000001,-0.540579,53.23069
388,388,Bedford,0.25128231,0.12951375,0.6192039,-0.4667782,52.13864
389,389,Heathrow,0.24450634,0.13679975,0.6186939,-0.4542955,51.47002
390,390,Driffield,0.20299103,0.05702891,0.7399800999999999,-0.443377,54.006
391,391,Beverley,0.20729986,0.06009276,0.7326074,-0.435093,53.84196
392,392,Luton,0.23207353,0.13581868,0.6321078,-0.4200255,51.87867
393,393,Scarborough,0.18312793,0.05814963,0.7587224,-0.399752,54.28311
394,394,Worthing,0.25692598,0.13946308,0.6036109000000001,-0.372882,50.81787
395,395,Dorking,0.25631676,0.1267461,0.6169371,-0.332378,51.2322
396,396,Hull,0.21709098,0.06058812,0.7223208999999999,-0.3274198,53.76762
397,397,Horsham,0.25386577,0.12831058,0.6178236999999999,-0.325858,51.06288
398,398,Biggleswade,0.26467958,0.14679583,0.5885246000000001,-0.26421999999999995,52.08694000000001
399,399,Peterborough,0.26564581,0.12250333,0.6118509,-0.2405299,52.5695
400,400,Welwyn Garden City,0.24737395,0.12668067,0.6259454000000001,-0.208661,51.80317
401,401,Bridlington,0.20321492,0.05794801,0.7388371,-0.198802,54.08535
402,402,Stevenage,0.24117232,0.15065913,0.6081685,-0.196612,51.90376
403,403,Crawley,0.23681402,0.13658537,0.6266006,-0.1872275,51.10914
404,404,Huntingdon,0.26071178,0.13369234,0.6055959,-0.182552,52.33146
405,405,Hove,0.24628321,0.12901129,0.6247055,-0.168749,50.82793
406,406,Spalding,0.25110619,0.11642699,0.6324668000000001,-0.1537024,52.7901
407,407,Brighton,0.24438812,0.12873119,0.6268807,-0.137163,50.82253
408,408,London,0.25954051,0.08904271,0.6514168,-0.12775830000000002,51.50735
409,409,Grimsby,0.21456370000000002,0.0721016,0.7133347,-0.08078400000000001,53.56746999999999
410,410,Boston,0.25991025,0.10795313,0.6321366,-0.026577,52.97894
411,411,Royston,0.24801929,0.16115513,0.5908256,-0.024066,52.04814
412,412,Louth_Lincs,0.20671457,0.07882327,0.7144621999999999,-0.007711,53.36596
413,413,Lewes,0.23829332,0.12677284,0.6349338000000001,0.00878,50.87387
414,414,Chatteris,0.25830218,0.13217506,0.6095228,0.054012,52.4561
415,415,Uckfield,0.24128318,0.12698677,0.63173,0.095913,50.96641
416,416,Cambridge,0.24094112,0.15299446,0.6060644000000001,0.121817,52.20534
417,417,Bishop's Stortford,0.21401605,0.19525720000000002,0.5907268,0.1536502,51.87216
418,418,Wisbech,0.26410475,0.12561209,0.6102831999999999,0.158797,52.66631999999999
419,419,Sevenoaks,0.22260709,0.13751299,0.6398799,0.190898,51.27241
420,420,Tunbridge Wells,0.24612215,0.12954435,0.6243335,0.263695,51.13238
421,421,Eastbourne,0.2366531,0.13103503,0.6323119,0.29047199999999995,50.76803
422,422,Brentwood,0.21126525,0.19509443,0.5936403,0.30717490000000003,51.62047000000001
423,423,Skegness,0.26205325,0.11609499,0.6218518,0.337881,53.1464
424,424,Downham Market,0.25994827,0.13688818,0.6031635000000001,0.385472,52.60661
425,425,King's Lynn,0.25272961,0.14386641,0.603404,0.4022963,52.75168000000001
426,426,Bexhill,0.24685051,0.12382855,0.6293209,0.4662071,50.84991
427,427,Chelmsford,0.19839987,0.21234039,0.5892596999999999,0.4685497,51.73559
428,428,Mildenhall,0.26342907,0.14865161,0.5879193,0.5156095,52.34757000000001
429,429,Medway,0.22341376,0.18839873,0.5881875,0.5417860999999999,51.40474
430,430,Braintree,0.2150105,0.21286739,0.5721221,0.5509269,51.88009
431,431,Gillingham,0.22559829999999997,0.18794413,0.5864576,0.551438,51.38632
432,432,Hastings,0.24572584,0.12715616,0.6271180000000001,0.573453,50.85426
433,433,Maldon,0.19702962,0.21021179,0.5927585999999999,0.6714479999999999,51.7318
434,434,Southend,0.21071401,0.19559656,0.5936894,0.7077123000000001,51.54593
435,435,Bury St Edmunds,0.26171698,0.15130088,0.5869821,0.7104931999999999,52.24292
436,436,Thetford,0.27090601,0.14711452,0.5819795,0.751657,52.41286
437,437,Ashford,0.21839319,0.1520656,0.6295411999999999,0.8750190000000001,51.14647
438,438,Faversham,0.22186469,0.19628348,0.5818518,0.889358,51.31599
439,439,Colchester,0.23210563,0.20430855,0.5635858,0.891874,51.89593
440,440,New Romney,0.222989,0.14891093,0.6281001,0.939473,50.98512
441,441,Canterbury,0.2208051,0.19784775,0.5813472,1.0789089,51.28023
442,442,Ipswich,0.24105368,0.1763171,0.5826292,1.14822,52.05674000000001
443,443,Clacton,0.22082955,0.20829554,0.5708749,1.153035,51.78953
444,444,Folkestone,0.22296312,0.15451136,0.6225255000000001,1.169456,51.0814
445,445,Sheringham,0.26007067,0.16525324,0.5746760999999999,1.2109589,52.94442
446,446,Harwich,0.23003884,0.18180837,0.5881528,1.260297,51.93473
447,447,Norwich,0.26900708,0.16326531,0.5677276,1.297355,52.63089
448,448,Cromer,0.26071429,0.16916667,0.5701189999999999,1.301866,52.93145
449,449,Dover,0.22295487,0.15897383,0.6180713000000001,1.3134027,51.12788
450,450,Felixstowe,0.22162969,0.18867321,0.5896971,1.351255,51.96173
451,451,Margate,0.21757448,0.19553115,0.5868944,1.3868339,51.38965
452,452,Ramsgate,0.21923757,0.19374296,0.5870194999999999,1.419895,51.33555
453,453,Great Yarmouth,0.26952033,0.16810067,0.562379,1.728047,52.59823000000001
454,454,Lowestoft,0.267884,0.16659506,0.5655209,1.7534490000000005,52.48114
455,455,Swaffham,0.26709449,0.15523346,0.5776720999999999,0.687481,52.64747
456,456,Dereham,0.25752303,0.16632549,0.5761515,0.937827,52.68162
457,457,Ely,0.25922412,0.14315834,0.5976175,0.262363,52.39954
458,458,March,0.26162649,0.12028244,0.6180911,0.088622,52.55172
459,459,St Neots,0.24922601,0.14396285,0.6068110999999999,-0.26510300000000003,52.23008
460,460,Banham,0.26640739,0.15867769,0.5749149,1.0402849,52.45125
461,461,Holt,0.25528078,0.16396188,0.5807573,1.086747,52.90936
462,462,Hunstanton,0.26257232,0.14541611,0.5920116,0.491032,52.93891
463,463,Horncastle,0.22531612,0.08609093,0.688593,-0.11245,53.20731
464,464,Market Weighton,0.21284879999999998,0.05883625,0.7283149,-0.6677465,53.86484
465,465,Hawes,0.21170663,0.07503526,0.7132581,-2.1968695,54.30383000000001
466,466,Reeth,0.19866884,0.06492528,0.7364059000000001,-1.9428115,54.38946
467,467,Aysgarth,0.19043799,0.06369325,0.7458688,-1.9967434,54.29159
468,468,Stanhope,0.19409791,0.06091371,0.7449884,-2.011302,54.74946
469,469,Keswick,0.22347804,0.07372207,0.7027999,-3.134706,54.60128
470,470,Oxenholme,0.21966427,0.06702638,0.7133094,-2.7243328,54.30134
