,placename,at,down,in,longitude,latitude
0,Colchester,0.7656366252490902,0.9525786551644716,0.01,0.891874,51.89593
1,Lowestoft,0.8910059920387176,0.7436222528668176,0.01,1.7534490000000005,52.48114
2,Great Yarmouth,0.8967397819223503,0.7519642771362071,0.01,1.728047,52.59823000000001
3,Aldershot,0.9970514430625972,0.5639096152992684,0.014926614161195681,-0.7557509,51.24837
4,Norwich,0.8949413258298907,0.7251733482294953,0.01502465109106124,1.297355,52.63089
5,Cromer,0.8658829357685394,0.7578705861213817,0.021742287597654102,1.301866,52.93145
6,Petersfield,0.9677941278139706,0.5957577520166916,0.022234438603740345,-0.93899,51.00759
7,Clacton,0.7261246237389828,0.97466908186316,0.023865671989781685,1.153035,51.78953
8,Braintree,0.7057343540364451,1.0,0.027369157918954088,0.5509269,51.88009
9,Witney,0.9063950295404078,0.6723938841001553,0.03260163325592473,-1.4850543999999999,51.785940000000004
10,Guildford,0.9293403858742164,0.6350480596805373,0.0331412577323469,-0.570409,51.23622
11,Sheringham,0.8636276560603486,0.7361877279864357,0.03454355100996282,1.2109589,52.944419999999994
12,Reading,0.9325567226744264,0.6264634667363161,0.034915192437504364,-0.9781303,51.45426
13,Banham,0.8858318697772721,0.6997550543959423,0.03521435957305352,1.0402849,52.45125
14,Dereham,0.8547005860566584,0.7421286658938969,0.038688069242725324,0.9378270000000001,52.681619999999995
15,Swindon,0.8718334864780456,0.7146288690964129,0.038895379426796016,-1.7797176,51.55577
16,Swaffham,0.8882395057853171,0.6806718587148836,0.04295955794052767,0.687481,52.64747
17,Portsmouth,0.9199227131671552,0.6269402377383558,0.04480175331605011,-1.0879769,50.81977
18,Newbury,0.9406753371697828,0.5921949622730359,0.04578099898227013,-1.3231138999999998,51.40141
19,Holt,0.8468436193283239,0.7290327831730256,0.05162613490387203,1.086747,52.90936
20,Canterbury,0.7260389496007253,0.9167817685871572,0.053283211835894566,1.0789089,51.280229999999996
21,Isle of Wight,0.9070913202566916,0.6293428200697266,0.05387030978265298,-1.304734,50.69385
22,Faversham,0.7297518109568079,0.9081147311047564,0.05470067415136977,0.889358,51.31599
23,Thetford,0.9015952804867916,0.6356878359455638,0.05505939380592008,0.751657,52.412859999999995
24,Ipswich,0.7969910822157414,0.7974884556869196,0.05688445378682388,1.14822,52.05674000000001
25,Midhurst,0.9008538925860754,0.6219232548837724,0.0626323955028859,-0.737274,50.9869
26,Basingstoke,0.9173250522708604,0.5948276468672156,0.06316527818470456,-1.0923964,51.26654
27,Woking,0.92554496898859,0.5767571116863637,0.06573727282610121,-0.5600349,51.31677
28,Cheltenham,0.9791949202979974,0.4895438107671791,0.06694489678452932,-2.0782533,51.899390000000004
29,Salisbury,0.9299408056529654,0.5667364988896306,0.06729378465528242,-1.794472,51.06878
30,Gillingham,0.7428345847539208,0.8619094986136518,0.06763873981251647,0.551438,51.38632
31,Margate,0.7147186802944961,0.9039463507681552,0.06886574643043064,1.3868339,51.38965
32,Bury St Edmunds,0.8693964164102312,0.6588828975620519,0.06911210284158212,0.7104931999999999,52.24292
33,Ramsgate,0.7205462386828231,0.8940386559612138,0.06921716247415984,1.4198950000000001,51.33555
34,Leicester,0.9149236534802428,0.5855360144393188,0.06980117043172515,-1.1397591999999999,52.63688000000001
35,Bournemouth,0.894464108615605,0.6166722359208083,0.0704169210055498,-1.880769,50.719159999999995
36,Poole,0.8989512959869077,0.6085435258127034,0.07094109553600499,-1.987248,50.71505
37,Mildenhall,0.8753956734805464,0.6442042791707254,0.07174477363441459,0.5156095,52.34757000000001
38,Abingdon,0.8818568700865049,0.6336262792408698,0.07192820662926283,-1.2879528999999998,51.67078
39,Harwich,0.7583944799644633,0.8279135376203348,0.07240069406775466,1.260297,51.93473
40,Medway,0.7351798370243119,0.8644282679050782,0.0724981691814029,0.5417860999999999,51.404740000000004
41,Biggleswade,0.8797775289665314,0.6339220933466094,0.07344511041514594,-0.26421999999999995,52.08694000000001
42,Southampton,0.9041800464616634,0.5926713454311461,0.07479627841701522,-1.4043508999999998,50.9097
43,Chelmsford,0.6475297973426442,0.9970800892728076,0.07551006592070576,0.4685497,51.73559
44,Felixstowe,0.7289283580942105,0.8659490593593473,0.07673875798727095,1.3512549999999999,51.961729999999996
45,Chichester,0.8696297864555461,0.6414375113894527,0.07776997165356267,-0.774936,50.83761
46,Ringwood,0.8878977903676128,0.6090491080780854,0.07954587271547983,-1.7888169999999999,50.84495
47,Bishop's Stortford,0.7022497468057651,0.9024284958464964,0.07963126878046281,0.15365020000000001,51.87216
48,Royston,0.8213989609146173,0.7134816267526322,0.07990880599165755,-0.024066,52.048140000000004
49,Cirencester,0.9282301611721512,0.5426273445373319,0.08088833256598624,-1.968243,51.71849
50,Hunstanton,0.8723935745868011,0.6262775786814825,0.08324037615842994,0.49103199999999997,52.93891
51,Andover,0.9113235526055152,0.5642154025346267,0.0834968452614879,-1.4919233,51.2112
52,Maldon,0.6427283663427553,0.9852863094361819,0.08533875972890105,0.6714479999999999,51.7318
53,Brentwood,0.6926107930422228,0.9015266478976064,0.08781552652151782,0.30717490000000003,51.62047000000001
54,Southend,0.6906792179104012,0.9043087632172364,0.08795345240278983,0.7077123000000001,51.54593
55,Blandford Forum,0.8756313211614387,0.6066559448135767,0.0905928649902258,-2.165353,50.85691
56,Marlborough,0.8444745980034528,0.6448456068114702,0.0962079371709692,-1.7270619999999999,51.42007
57,Ely,0.8606612985248947,0.6137681159821785,0.09898780381265357,0.262363,52.39954
58,Trowbridge,1.0,0.3867073806755211,0.10240392732008327,-2.208853,51.31966
59,Bognor Regis,0.8523243814195816,0.5967311848737322,0.11430909386628725,-0.673061,50.783
60,Downham Market,0.8631987597608509,0.5790274946440139,0.11456696750988755,0.385472,52.606609999999996
61,King's Lynn,0.8379041800114212,0.6176912681427158,0.11524255151082236,0.4022963,52.75168000000001
62,Worthing,0.8526084901774513,0.5932940565632695,0.11582375038730232,-0.372882,50.81787
63,Huntingdon,0.8658741405911559,0.5613205354440317,0.121399776340964,-0.182552,52.33146
64,Cambridge,0.7965966658148309,0.6682663935949903,0.1227158308292719,0.12181700000000001,52.20534
65,St Neots,0.8256273738437803,0.6182256062651644,0.12481337167541735,-0.26510300000000003,52.23008
66,Okehampton,0.9632213714260526,0.3958090803904613,0.1272735648896328,-4.004263,50.73831
67,Stevenage,0.7974068032694374,0.6553271998216805,0.1286264183401534,-0.19661199999999998,51.90376
68,Chatteris,0.8574307703030101,0.5529138520509492,0.13243075685352598,0.054012,52.4561
69,Sark,0.897687663768568,0.4880382006324405,0.1330498783246527,-2.3666256000000003,49.43007
70,Oxford,0.8422968279859883,0.5755084204518526,0.13310774539500347,-1.2577263,51.75202
71,Exeter,0.942300763039455,0.4162920048134756,0.1336600107363082,-3.533899,50.71841
72,Burton upon Trent,0.9284991324135681,0.4371653772610538,0.1341417681423802,-1.6371358999999999,52.81403
73,Melton Mowbray,0.8915015354592644,0.4948951704953604,0.13453251132129915,-0.887126,52.7664
74,Wisbech,0.8777632931835238,0.5165508795552339,0.13456678211053552,0.158797,52.66631999999999
75,Bath,0.9701602057328648,0.366793090859588,0.13642189925904855,-2.3590167,51.38106
76,Peterborough,0.8831632517726048,0.4993263982036842,0.13897057852744038,-0.2405299,52.5695
77,Totnes,0.9457353674090744,0.4001292185160904,0.1391012007978916,-3.685797,50.43374
78,Jersey,0.8074207609706611,0.6146942872860828,0.14119958436836302,-2.13125,49.21444
79,Loughborough,0.8974881428919883,0.4718372948174023,0.1414234681308347,-1.206166,52.7721
80,Dartmouth,0.924383409884665,0.4219179580438193,0.14517162502250786,-3.578807,50.35252
81,Banbury,0.8818215492147817,0.4831362412061238,0.1482543106051524,-1.339775,52.0629
82,Paignton,0.9394861310740028,0.3878327375404168,0.15034539056480206,-3.564235,50.43508
83,Shaftesbury,0.8689181479795253,0.4941876877614796,0.15299547766036126,-2.198083,51.0046
84,Dorking,0.8504737499521259,0.5228340066211608,0.15325812674180594,-0.332378,51.2322
85,Guernsey,0.8839792409986177,0.4683237612528069,0.15403455675369107,-2.5852779999999997,49.46569
86,Alderney,0.8355008539906997,0.5427423679655986,0.15516802097147575,-2.1973557,49.715
87,Horsham,0.841885346838521,0.5315022076353505,0.1557486580317384,-0.325858,51.06288
88,Dover,0.7335718613472173,0.7013958558432872,0.1564441865083772,1.3134027,51.12788
89,March,0.8690793344973102,0.487021273849008,0.1564998063138593,0.088622,52.551719999999996
90,Kingsbridge,0.942439488566392,0.3700430567708767,0.15699701366589866,-3.777493,50.28395
91,Bristol,0.9105478600089486,0.41967477956751736,0.15740039770969982,-2.58791,51.45451
92,Torquay,0.926536301113515,0.3938829920297519,0.1576591140776258,-3.525315,50.46192
93,Heathrow,0.8090893918352091,0.5785375369483675,0.1581931203918782,-0.4542955,51.47002
94,Bedford,0.8328327615942427,0.5381685245037302,0.159625751745212,-0.46677820000000003,52.13864
95,Wellingborough,0.8929567343499368,0.4420263360433835,0.16017043256758728,-0.693964,52.30242
96,Launceston,0.9340899218234876,0.3764515128323428,0.16044150889228687,-4.360451599999998,50.636829999999996
97,Wells,0.9346107995597644,0.375520909026386,0.1604957241572266,-2.6445979,51.20935
98,Gloucester,0.9503050051882788,0.34566418466867355,0.1630514261283309,-2.238156,51.86424
99,Street,0.9308980783658716,0.3760801245666053,0.16318850928527726,-2.7429189999999997,51.12468
100,Slough,0.7317422892487156,0.6897814815272431,0.16379948442125775,-0.5950406,51.51054
101,Newquay,0.9417572841501408,0.35357487108206304,0.1658930925538848,-5.0737190000000005,50.4155
102,Skegness,0.8705747248957869,0.4638201729484732,0.16706391755009922,0.337881,53.1464
103,Glastonbury,0.9298707245582762,0.36968020107159055,0.16725690142063662,-2.718454,51.14743
104,Bicester,0.8753574092028462,0.4555116694758572,0.1674420198641362,-1.1535898999999998,51.8996
105,Derby,0.9275812803164246,0.37079070905460987,0.16852913424401902,-1.4746186000000001,52.92253
106,Folkestone,0.7336007697987765,0.6766709715495977,0.16895639547704264,1.169456,51.0814
107,Bude,0.9298245761574234,0.3655060030760455,0.1694100620722648,-4.543678,50.82664000000001
108,Corby,0.8507856108234925,0.490065460852502,0.16962186678607125,-0.6842333,52.4923
109,Stratford-upon-Avon,0.8645812495157834,0.4665589051542629,0.17048004105752926,-1.7082979999999999,52.19173
110,Liskeard,0.9336862196775308,0.35451023982772634,0.17188935703785765,-4.4647190000000005,50.45552
111,Tavistock,0.9307492261207516,0.3588457254917127,0.17204582285429065,-4.141654,50.551120000000004
112,Evesham,0.9020515434537651,0.4038050370620889,0.17225734665998846,-1.9467700000000001,52.09215
113,Tunbridge Wells,0.8147512785156908,0.5383380677072446,0.17403521407866498,0.26369499999999996,51.13238
114,Hove,0.8153156415712224,0.5353845807770032,0.17508019224227328,-0.168749,50.82793
115,Rugby,0.8405500917414092,0.4905599618627524,0.17757662260248416,-1.265032,52.37088
116,Welwyn Garden City,0.8191376542322832,0.5224714833595285,0.1785631718795256,-0.208661,51.80317
117,Crawley,0.7821350815202566,0.5773497372108051,0.1804036818063964,-0.18722750000000002,51.109140000000004
118,Plymouth,0.9314105113302384,0.3411922887540165,0.18046576249837426,-4.1426565,50.37546
119,Brighton,0.8086751424845017,0.5338326509958142,0.181190505418296,-0.137163,50.82253
120,Hastings,0.8133625865838785,0.5251059963608049,0.18185710035975927,0.573453,50.85426
121,St Austell,0.9259074634508694,0.34533712142346257,0.18277595078265216,-4.7834252,50.340379999999996
122,Nottingham,0.9120906252274352,0.36667014433390216,0.1830366335073372,-1.1581086,52.95478000000001
123,Wadebridge,0.9265087942838496,0.3436552085195792,0.18314674948586804,-4.836456,50.51665
124,Bideford,0.8571521979516207,0.4521786495573565,0.1837265438218056,-4.206666,51.01668
125,Saltash,0.9277924696952702,0.3392684166443333,0.18434173257941355,-4.21643,50.409209999999995
126,New Romney,0.7336914547353043,0.6456410747110964,0.1846158988933065,0.939473,50.98512
127,Tiverton,0.8923524951515269,0.3946100331789401,0.18469455316368544,-3.491207,50.90205
128,Camelford,0.9196815290797824,0.3493341301494524,0.18574065495972766,-4.682364,50.62206
129,Ross-on-Wye,0.896017701363221,0.3844784416120634,0.1868929400207818,-2.582446,51.91445
130,Helston,0.9205514457081584,0.3447094237265297,0.1873879001079531,-5.274996,50.10159
131,Falmouth,0.9205514457081584,0.3447094237265297,0.1873879001079531,-5.066269999999999,50.152570000000004
132,Bodmin,0.9253171353497556,0.33623785958465124,0.18786263481131266,-4.7188629,50.4715
133,Nuneaton,0.8147541518405731,0.5110193940248875,0.1878834220113417,-1.465382,52.52049
134,Bexhill,0.8173034918220794,0.5066689486664734,0.18804522508183552,0.4662071,50.849909999999994
135,Ashford,0.7175874849461429,0.6631199262741934,0.1886640656448539,0.8750190000000001,51.14647
136,Truro,0.918961585994041,0.3397306157958749,0.1911866204591556,-5.0510410000000014,50.2632
137,Uckfield,0.7977952627772992,0.5241674694574291,0.19481258232363266,0.095913,50.966409999999996
138,Taunton,0.8719900476435811,0.4063421458307581,0.195070455967233,-3.106849,51.01534
139,Luton,0.7655241450921141,0.5731017934623587,0.19587385315753364,-0.4200255,51.87867
140,Boston,0.8630655355998471,0.41870915899534455,0.19595475469278087,-0.026576999999999996,52.97894
141,Eastbourne,0.7815712090323879,0.546597370407076,0.1964471866069757,0.29047199999999995,50.768029999999996
142,Penzance,0.9115121758718708,0.3403707244985552,0.196834277980484,-5.537592,50.1188
143,Redruth,0.9115121758718708,0.3403707244985552,0.196834277980484,-5.226666000000002,50.23302
144,Spalding,0.8322156274744102,0.4656596613003287,0.1968823132670376,-0.1537024,52.7901
145,Scilly Isles,0.8906111201106917,0.3700184563844845,0.1985584919504378,-6.327496599999999,49.92773
146,Grantham,0.8915569696051635,0.36515245563107,0.2002672559744243,-0.643582,52.912519999999994
147,Cinderford,0.8533813795302303,0.4197228168085132,0.2032044311568668,-2.5009579,51.8253
148,Lewes,0.7873186296889377,0.5229821630022711,0.20381231630365407,0.00878,50.873870000000004
149,Fortuneswell,0.7791725434044633,0.5339721085916461,0.2047710556779535,-2.4422189999999997,50.55919
150,Worcester,0.9059432517634944,0.3318620381519857,0.2056123754629015,-2.221575,52.19364
151,Kettering,0.8571080468619666,0.4046457164826521,0.20786076396331016,-0.7302489999999999,52.39632
152,Yeovil,0.8334467771053614,0.4343337287309852,0.2117774657200813,-2.633308,50.94206
153,Northampton,0.8573497915980968,0.39508708121235797,0.21251316405623447,-0.9026559999999999,52.24048
154,Axminster,0.8555133865928629,0.3929960483690138,0.21504555065433315,-2.9949369999999997,50.78273
155,Lyme Regis,0.8659257553173945,0.3762481163944012,0.2151893756058839,-2.936639,50.725159999999995
156,Leamington Spa,0.8244591920764073,0.4405499250159168,0.21583096972569069,-1.5200789,52.28519
157,Barnstaple,0.7984553916487234,0.4802678583152935,0.2165405436077535,-4.058338,51.07816
158,Sevenoaks,0.7323532211916681,0.5824893341534202,0.21770631225801515,0.190898,51.27241
159,Hereford,0.8730711886913501,0.3552861493120452,0.22008897483428544,-2.715974,52.0564
160,Wincanton,0.8436010371581528,0.3997407651174499,0.22117580830605954,-2.416007,51.05569000000001
161,Newark-on-Trent,0.9014404713486236,0.3047785087035225,0.22295339481662746,-0.80657,53.07004000000001
162,Dorchester,0.7820971676480301,0.4893688931549258,0.2250402611546503,-2.4411810000000003,50.71116
163,Sidmouth,0.8507768857272038,0.3776632480809898,0.22661643655142594,-3.2375599999999998,50.67865
164,Weymouth,0.7693930420055219,0.4965069390542604,0.2316056454664382,-2.457621,50.61443
165,Milton Keynes,0.8100945299357879,0.4289828122530092,0.2332110353064977,-0.7594171,52.040620000000004
166,Bridport,0.8042457019352229,0.4330116241812269,0.2358574705966461,-2.758301,50.733579999999996
167,High Wycombe,0.7237544811165965,0.5505245118194607,0.2408056669278176,-0.748229,51.628609999999995
168,Aylesbury,0.8079670781443101,0.4087595216377298,0.2451698553014244,-0.8084,51.81561
169,Towcester,0.8104326011365682,0.4019949694426079,0.2466229929466786,-0.9896879999999999,52.13511
170,London,0.8617699464023293,0.3139335646619217,0.2501143998271855,-0.12775830000000002,51.50735
171,Weston-super-Mare,0.7922740638944058,0.3807207879969174,0.2719659606790447,-2.977255,51.347409999999996
172,Coventry,0.7975882081830401,0.3666595063289758,0.2748348751911231,-1.519693,52.40682
173,Pembroke,0.6247476248378193,0.6241231610587853,0.2828618243914197,-4.9086370000000015,51.67404000000001
174,Mansfield,0.8828117250016443,0.21432637853445635,0.2837464040250762,-1.198674,53.1472
175,Milford Haven,0.6192881673993471,0.6241231610587853,0.28723865362990875,-5.0426971,51.71431
176,Tenby,0.620245229868969,0.6078830276005808,0.2947049102456458,-4.703579,51.67274000000001
177,Ashbourne,0.8359383352242966,0.2395787305724128,0.3085202519296279,-1.7321790000000001,53.016630000000006
178,Bromsgrove,0.7837924643691071,0.31222223102566377,0.3134937299905645,-2.061906,52.33559
179,Haverfordwest,0.5610593976873309,0.6415645579795369,0.3250758522119969,-4.971319,51.80048
180,Ludlow,0.7526107573008646,0.32397174124803857,0.3325342434006961,-2.7139129,52.36775
181,Aberystwyth,0.5790861474309305,0.5757875018623435,0.34397310248679536,-4.08292,52.4153
182,Kidderminster,0.7605486676935649,0.2875491515997149,0.34463688834717304,-2.2496839,52.3886
183,Walsall,0.7245076076006732,0.3409048964021769,0.3464785219064787,-1.9829189999999999,52.586209999999994
184,Horncastle,0.7418458105889522,0.297578851025656,0.35454536005818177,-0.11245,53.20731
185,Lincoln,0.7785815495329498,0.23923194269306744,0.354677105961067,-0.540579,53.23069
186,Minehead,0.6757526805931118,0.3918535155586639,0.3597328900977926,-3.481152,51.20428
187,Bridgwater,0.6934258011329101,0.3629916662866721,0.3601977930173546,-3.003632,51.12789
188,Birmingham,0.7082109848822115,0.33836961604060434,0.3608284317209302,-1.8904009999999998,52.48624
189,Carmarthen,0.49714778704752105,0.6714105335197719,0.36117984776465994,-4.312131,51.857620000000004
190,Wolverhampton,0.7124777672107169,0.33010216861825115,0.3615992435706455,-2.12882,52.586969999999994
191,Llanelli,0.4931331564977072,0.6729136503721058,0.36363610826535575,-4.160248,51.68089000000001
192,Dudley,0.7085767030748467,0.3317284536213736,0.36390212824410256,-2.081112,52.51225
193,Lampeter,0.5100149213162758,0.6412854211627702,0.3661378758796287,-4.0785089999999995,52.1129
194,Cardigan,0.5075192634533013,0.6415719824204753,0.3679932739362504,-4.660864,52.0837
195,Shrewsbury,0.6717499988699425,0.3763549396938704,0.3707992650320249,-2.7553267999999997,52.7073
196,Swansea,0.4878553842972164,0.6664716181075909,0.3711332647730277,-3.9436459999999998,51.62144
197,Selby,0.8276053426602862,0.12052178084413345,0.3755620620115885,-1.067189,53.783519999999996
198,Fishguard,0.494632751761865,0.6415719824204753,0.37832395053432943,-4.975989,51.99393
199,Stafford,0.697137085664362,0.3180485333487879,0.3800085564609849,-2.12066,52.80669
200,Sedbergh,0.7344808832264301,0.25819933925800026,0.3804147495858714,-2.5281740000000004,54.32363
201,Telford,0.6498542470912929,0.3787425069245378,0.3871419369681534,-2.4672611,52.67759
202,Llandrindod Wells,0.5234838769856733,0.5746844183202624,0.38910688918708863,-3.377742,52.2417
203,Gainsborough,0.8060169665629432,0.12634276416479445,0.3899175899882104,-0.774465,53.400569999999995
204,Merthyr Tydfil,0.5336699538554537,0.5555991172007286,0.39061733208647603,-3.381646,51.74873
205,Tregaron,0.5082632093139737,0.589750548203543,0.3936702414096193,-3.934385,52.22
206,Keswick,0.7354050776626427,0.229047604351764,0.3944536941242172,-3.134706,54.60128
207,Cardiff,0.59691509328477,0.4451908100713316,0.3958925054559378,-3.17909,51.48158
208,Newport,0.5918574808432452,0.4507969832612655,0.3971046239441017,-2.997664,51.58415
209,Aberaeron,0.515518004236192,0.5701637094767504,0.3977847024747725,-4.2581619,52.24279
210,Castleford,0.7944555832504362,0.124434184187193,0.40015360055372623,-1.345968,53.72346999999999
211,Whitehaven,0.7546038636338233,0.1863304739447279,0.40072019220856425,-3.589233,54.5497
212,Builth Wells,0.4912007053522019,0.5947983369473924,0.4047894270682493,-3.4045919999999996,52.15002
213,Cockermouth,0.7293118418443495,0.21270762878482347,0.4076226662505481,-3.367985,54.66326
214,York,0.7914627701017372,0.11415183214425002,0.4077659293858815,-1.0872979,53.95997
215,Penrith,0.7027384923601271,0.2531270055340342,0.40843308614356144,-2.752708,54.6641
216,Llanidloes,0.5931184499799866,0.4235121074070601,0.4099269554645475,-3.5401949999999998,52.44779000000001
217,Newtown,0.6158685603839912,0.38649633817153856,0.4104559054328471,-3.313106,52.51211
218,Ambleside,0.7208758651116933,0.2149171756518008,0.4132652674259237,-2.961333,54.42874000000001
219,Wakefield,0.7781517071386741,0.11683249857314988,0.4170777522744431,-1.505924,53.6833
220,Workington,0.7379883018534313,0.17946574720321584,0.4175207443615424,-3.5427519999999997,54.64357
221,Wetherby,0.7705890459674866,0.1251325248855902,0.4189325885148471,-1.384816,53.92706
222,Market Drayton,0.6757735647593291,0.27317731775670845,0.4198845860945429,-2.483485,52.90355
223,Bridgend,0.5553519582953013,0.4627588103319629,0.4203051055329625,-3.576945,51.50429000000001
224,Llandeilo,0.4514227110472019,0.6261623890343888,0.42077675024712896,-3.9914300000000003,51.88469
225,Stoke-on-Trent,0.6921358885040619,0.2454665892677933,0.4208166391985357,-2.179404,53.002669999999995
226,Hawes,0.6941574127209171,0.23632350106493635,0.423831625927032,-2.1968695,54.30383000000001
227,Oxenholme,0.7220414188380155,0.19194927976551174,0.4239757317866907,-2.7243327999999996,54.30134
228,Grimsby,0.7041687423810902,0.2200691836001635,0.4240468015381405,-0.08078400000000001,53.56746999999999
229,Newcastle-under-Lyme,0.6919847936639122,0.2389140768896157,0.4242600107924896,-2.2273002,53.01321
230,Retford,0.7699340330159746,0.1155885722783454,0.4242962479384856,-0.9455030000000001,53.32136
231,Kendal,0.7166358187208121,0.1987384323470259,0.4248670532149511,-2.74629,54.32801
232,Louth_Lincs,0.6766649612432274,0.257311453690576,0.427214040461442,-0.007711,53.36596
233,Bradford,0.7451180721027241,0.13225189887002778,0.43574212972729737,-1.759398,53.79598000000001
234,Harrogate,0.7500584388728342,0.1133641765294916,0.4413577637242572,-1.5418120000000002,53.99211999999999
235,Lancaster,0.7305404335153445,0.13466606111301124,0.4462045522282613,-2.8007399,54.046569999999996
236,Halifax,0.7301569147246583,0.13136877824231016,0.4481838307607301,-1.8575400000000002,53.727019999999996
237,Welshpool,0.6298941701885046,0.2891058463206105,0.4485889002531826,-3.146407,52.66035
238,Worksop,0.7558952830062071,0.08942711406938758,0.44881446946430537,-1.122745,53.3093
239,Hull,0.7130244698303866,0.15627727893353116,0.4492897659838819,-0.3274198,53.767619999999994
240,Brecon,0.4455000175728345,0.5758018520877389,0.4510572398025442,-3.391463,51.94895
241,Leeds,0.732833627095762,0.11924649459730635,0.4521839622257248,-1.5490774,53.80076
242,Scunthorpe,0.6913114895466865,0.18110937437061936,0.4541064973202772,-0.654413,53.58865
243,Rotherham,0.7646541233420959,0.06461092023341335,0.4543744836557834,-1.3635008999999998,53.4326
244,Barnsley,0.7482602631047529,0.0876505118404042,0.4558360485442925,-1.479726,53.55263000000001
245,Morecambe,0.7057844269786004,0.1472380220912578,0.4596766242036607,-2.864968,54.074169999999995
246,Keighley,0.7238574652852422,0.11378321419229535,0.4621497391908668,-1.9123580000000002,53.8678
247,Market Weighton,0.6981596389169711,0.14657081971978053,0.4661273980071817,-0.6677465,53.86484
248,Barrow-in-Furness,0.6791950289236942,0.17535598670626146,0.4667369686026199,-3.2188939999999997,54.10896999999999
249,Otley,0.7171971332487245,0.11524211683665404,0.4667493285593938,-1.691786,53.90583
250,Chesterfield,0.7516039022134658,0.06028629419945605,0.4670291130354566,-1.421629,53.23505
251,Huddersfield,0.7189130688521878,0.10396738299039526,0.4710899206518865,-1.7850351000000002,53.64579000000001
252,Sheffield,0.7506218908741346,0.04927756588263276,0.473397580763188,-1.470085,53.38113000000001
253,Doncaster,0.7408179311731468,0.059323776378720036,0.476163963815665,-1.128462,53.522819999999996
254,Beverley,0.6787158494387574,0.1535326736625216,0.47818537856440796,-0.435093,53.84196
255,Isle of Man,0.6721409112161183,0.1618963617856933,0.4792157495063739,-4.5126330999999995,54.27697
256,Thirsk,0.7012067999546016,0.1137571178364603,0.4803211229133091,-1.341377,54.23385
257,Oswestry,0.6092458268547742,0.2569977433577987,0.4814205972499658,-3.056412,52.85715
258,Whitchurch,0.6305299458795243,0.2148685289417728,0.4857170867694247,-2.682045,52.96872
259,Carlisle,0.632922199087285,0.21019340280800114,0.4861696297322131,-2.932931,54.892469999999996
260,Banchory,0.7166215572180428,0.07660371941220366,0.4868002684357884,-2.4909599,57.05386
261,Whitby,0.6865086919654514,0.12166841371888194,0.4880932884591994,-0.613347,54.48634000000001
262,Reeth,0.6484722829445708,0.1803078671869464,0.48885567306566,-1.9428115000000001,54.38946
263,Aberdeen,0.7157061229186661,0.06492263594026691,0.4934563860666207,-2.094278,57.149719999999995
264,Bridlington,0.6644019960917876,0.14164941269070772,0.4956851109994346,-0.198802,54.08535
265,Kirkcaldy,0.7146199710726265,0.06072012533786055,0.496457889205909,-3.158137,56.11682
266,Driffield,0.6636174732772903,0.13655702189495336,0.498895890679553,-0.443377,54.006
267,Helmsley,0.6852686069949272,0.10118222032560384,0.4994737186587313,-1.0562636,54.24651
268,Edinburgh,0.7106566398841252,0.055088243636021314,0.5024903908358785,-3.1882669999999997,55.95325
269,Crewe,0.6288836708841821,0.1819544862932354,0.5037244201565052,-2.4438209,53.1004
270,Skipton,0.6630275306221972,0.124539899361149,0.5054612749913413,-2.0162787,53.96285
271,Blackpool,0.6768108700823702,0.10076949897822518,0.5064632742143491,-3.0356748,53.81751
272,Dunfermline,0.7111525687506928,0.04557747938789584,0.5069149744528125,-3.452151,56.07174000000001
273,Northallerton,0.6742153466594638,0.10315811892813016,0.5073329657182553,-1.429959,54.337959999999995
274,Rochdale,0.6638564498101802,0.1188903430573748,0.5076610663889797,-2.1561,53.60971
275,Peterhead,0.6740055589025119,0.09974536937895714,0.5092313427154769,-1.784066,57.50812
276,Blairgowrie,0.6941632644923237,0.0624505187329449,0.5119800285571182,-3.3378318,56.58941
277,Alston,0.6394643743981568,0.1481104493077734,0.5124008289036465,-2.438685,54.812169999999995
278,Dalkeith,0.698045126408249,0.0549039623631818,0.5126940969689171,-3.066606,55.893119999999996
279,Stanhope,0.6324554940372027,0.15808125186268973,0.5129646114773997,-2.011302,54.74946
280,Aysgarth,0.6196309340334716,0.17348164780701686,0.5154377264646057,-1.9967433999999997,54.29159
281,St Andrews,0.6872534087181653,0.061973913949732215,0.5177611174299829,-2.7967214,56.33978000000001
282,Dundee,0.6828539278368662,0.0677356125554388,0.518366755311902,-2.9707209999999997,56.462019999999995
283,Nantwich,0.5930025358493708,0.2048299091054508,0.5208912764829631,-2.524102,53.06718000000001
284,Arbroath,0.6807657915395089,0.06537419708688208,0.5212379170888481,-2.591543,56.55911
285,Berwick,0.6735597029780998,0.07599574634940516,0.5216297839002011,-2.005395,55.77024
286,Cupar,0.6797450954359092,0.06447329104467814,0.5225129589933153,-3.010137,56.32023
287,Pitlochry,0.7022744854321903,0.02864559857809765,0.5226166140853509,-3.729711,56.70436
288,Turriff,0.6474535841521696,0.11498137490340607,0.5227924625612697,-2.4623,57.53893000000001
289,Malton,0.638448864295564,0.12533464697919167,0.5247621902180493,-0.7978970000000001,54.13684
290,Langholm,0.642252690912553,0.11888579974277085,0.5249824221751109,-2.998913,55.153059999999996
291,Manchester,0.6484587923338432,0.10714598561863628,0.5259591396683542,-2.2426305,53.48076
292,Bishop Auckland,0.6200690810374679,0.14895195982247164,0.5275229551083562,-1.6787880000000002,54.663819999999994
293,Stockton,0.6105030466529497,0.16379491322740058,0.5276662182436896,-1.3289821000000002,54.57046
294,Altnaharra,0.6418368647372151,0.11287782024176304,0.5283617467203275,-4.442655,58.28023
295,Darlington,0.5972876443841374,0.1818445602423293,0.5291095241051463,-1.559458,54.52361
296,Braemar,0.6564239993129249,0.08679531597561835,0.5298915722792013,-3.3979439,57.00646999999999
297,Lairg,0.6376933550542679,0.11445324228383115,0.5308848633508462,-4.402414,58.022059999999996
298,Dunbar,0.6738586338874962,0.056729266708468826,0.5311581869404135,-2.516737,56.00209
299,Fraserburgh,0.6474945465520154,0.09688008923956384,0.5319371451252753,-2.007631,57.69335
300,Banff,0.6368368589555248,0.11370414943693095,0.5319511905307003,-2.524038,57.666509999999995
301,Golspie,0.6351309099080548,0.10928871251716972,0.5355574888275824,-3.976086,57.97341
302,Preston,0.6581247273188408,0.07247257209284516,0.5357897998333092,-2.70309,53.7632
303,Inchnadamph,0.6290118842469158,0.11651457736342255,0.5367993835752468,-4.974295,58.15221
304,Middlesbrough,0.596380374532292,0.16528284876020424,0.5382334194691233,-1.234956,54.57423000000001
305,Ullapool,0.6220056669675601,0.12394189942796895,0.5386502871021321,-5.161313,57.895419999999994
306,Stornoway,0.5991713541282864,0.1560578700819243,0.5406731063914181,-6.3848692000000025,58.20943000000001
307,Forfar,0.6597181611687873,0.06021598363564565,0.5407264789320324,-2.889062,56.64356
308,Down,0.5556729647495248,0.2242029350144779,0.5409950270837554,-5.7156921999999994,54.32875
309,Hawick,0.6557563016832744,0.06585656412276325,0.5410427814621999,-2.780914,55.42706
310,Machynlleth,0.4752188518705363,0.3507177356651913,0.5413498140247869,-3.853485,52.59027
311,Montrose,0.6587540205086017,0.056843791480254535,0.543208863886819,-2.4661150000000003,56.70692
312,Newcastle,0.5926548635386181,0.15747438692540436,0.5451791533598156,-1.61778,54.97825
313,Aberfeldy,0.6821129253821707,0.014914372094252488,0.5457409695768092,-3.866969,56.62175
314,John o' Groats,0.6274350596164104,0.10102226240777833,0.5459179416851623,-3.0688997000000002,58.63734
315,Ashington,0.5978247458938348,0.1437614999188021,0.5479868299042415,-1.5659829,55.18298000000001
316,Grantown-on-Spey,0.6280769323626683,0.09590449553777246,0.547998066228581,-3.609628,57.33041
317,Achnasheen,0.6160704640177906,0.11476362824006894,0.5480618323692099,-5.078765799999998,57.57859000000001
318,Elgin,0.6231142447638999,0.10202051727631392,0.5488756231595254,-3.318485,57.64945
319,Wrexham,0.5567638120289083,0.2068200471208212,0.5489334902298756,-2.9924939999999998,53.04304000000001
320,Kirkwall,0.6240464634854546,0.09865785500033604,0.5498332389013907,-2.9622491,58.984669999999994
321,Orkney Islands,0.6240464634854546,0.09865785500033604,0.5498332389013907,-2.9605206,58.980940000000004
322,Shetland Islands,0.6274350596164104,0.09267165016566198,0.5501517886964262,-1.2659409,60.52965
323,Wick,0.6230545006306774,0.09920260950260842,0.5503523570858928,-3.093716,58.43894
324,Hartlepool,0.5990666179322736,0.1361488992684543,0.5508509689784749,-1.212926,54.69174
325,Clitheroe,0.6114238421560702,0.11650554614049025,0.5509037797028725,-2.3930830000000003,53.8711
326,Thurso,0.6186821060924755,0.1047335409701982,0.5510532228165927,-3.5220800000000003,58.59356999999999
327,Durham,0.5877607853315503,0.15294204276400408,0.5514004252386945,-1.5848520000000001,54.77525
328,Scarborough,0.5940160836813123,0.14276651402053034,0.5515445310983537,-0.399752,54.28311
329,Colne,0.6129564105752793,0.11280518261437505,0.5515509919848488,-2.176991,53.85564
330,Perth,0.6546285216669896,0.04687958227214155,0.5515681273794674,-3.4308381000000003,56.39499
331,Hexham,0.5845298366230977,0.15678419094952892,0.5520425811747183,-2.1121439,54.97266
332,Tywyn,0.42691181313913307,0.4059333029226754,0.5520816274017994,-4.087249,52.58701
333,Llangollen,0.5716875110618629,0.17627800253949125,0.552454392461775,-3.1716599999999997,52.96921
334,Blyth,0.595282168737966,0.13703246314637724,0.553436728117188,-1.510277,55.12696
335,Buxton,0.6247749564647479,0.08820928413041815,0.5545465960538593,-1.91483,53.259080000000004
336,Macclesfield,0.6171039499211711,0.09880678706930554,0.5553233069738527,-2.119287,53.25866
337,Brora,0.6149404764470231,0.09938478533697293,0.5567646464785501,-3.852548000000001,58.012159999999994
338,Galashiels,0.6441168129907364,0.052448356226005965,0.5571716823277616,-2.814449,55.62373
339,Peebles,0.6409322229264205,0.046151488403715836,0.5629170958708476,-3.1936419999999996,55.65306999999999
340,Invergordon,0.6140469775302841,0.08735713561079353,0.5635789153744658,-4.1728819999999995,57.688109999999995
341,Alness,0.6140469775302841,0.08735713561079353,0.5635789153744658,-4.256825,57.69595
342,Selkirk,0.6377121367876446,0.04982464744848281,0.5636362206285995,-2.838524,55.55066
343,Tain,0.6095539734281222,0.09416678851430124,0.5637283584881864,-4.05523,57.8115
344,Sunderland,0.5808723743723668,0.13883228060486144,0.5640761227265054,-1.383801,54.90687
345,Blackburn,0.5997434961853284,0.10697023691224816,0.5651017182306274,-2.487529,53.748580000000004
346,Livingston,0.6385579805599949,0.04333934288267882,0.5662461378646436,-3.518068,55.90071
347,Lockerbie,0.5968980986193079,0.1046206229804066,0.5685740233597565,-3.349008,55.12224000000001
348,Kyle of Lochalsh,0.5898343798017596,0.11539232324996372,0.5687757153816569,-5.7143293,57.28261
349,Kelso,0.6296028430778818,0.05122620459753519,0.5694265794690444,-2.432207,55.600030000000004
350,South Shields,0.5707220038203307,0.14320444522333356,0.5699965420211844,-1.427406,54.99941999999999
351,Western Isles,0.5696020028055565,0.14293262203495394,0.5710322502172126,-7.0194034,57.75989000000001
352,Aviemore,0.5977181175082654,0.0973377450765014,0.5716089545639561,-3.823812,57.19449
353,Portree,0.5866403287896607,0.11030774473907716,0.5739140865022813,-6.1960231,57.41246999999999
354,Invergarry,0.6028993880413691,0.08172536472150561,0.5753708759529459,-4.800261,57.07095
355,Jedburgh,0.6175095792972317,0.05714908005913179,0.576118372429656,-2.5549369,55.47772
356,Inverness,0.5944996432346672,0.09018944901617013,0.5778133719563256,-4.224721,57.47776999999999
357,Dalwhinnie,0.6272043876932413,0.023082032814145115,0.58561840375091,-4.242783,56.9366
358,Alnwick,0.5516712992022285,0.1377703639255945,0.5880241007920765,-1.7062990000000002,55.41274
359,Wigan,0.5524137032788177,0.13633495354211486,0.5881566894192873,-2.6325074,53.54506
360,Dalbeattie,0.5549402318640027,0.12049662639498455,0.594161100238407,-3.8225269999999996,54.934219999999996
361,Coleraine,0.3856228704326355,0.3766296994148599,0.6000385405924858,-6.6646103000000005,55.132580000000004
362,Dumfries,0.5456963602717704,0.12118233446253167,0.6012239728103422,-3.60512,55.070859999999996
363,Broadford,0.5482141637606666,0.11197929666941238,0.6038715317329251,-5.9096592,57.24139
364,Castle Douglas,0.5476481888399571,0.11211670423304496,0.6042555331172403,-3.9314139999999997,54.940419999999996
365,Burnley,0.5446225426983962,0.10718709707517474,0.6091804140754065,-2.2405035,53.78929
366,Dolgellau,0.4215358222844356,0.3018092863909942,0.6091820995240571,-3.8844,52.74215
367,Warrington,0.528464995912345,0.13087172854337956,0.6101253889523898,-2.5969501,53.39004
368,Dunvegan,0.5357413057306328,0.11681709562851685,0.6114178471595836,-6.5813982000000015,57.4366
369,Magherafelt,0.16491490210354362,0.7015176942434598,0.6122552342310125,-6.607980499999999,54.75536999999999
370,Corwen,0.5144438362573445,0.14882978898464508,0.6122608523931823,-3.369242,52.98005
371,Banbridge,0.20872003643375955,0.6314045983995233,0.6126853045451215,-6.2704803,54.34873
372,Pwllheli,0.4081147670432581,0.3012313435296025,0.6202341481447565,-4.417633900000001,52.888819999999996
373,Porthmadog,0.4119658633586148,0.2853467521422975,0.625200322594872,-4.1333839999999995,52.92784
374,Caernarfon,0.4182594610266243,0.24810642127153296,0.6390356087545574,-4.273911,53.13955
375,Balivanich,0.485739250602531,0.13463747147477154,0.6424677440241715,-7.3743509000000005,57.472269999999995
376,Fort William,0.5118720002444429,0.0853544203708486,0.6465043935432713,-5.1052179,56.81981999999999
377,Stranraer,0.4529050313215189,0.14046925901918594,0.6658331186727204,-5.0240550000000015,54.903369999999995
378,Newton Stewart,0.4593208854592136,0.12830603013647066,0.6668564669119743,-4.483164,54.9603
379,Dungannon,0.08709713488511799,0.7156055155174417,0.6674966564912388,-6.7669352,54.508269999999996
380,Limerick,0.4988925960619962,0.06317307197380477,0.6681556669137719,-8.6267343,52.66384
381,Ayr,0.4484350488589625,0.1382671365931468,0.6705332731440894,-4.629179,55.45856
382,Southport,0.4698793732661718,0.10300192863704938,0.6712212171017982,-3.010113,53.64571
383,Chester,0.4392647273756064,0.13872240996023105,0.6776540127863755,-2.893075,53.19339
384,Ennistymon,0.4851225369692668,0.056826670941076136,0.6824120343280946,-9.2934951,52.940369999999994
385,Girvan,0.4615079061811771,0.09263890505674796,0.6831864979832203,-4.8542179,55.240159999999996
386,Clare,0.4665077367601307,0.061477916970039084,0.6949767731130491,-8.9811351,52.90453
387,Stirling,0.4701472232100737,0.045724028987012034,0.7000463217470912,-3.9369029,56.116519999999994
388,Mold,0.4092982264892732,0.14134678361306208,0.7003463316069657,-3.1419029999999997,53.1672
389,Liverpool,0.4130906999689226,0.13303755985886248,0.7015188420518315,-2.9915726,53.40837
390,Galway,0.4716392847565525,0.040381423450384826,0.701558731003238,-9.0567905,53.270669999999996
391,Birkenhead,0.41762922174208505,0.12563982474551758,0.7016312052952303,-3.023009,53.389990000000004
392,Roscommon,0.4237399427935032,0.11404650481422356,0.7026101700533417,-8.1890955,53.62759000000001
393,Armagh,0.07315527198875818,0.6612280235855651,0.7062425928043139,-6.652792,54.35028000000001
394,Ruthin,0.3925801010268037,0.15265548150629935,0.7080154038770374,-3.3103108,53.114869999999996
395,Craigavon,0.12536554736996688,0.5730119798895167,0.7091126309488264,-6.4175653,54.442930000000004
396,Claremorris,0.4289046741882603,0.09164896112956107,0.7098252948200828,-9.0017356,53.72388
397,Falkirk,0.4854536351011254,0.01,0.7109576354054332,-3.7839131,56.00188000000001
398,Belfast,0.3708262634648997,0.1794881313385818,0.7118506422823448,-5.93012,54.59728000000001
399,Ballachulish,0.4412636504394243,0.06676134860426328,0.7125354962508602,-5.133719999999999,56.67393000000001
400,Lochgilphead,0.4227096455799311,0.0939207292441027,0.713639746025361,-5.4323449,56.03829
401,Kilmarnock,0.4209843541503268,0.09537935485708313,0.7142833065019272,-4.498792,55.61472
402,Dunoon,0.4181422153552095,0.09888701535645876,0.7147836038431599,-4.926214,55.95097
403,Dingle,0.4158778251047091,0.10168453362072198,0.715180527000466,-10.264013499999999,52.14094
404,Greenock,0.4178022519648725,0.09446022015018757,0.7173005404952915,-4.7719830000000005,55.956480000000006
405,Oban,0.417086268460981,0.09340184947256272,0.7184109702481793,-5.471047,56.41516
406,Loughrea,0.4479563599416884,0.043891521825889436,0.7187651953729942,-8.5660931,53.19891
407,Irvine,0.4188120854987954,0.08849207776137813,0.7195166245632232,-4.6696364,55.61156999999999
408,Rhyl,0.3826605425601262,0.1455488509652632,0.7195705589200542,-3.4916339999999995,53.319140000000004
409,Prestatyn,0.3824390512603612,0.14306321462668053,0.7210082466193412,-3.4076129999999996,53.33651
410,Cumnock,0.4018541775708471,0.11206728183515777,0.7211588133654954,-4.265828900000002,55.45355
411,Helensburgh,0.4092830889728204,0.0976278523358482,0.7225240267727899,-4.734014,56.00232
412,Rothesay,0.4125143180056519,0.09175944124322373,0.7229088708814307,-5.055793,55.83596
413,Tyrone,0.07315527198875818,0.6230168085464403,0.7256157014149057,-7.1312320000000025,54.491209999999995
414,Dumbarton,0.4104334701421424,0.08695737933191887,0.7270115338060268,-4.564554,55.94529
415,Derry,0.2758416415347101,0.2989086570477309,0.7274505931796073,-7.308574799999999,54.99661
416,Holyhead,0.3317703847595765,0.20158847576061328,0.7319555165155711,-4.633038,53.30944
417,Mull,0.4109634934612762,0.0695144864417242,0.7354300689095681,-6.0008870000000005,56.4392
418,Motherwell,0.4169273946193208,0.05904436253057525,0.7359576143373252,-3.9810968,55.78321
419,Airdrie,0.4162747644250283,0.05473270156512202,0.7386666921356686,-3.9625660000000003,55.86626999999999
420,Cookstown,0.09137558571588908,0.5681260328768651,0.7388383269899602,-6.7443895000000005,54.641819999999996
421,Campbeltown,0.3849062211583445,0.09999475302569512,0.74086592171709,-5.605373999999999,55.424119999999995
422,Ballymena,0.3227793307164352,0.1927127782440832,0.7436632046615016,-6.2802213,54.86529
423,Islay,0.3772080581905755,0.09498879601996776,0.7495754776210338,-6.177067,55.73625
424,Bangor,0.3220877354334956,0.16673188908749575,0.7573900602913073,-4.129263,53.22739
425,Glasgow,0.3811336507095869,0.07260837287448367,0.7577751853080564,-4.251806,55.86424
426,Llandudno,0.3290537261644998,0.1490865970723213,0.7607516876256887,-3.827609,53.324059999999996
427,Colwyn Bay,0.32636212156077465,0.14701861323965093,0.7639579727760716,-3.72764,53.29318000000001
428,Llangefni,0.3137838615643285,0.1588717331975067,0.7680319830736011,-4.311401999999998,53.25578
429,Antrim,0.3083154337457361,0.15905235765615275,0.7723242589714328,-6.2072498,54.719530000000006
430,Meath,0.285533436443648,0.19448843856638034,0.7726217406583306,-6.656416900000001,53.60555
431,Strabane,0.19801238101675547,0.3300640491005982,0.7740479111251691,-7.4633103,54.82739
432,Mayo,0.3398857755245772,0.10419637712769103,0.7748271502181394,-9.4289369,54.01526
433,Tralee,0.3358280451015295,0.1085497036124393,0.7758729711060725,-9.6999325,52.27131
434,Bantry,0.3223783967737187,0.11012939193773308,0.785854198017182,-9.4539805,51.68035
435,Nenagh,0.3849659302510197,0.01,0.7871671625162965,-8.19834,52.8635
436,Omagh,0.15659802819131172,0.3671900768246797,0.7884256308423621,-7.309959700000001,54.59771
437,Killarney,0.3335858004769509,0.08160895613634751,0.7913293779598938,-9.5044265,52.05994000000001
438,Abbeyfeale,0.3310369861036548,0.07986393548448935,0.7942572831747563,-9.2970823,52.386179999999996
439,Dublin,0.3405966431085563,0.06448559123787426,0.7943904336181832,-6.2603097000000005,53.34981
440,Newry,0.16090048179701386,0.3482599132769892,0.7945741475211404,-6.34023,54.1751
441,Ballycastle,0.3014500794667053,0.119390052257537,0.7979366175798478,-9.3724643,54.279669999999996
442,Mallow,0.3017712611236656,0.1120332623819036,0.8014089227089766,-8.6539164,52.13898
443,Adare,0.3310369861036548,0.0613437229703947,0.8036471985174793,-8.7925892,52.56363
444,Cork,0.3097660072841589,0.09114886408546928,0.8055882735471924,-8.4756035,51.898509999999995
445,Drogheda,0.2474895988267304,0.1888144480950408,0.8059969948450554,-6.3560985,53.717859999999995
446,Charleville,0.3076115742712259,0.07986393548448935,0.8130368329520942,-8.681017599999999,52.36206
447,Kildare,0.32776023939982274,0.036449683317120535,0.8188951715547953,-6.8194707999999995,53.21204
448,Tipperary,0.3351216977481577,0.02012350391281886,0.8212710923364615,-8.161851400000002,52.47379
449,Carlow,0.2837904144970874,0.0951166737041871,0.8244004086651165,-6.934135899999999,52.83651
450,Donegal,0.1382552127106642,0.3181068207507805,0.8280156960214705,-8.1096143,54.653830000000006
451,Wicklow,0.31825556101370484,0.03098462991128843,0.8292854006718762,-6.044589,52.980819999999994
452,Enniskillen,0.05714794402917309,0.4362063500356844,0.8331605280285898,-7.631533599999999,54.343819999999994
453,Athlone,0.31171601374388386,0.03368213984798845,0.8331605280285898,-7.9406898,53.42393000000001
454,Fermanagh,0.05714794402917309,0.4362063500356844,0.8331605280285898,-7.6318728,54.343830000000004
455,Waterford,0.24352146708324274,0.11219305408090212,0.8480247805896991,-7.110070200000001,52.25932
456,Offaly,0.2321172406255761,0.11551942524632385,0.8554809245135302,-7.7122229,53.23569000000001
457,Laois,0.22655616559980465,0.1096572750628487,0.8629109439832715,-7.3323006999999985,52.99429
458,Longford,0.12579384798015947,0.2594426560837725,0.8677479007034778,-7.7932573000000005,53.72763000000001
459,Kilkenny,0.22186847621659647,0.10065674720726052,0.8712322848812728,-7.2447879,52.65415
460,Rosslare,0.1896206955359429,0.1457646030026766,0.8742146862691834,-6.3414908,52.25131
461,Mullingar,0.1489229219036955,0.19544203597673526,0.8816542566146136,-7.3401868000000015,53.525819999999996
462,Louth,0.1116010246837179,0.2359072337159155,0.8910582173627621,-6.4889423,53.925230000000006
463,Westmeath,0.19447591377600548,0.10211703500851066,0.8924515215809058,-7.4653217000000005,53.534530000000004
464,Kilkeel,0.16090048179701386,0.15038033360894262,0.8948985121140216,-6.007004,54.06312
465,Wexford,0.1758354638862133,0.11699323217883464,0.8998526075154716,-6.4633381,52.33692
466,Cavan,0.0483272921677684,0.2253757750576129,0.9471221385646666,-7.3633319,53.98972
467,Leitrim,0.05589391292080588,0.20269333230351536,0.9525560250154288,-8.0020132,54.12469
468,Doon,0.025326922174628987,0.2245851829102445,0.9659615217691144,-7.60964,54.185930000000006
469,Sligo,0.07263667188805863,0.12971479010135858,0.9761337661940012,-8.476088800000001,54.27661
470,Monaghan,0.01,0.19749450605222146,1.0,-6.9683132,54.2492
