,placename,drank,drunk,longitude,latitude
0,Dingle,0.9649123,0.09713307858396736,-10.2640135,52.14094
1,Tralee,0.9649123,0.09713307858396736,-9.6999325,52.27131
2,Killarney,0.9649123,0.09713307858396736,-9.5044265,52.05994000000001
3,Bantry,0.9636364,0.10066519858569037,-9.4539805,51.68035
4,Mayo,0.92,0.2214634147421773,-9.4289369,54.01526
5,Ballycastle,0.92,0.2214634147421773,-9.3724643,54.27967
6,Abbeyfeale,0.9649123,0.09713307858396736,-9.2970823,52.38618
7,Ennistymon,1.0,0.01,-9.2934951,52.94037
8,Galway,0.9473684,0.14569961787595104,-9.0567905,53.27067
9,Claremorris,0.9285714,0.19773518777938298,-9.0017356,53.72388
10,Clare,1.0,0.01,-8.9811351,52.90453
11,Adare,1.0,0.01,-8.7925892,52.56363
12,Charleville,0.9642857,0.09886760773115494,-8.681017599999999,52.36206
13,Mallow,0.962963,0.10252936687928263,-8.6539164,52.13898
14,Limerick,1.0,0.01,-8.6267343,52.66384
15,Loughrea,0.9459459,0.14963743117055486,-8.5660931,53.19891
16,Sligo,0.8461538000000001,0.4258911715492152,-8.476088800000001,54.27661
17,Cork,0.9545455,0.12583149823211293,-8.4756035,51.89851
18,Nenagh,1.0,0.01,-8.19834,52.8635
19,Roscommon,0.92,0.2214634147421773,-8.1890955,53.62759000000001
20,Tipperary,1.0,0.01,-8.161851400000002,52.47379
21,Donegal,1.0,0.01,-8.1096143,54.653830000000006
22,Leitrim,1.0,0.01,-8.0020132,54.12469
23,Athlone,0.9130435,0.2407210981662054,-7.9406898,53.42393000000001
24,Longford,1.0,0.01,-7.7932573,53.72763000000001
25,Offaly,0.9333333,0.18455285484612333,-7.7122229,53.23569000000001
26,Fermanagh,1.0,0.01,-7.6318728,54.34383
27,Enniskillen,1.0,0.01,-7.631533599999999,54.34382
28,Doon,0.8461538000000001,0.4258911715492152,-7.60964,54.185930000000006
29,Westmeath,0.92,0.2214634147421773,-7.4653217,53.53453
30,Strabane,0.8947368,0.2913992357519021,-7.4633103,54.82739
31,Cavan,1.0,0.01,-7.3633319,53.98972
32,Mullingar,0.92,0.2214634147421773,-7.3401868000000015,53.52582
33,Laois,0.9333333,0.18455285484612333,-7.3323006999999985,52.99429
34,Omagh,0.8947368,0.2913992357519021,-7.309959700000001,54.59771
35,Derry,0.8888889000000001,0.307588072954921,-7.308574799999999,54.99661
36,Derry,0.8888889000000001,0.307588072954921,-7.308574799999999,54.99661
37,Kilkenny,1.0,0.01,-7.2447879,52.65415
38,Tyrone,0.9,0.2768292684277216,-7.131232000000002,54.49121
39,Waterford,1.0,0.01,-7.110070200000001,52.25932
40,Monaghan,0.8571429,0.39547037555876596,-6.9683132,54.2492
41,Carlow,0.9444444,0.15379405031892393,-6.9341358999999985,52.83651
42,Kildare,0.9541284,0.12698590396438336,-6.8194708,53.21204
43,Dungannon,0.8461538000000001,0.4258911715492152,-6.7669352,54.50827
44,Cookstown,0.8333333,0.4613821232738449,-6.7443895000000005,54.64182
45,Coleraine,1.0,0.01,-6.6646103000000005,55.13258
46,Meath,0.9619048,0.10545877419778478,-6.656416900000001,53.60555
47,Armagh,0.8461538000000001,0.4258911715492152,-6.652792,54.35028000000001
48,Armagh,0.8461538000000001,0.4258911715492152,-6.652792,54.35028000000001
49,Magherafelt,0.8181818000000001,0.503325937562598,-6.607980499999999,54.75536999999999
50,Louth,1.0,0.01,-6.4889423,53.925230000000006
51,Wexford,1.0,0.01,-6.4633381,52.33692
52,Craigavon,0.8461538000000001,0.4258911715492152,-6.4175653,54.44293
53,Drogheda,0.9607843,0.10856050773588316,-6.3560985,53.71786
54,Rosslare,1.0,0.01,-6.3414908,52.25131
55,Newry,0.9322034,0.18768085948179555,-6.34023,54.1751
56,Ballymena,1.0,0.01,-6.2802213,54.86529
57,Banbridge,0.9322034,0.18768085948179555,-6.2704803,54.34873
58,Dublin,0.9619048,0.10545877419778478,-6.2603097000000005,53.34981
59,Antrim,0.9310345,0.19091674448337406,-6.2072498,54.719530000000006
60,Antrim,0.9310345,0.19091674448337406,-6.2072498,54.719530000000006
61,Wicklow,0.9622642,0.10446387748998237,-6.044589,52.98082
62,Kilkeel,0.9322034,0.18768085948179555,-6.007004,54.06312
63,Belfast,0.9322034,0.18768085948179555,-5.93012,54.59728000000001
64,Down,0.9333333,0.18455285484612333,-5.7156922,54.32875
65,Balivanich,0.9071367,0.2570727386619867,-7.3743509,57.47227
66,Western Isles,0.9061685,0.2597529165901234,-7.0194034,57.75989000000001
67,Dunvegan,0.9061685,0.2597529165901234,-6.5813982000000015,57.4366
68,Stornoway,0.9281975,0.19877044619452214,-6.384869200000002,58.20943000000001
69,Scilly Isles,0.884984,0.3183978683260477,-6.327496599999999,49.92773
70,Portree,0.90518,0.2624895676890193,-6.1960231,57.41246999999999
71,Islay,0.8862068999999999,0.3150126062512256,-6.177067,55.73625
72,Mull,0.9059233,0.260431729639235,-6.0008870000000005,56.4392
73,Broadford,0.90518,0.2624895676890193,-5.9096592,57.24139
74,Kyle of Lochalsh,0.9061685,0.2597529165901234,-5.7143293,57.28261
75,Campbeltown,0.8862068999999999,0.3150126062512256,-5.6053739999999985,55.42412
76,Penzance,0.8711655999999999,0.35665121627153723,-5.537592,50.1188
77,Oban,0.8949212,0.29088890099555553,-5.471047,56.41516
78,Lochgilphead,0.8850174000000001,0.3183054350333197,-5.4323449,56.03829
79,Helston,0.8727273000000001,0.3523281673669893,-5.274996,50.10159
80,Redruth,0.8711655999999999,0.35665121627153723,-5.226666000000002,50.23302
81,Ullapool,0.9139785,0.23813271682347936,-5.161313,57.89542
82,Ballachulish,0.9068966,0.2577375995159696,-5.1337199999999985,56.67393000000001
83,Fort William,0.9061685,0.2597529165901234,-5.1052179,56.81981999999999
84,Achnasheen,0.8924731,0.2976658752671541,-5.078765799999998,57.57859000000001
85,Newquay,0.859375,0.3892911587264835,-5.0737190000000005,50.4155
86,Falmouth,0.859375,0.3892911587264835,-5.0662699999999985,50.15257
87,Rothesay,0.8850174000000001,0.3183054350333197,-5.055793,55.83596
88,Truro,0.859375,0.3892911587264835,-5.0510410000000014,50.2632
89,Milford Haven,0.7540984000000001,0.6807277110637696,-5.0426971,51.71431
90,Stranraer,0.8882303,0.30941121515093234,-5.0240550000000015,54.90337
91,Fishguard,0.7457627,0.703803229977465,-4.975989,51.99393
92,Inchnadamph,0.9139785,0.23813271682347936,-4.974295,58.15221
93,Haverfordwest,0.7457627,0.703803229977465,-4.971319,51.80048
94,Dunoon,0.8850174000000001,0.3183054350333197,-4.926214,55.95097
95,Pembroke,0.7540984000000001,0.6807277110637696,-4.9086370000000015,51.67404000000001
96,Girvan,0.8679085999999999,0.3656677946905697,-4.8542179,55.24016
97,Wadebridge,0.859375,0.3892911587264835,-4.836456,50.51665
98,Invergarry,0.9023596,0.2702970942781937,-4.800261,57.07095
99,St Austell,0.8756476999999999,0.34424364541182617,-4.7834252,50.34038
100,Greenock,0.8752165999999999,0.3454368626075301,-4.7719830000000005,55.956480000000006
101,Helensburgh,0.8752165999999999,0.3454368626075301,-4.734014,56.00232
102,Bodmin,0.859375,0.3892911587264835,-4.7188629,50.4715
103,Tenby,0.75,0.6920731710693039,-4.703579,51.67274000000001
104,Camelford,0.859375,0.3892911587264835,-4.682364,50.62206
105,Irvine,0.8850174000000001,0.3183054350333197,-4.6696364,55.61156999999999
106,Cardigan,0.75,0.6920731710693039,-4.660864,52.0837
107,Holyhead,0.9606557,0.10891642712630067,-4.633038,53.30944
108,Ayr,0.8679085999999999,0.3656677946905697,-4.629179,55.45856
109,Dumbarton,0.8752165999999999,0.3454368626075301,-4.564554,55.94529
110,Bude,0.859375,0.3892911587264835,-4.543678,50.82664000000001
111,Isle of Man,0.8934426,0.2949820155097473,-4.5126331,54.27697
112,Kilmarnock,0.8847162000000001,0.3191394108873851,-4.498792,55.61472
113,Newton Stewart,0.8028168999999999,0.5458605331931027,-4.483164,54.9603
114,Liskeard,0.8756476999999999,0.34424364541182617,-4.4647190000000005,50.45552
115,Altnaharra,0.9354839,0.17859953069687784,-4.442655,58.28023
116,Pwllheli,0.9550562,0.12441764810947205,-4.417633900000001,52.88882
117,Lairg,0.9340659,0.18252480362562185,-4.402414,58.02206
118,Launceston,0.8756476999999999,0.34424364541182617,-4.360451599999998,50.63683
119,Carmarthen,0.7457627,0.703803229977465,-4.312131,51.85762
120,Llangefni,0.9605911,0.10909528651663183,-4.311401999999998,53.25578
121,Caernarfon,0.9449541,0.15238307922067468,-4.273911,53.13955
122,Cumnock,0.8665526,0.3694214334728885,-4.265828900000002,55.45355
123,Aberaeron,0.703125,0.8218368906447985,-4.2581619,52.24279
124,Alness,0.9340659,0.18252480362562185,-4.256825,57.69595
125,Glasgow,0.8739054,0.3490666756580813,-4.251806,55.86424
126,Dalwhinnie,0.8933333000000001,0.295284562217212,-4.242783,56.9366
127,Inverness,0.9354839,0.17859953069687784,-4.224721,57.47776999999999
128,Saltash,0.8757396000000001,0.3439890455336532,-4.21643,50.40921
129,Bideford,0.8584071,0.3919706445814492,-4.206666,51.01668
130,Invergordon,0.9354839,0.17859953069687784,-4.172882,57.68811
131,Llanelli,0.754386,0.6799315500877715,-4.160248,51.68089000000001
132,Plymouth,0.88,0.3321951221132659,-4.1426565,50.37546
133,Tavistock,0.8757396000000001,0.3439890455336532,-4.141654,50.55112
134,Porthmadog,0.9412724,0.1625751023963781,-4.133384,52.92784
135,Bangor,0.9611021,0.10768074432081988,-4.129263,53.22739
136,Tywyn,0.8892989,0.30645307295436736,-4.087249,52.58701
137,Aberystwyth,0.8363636000000001,0.4529933382697529,-4.08292,52.4153
138,Lampeter,0.703125,0.8218368906447985,-4.078509,52.1129
139,Barnstaple,0.8123166999999999,0.5195622509851523,-4.058338,51.07816
140,Tain,0.9354839,0.17859953069687784,-4.05523,57.8115
141,Okehampton,0.8934911,0.2948477533145599,-4.004263,50.73831
142,Llandeilo,0.703125,0.8218368906447985,-3.99143,51.88469
143,Motherwell,0.8938053,0.29397798343608683,-3.9810968,55.78321
144,Golspie,0.9354839,0.17859953069687784,-3.976086,57.97341
145,Airdrie,0.8938053,0.29397798343608683,-3.962566,55.86626999999999
146,Swansea,0.7594168,0.6660047955687829,-3.943646,51.62144
147,Stirling,0.8819319999999999,0.32684672528138864,-3.9369029,56.11652
148,Tregaron,0.7727273,0.6291574357947111,-3.934385,52.22
149,Tregaron,0.7727273,0.6291574357947111,-3.934385,52.22
150,Castle Douglas,0.8072289,0.5336467705042179,-3.931414,54.94042
151,Dolgellau,0.9673321,0.090434253214846,-3.8844,52.74215
152,Aberfeldy,0.8911565,0.3013107755128345,-3.866969,56.62175
153,Machynlleth,0.9291339,0.19617821692496495,-3.853485,52.59027
154,Brora,0.9354839,0.17859953069687784,-3.852548000000001,58.01216
155,Llandudno,0.9656301,0.09514591504641264,-3.827609,53.32406
156,Llandudno,0.9656301,0.09514591504641264,-3.827609,53.32406
157,Aviemore,0.9354839,0.17859953069687784,-3.823812,57.19449
158,Dalbeattie,0.7882353,0.5862266974810861,-3.822527,54.93422
159,Falkirk,0.8832117,0.3233042518650265,-3.7839131,56.00188000000001
160,Kingsbridge,0.8706199,0.3581618459064204,-3.777493,50.28395
161,Pitlochry,0.886911,0.3130634790551529,-3.729711,56.70436
162,Colwyn Bay,0.9507463,0.13634874043236525,-3.72764,53.29318000000001
163,Totnes,0.8706199,0.3581618459064204,-3.685797,50.43374
164,Grantown-on-Spey,0.9354839,0.17859953069687784,-3.609628,57.33041
165,Dumfries,0.8908264000000001,0.30222453356206075,-3.60512,55.07086
166,Whitehaven,0.8954247999999999,0.2894946503851193,-3.589233,54.5497
167,Dartmouth,0.8706199,0.3581618459064204,-3.578807,50.35252
168,Bridgend,0.778,0.614560975909542,-3.576945,51.50429000000001
169,Paignton,0.877907,0.3379892140673118,-3.564235,50.43508
170,Workington,0.8783784,0.3366842408959435,-3.542752,54.64357
171,Llanidloes,0.9342105,0.1821245085034754,-3.540195,52.44779000000001
172,Exeter,0.9115044,0.2449816667048691,-3.533899,50.71841
173,Torquay,0.9068323,0.2579154623209344,-3.525315,50.46192
174,Thurso,0.9354839,0.17859953069687784,-3.5220800000000003,58.59356999999999
175,Livingston,0.843044,0.4345001465534147,-3.518068,55.90071
176,Rhyl,0.9474522,0.14546760726608174,-3.4916339999999995,53.31914
177,Tiverton,0.8447761,0.4297051314291245,-3.491207,50.90205
178,Tiverton,0.8447761,0.4297051314291245,-3.491207,50.90205
179,Minehead,0.7800253,0.608954408101929,-3.481152,51.20428
180,Dunfermline,0.8573127,0.3950001533634147,-3.452151,56.07174000000001
181,Perth,0.886911,0.3130634790551529,-3.4308381000000003,56.39499
182,Prestatyn,0.9647651,0.09754051590123927,-3.407613,53.33651
183,Builth Wells,0.7857143,0.5932055633381489,-3.404592,52.15002
184,Braemar,0.9354839,0.17859953069687784,-3.3979439,57.00646999999999
185,Brecon,0.7916667,0.5767276333301111,-3.391463,51.94895
186,Merthyr Tydfil,0.7791411,0.6114020771275132,-3.381646,51.74873
187,Llandrindod Wells,0.8485437,0.41927539496062216,-3.377742,52.2417
188,Corwen,0.9472,0.146165853729837,-3.369242,52.98005
189,Cockermouth,0.8926174000000001,0.2972663275840323,-3.367985,54.66326
190,Lockerbie,0.8695652,0.36108164724930814,-3.349008,55.12224000000001
191,Blairgowrie,0.886911,0.3130634790551529,-3.3378318,56.58941
192,Elgin,0.9354839,0.17859953069687784,-3.318485,57.64945
193,Newtown,0.9694915,0.08445637430949092,-3.313106,52.51211
194,Ruthin,0.9477848,0.14454692848514486,-3.3103108,53.11487
195,Ruthin,0.9477848,0.14454692848514486,-3.3103108,53.11487
196,Sidmouth,0.9107143,0.2471689778034971,-3.23756,50.67865
197,Barrow-in-Furness,0.9458239,0.14997521824389035,-3.218894,54.10896999999999
198,Peebles,0.8568019,0.3964142249494704,-3.193642,55.65306999999999
199,Edinburgh,0.8547215,0.4021732703181333,-3.188267,55.95325
200,Cardiff,0.7713004,0.6331072911624914,-3.17909,51.48158
201,Llangollen,0.9529781,0.1301704925025222,-3.17166,52.96921
202,Kirkcaldy,0.8839957,0.32113385503469943,-3.158137,56.11682
203,Welshpool,0.9246575,0.2085700085163756,-3.146407,52.66035
204,Mold,0.9511401,0.13525858677329688,-3.141903,53.1672
205,Mold,0.9511401,0.13525858677329688,-3.141903,53.1672
206,Taunton,0.8409786,0.4402178059464477,-3.106849,51.01534
207,Wick,0.9354839,0.17859953069687784,-3.093716,58.43894
208,John o' Groats,0.9354839,0.17859953069687784,-3.0688997,58.63734
209,Dalkeith,0.8692494000000001,0.3619559571277834,-3.066606,55.89312
210,Oswestry,0.9479769,0.14401522250927573,-3.056412,52.85715
211,Blackpool,0.9497908000000002,0.13899378872633844,-3.0356748,53.81751
212,Birkenhead,0.9267176,0.202867242537984,-3.023009,53.38999
213,Cupar,0.8865546000000001,0.3140500155190488,-3.010137,56.32023
214,Southport,0.9463487,0.14852241824318166,-3.010113,53.64571
215,Bridgwater,0.8544699,0.40287004958676587,-3.003632,51.12789
216,Langholm,0.8877004999999999,0.31087780124920866,-2.998913,55.15306
217,Newport,0.7861915,0.5918843956545777,-2.997664,51.58415
218,Axminster,0.9134615,0.2395637857266165,-2.994937,50.78273
219,Wrexham,0.9528302,0.13057983994174627,-2.992494,53.04304000000001
220,Liverpool,0.9267176,0.202867242537984,-2.9915726,53.40837
221,Weston-super-Mare,0.8359375,0.4541730185142308,-2.977255,51.34741
222,Dundee,0.8994764000000001,0.27827863574550177,-2.970721,56.46202
223,Kirkwall,0.9354839,0.17859953069687784,-2.9622491,58.98467
224,Ambleside,0.92,0.2214634147421773,-2.961333,54.42874000000001
225,Orkney Islands,0.9354839,0.17859953069687784,-2.9605206,58.98094
226,Lyme Regis,0.9134615,0.2395637857266165,-2.936639,50.72516
227,Carlisle,0.9045936,0.2641127284215184,-2.932931,54.89247
228,Chester,0.9404959,0.16472484776328042,-2.893075,53.19339
229,Forfar,0.9083969,0.2535840531724801,-2.889062,56.64356
230,Morecambe,0.9475983,0.1450633811683236,-2.864968,54.07417
231,Selkirk,0.8448276,0.4295626474046648,-2.838524,55.55066
232,Galashiels,0.8568019,0.3964142249494704,-2.814449,55.62373
233,Lancaster,0.9443155,0.15415085556300046,-2.8007399,54.04657
234,St Andrews,0.8865546000000001,0.3140500155190488,-2.7967214,56.33978000000001
235,Hawick,0.8595745000000001,0.3887389673847507,-2.780914,55.42706
236,Bridport,0.9237288,0.2111409772981176,-2.758301,50.73358
237,Shrewsbury,0.9337383,0.18343186240655213,-2.7553268,52.7073
238,Penrith,0.9050967,0.2627202218354733,-2.752708,54.6641
239,Kendal,0.9350649,0.1797592515511021,-2.74629,54.32801
240,Street,0.8505050999999999,0.41384577642138815,-2.742919,51.12468
241,Glastonbury,0.8477800999999999,0.4213891525226289,-2.718454,51.14743
242,Hereford,0.92,0.2214634147421773,-2.715974,52.0564
243,Ludlow,0.9410029,0.16332110190893714,-2.7139129,52.36775
244,Preston,0.9403579,0.16510692751956435,-2.70309,53.7632
245,Whitchurch,0.9132948,0.2400253708487929,-2.682045,52.96872
246,Wells,0.8638940999999999,0.3767808565252589,-2.6445979,51.20935
247,Yeovil,0.8978495000000001,0.28278259257696714,-2.633308,50.94206
248,Wigan,0.8918919,0.2992748900240365,-2.6325074,53.54506
249,Warrington,0.8532609,0.4062168600762033,-2.5969501,53.39004
250,Arbroath,0.9083969,0.2535840531724801,-2.591543,56.55911
251,Bristol,0.8590078000000001,0.3903075927513696,-2.58791,51.45451
252,Guernsey,0.9349593,0.18005155557563493,-2.585278,49.46569
253,Ross-on-Wye,0.9042821,0.26497510695852444,-2.582446,51.91445
254,Jedburgh,0.8993007,0.2787651355018367,-2.5549369,55.47772
255,Sedbergh,0.9102564,0.2484365236577739,-2.5281740000000004,54.32363
256,Sedbergh,0.9102564,0.2484365236577739,-2.5281740000000004,54.32363
257,Nantwich,0.9126638,0.24177227426427916,-2.524102,53.06718000000001
258,Banff,0.9351351,0.17956491740466582,-2.524038,57.66651
259,Dunbar,0.8991597,0.27915557550202713,-2.516737,56.00209
260,Cinderford,0.9125964,0.2419587464594921,-2.5009579,51.8253
261,Banchory,0.9222942,0.21511248071468905,-2.4909599,57.05386
262,Blackburn,0.915493,0.2339402206019221,-2.487529,53.74858
263,Market Drayton,0.9113737,0.24534351024163095,-2.483485,52.90355
264,Telford,0.9184783,0.2256760364515493,-2.4672611,52.67759
265,Montrose,0.909434,0.2507133059759577,-2.4661150000000003,56.70692
266,Turriff,0.9351351,0.17956491740466582,-2.4623,57.53893000000001
267,Weymouth,0.9232955,0.21234064461577595,-2.457621,50.61443
268,Crewe,0.8915289000000001,0.3002796695367218,-2.4438209,53.1004
269,Fortuneswell,0.9169231,0.22998122986828354,-2.442219,50.55919
270,Dorchester,0.8794643,0.3336781241871601,-2.4411810000000003,50.71116
271,Alston,0.9141324,0.237706704262296,-2.438685,54.81217
272,Kelso,0.9044863,0.2644100153728829,-2.432207,55.60003
273,Wincanton,0.91,0.24914634158494944,-2.416007,51.05569000000001
274,Clitheroe,0.9375,0.17301829276732597,-2.3930830000000003,53.8711
275,Sark,0.9349593,0.18005155557563493,-2.3666256000000003,49.43007
276,Bath,0.9256435,0.20584063802723931,-2.3590167,51.38106
277,Kidderminster,0.9349946,0.1799540286243678,-2.2496839,52.3886
278,Manchester,0.921371,0.21766816852081372,-2.2426305,53.48076
279,Burnley,0.9186992,0.22506443754881192,-2.2405035,53.78929
280,Gloucester,0.9307282,0.1917645064350071,-2.238156,51.86424
281,Newcastle-under-Lyme,0.8783314,0.3368142952862509,-2.2273002,53.01321
282,Worcester,0.939653,0.16705815861807716,-2.221575,52.19364
283,Trowbridge,0.9155722,0.2337207780408394,-2.208853,51.31966
284,Shaftesbury,0.8857868,0.3161755660078905,-2.198083,51.0046
285,Alderney,0.8755459000000001,0.3445255129729393,-2.1973557,49.715
286,Stoke-on-Trent,0.8833981,0.32278815905989666,-2.179404,53.00267
287,Colne,0.8547009,0.4022305739766978,-2.176991,53.85564
288,Blandford Forum,0.8743841999999998,0.3477411894379225,-2.165353,50.85691
289,Rochdale,0.9396985,0.1669322289838694,-2.1561,53.60971
290,Jersey,0.9529148,0.13034561469772954,-2.13125,49.21444
291,Wolverhampton,0.9211149,0.21837701754554975,-2.12882,52.58697
292,Stafford,0.9156777,0.2334288062114287,-2.12066,52.80669
293,Macclesfield,0.9328586,0.18586704643213028,-2.119287,53.25866
294,Hexham,0.9394958,0.16749333422804552,-2.1121439,54.97266
295,Aberdeen,0.9222942,0.21511248071468905,-2.094278,57.14972
296,Dudley,0.9283249,0.19841757192605733,-2.081112,52.51225
297,Cheltenham,0.9817629,0.05048557514657833,-2.0782533,51.89939
298,Bromsgrove,0.9357774,0.1777870644769693,-2.061906,52.33559
299,Skipton,0.8401323,0.4425605843622247,-2.0162787,53.96285
300,Fraserburgh,0.9567568,0.11970994493644388,-2.007631,57.69335
301,Berwick,0.9142857,0.2372822419450157,-2.005395,55.77024
302,Poole,0.8583333000000001,0.3921748061669145,-1.987248,50.71505
303,Walsall,0.9209278,0.21889504815555852,-1.982919,52.58621
304,Cirencester,0.9275362,0.2006009243661468,-1.968243,51.71849
305,Evesham,0.9810726,0.05239669368409595,-1.94677,52.09215
306,Buxton,0.9222671999999998,0.2151871138854571,-1.91483,53.25908
307,Keighley,0.8363252,0.4530996407088291,-1.912358,53.8678
308,Birmingham,0.9337098,0.18351067569927348,-1.890401,52.48624
309,Bournemouth,0.8764301999999999,0.34207734565467185,-1.880769,50.71916
310,Halifax,0.8452508,0.42839107825775175,-1.85754,53.72702
311,Salisbury,0.8790323,0.3348741096755484,-1.794472,51.06878
312,Ringwood,0.8901601999999998,0.30406877014832623,-1.788817,50.84495
313,Huddersfield,0.8484848,0.41943828130216493,-1.7850351000000002,53.64579000000001
314,Peterhead,0.9567568,0.11970994493644388,-1.784066,57.50812
315,Swindon,0.9242424,0.20971915449254594,-1.7797176,51.55577
316,Bradford,0.833691,0.4603920157123864,-1.759398,53.79598000000001
317,Ashbourne,0.92569,0.20571177400278626,-1.732179,53.016630000000006
318,Marlborough,0.9338843,0.18302760862586712,-1.727062,51.42007
319,Stratford-upon-Avon,0.9367385,0.1751262922805494,-1.708298,52.19173
320,Alnwick,0.9366197,0.17545516545144155,-1.7062990000000002,55.41274
321,Otley,0.8416507,0.4383572917991987,-1.691786,53.90583
322,Bishop Auckland,0.9477352,0.1446842911681387,-1.6787880000000002,54.66382
323,Burton upon Trent,0.9252492,0.20693217583264986,-1.6371359,52.81403
324,Newcastle,0.9394958,0.16749333422804552,-1.61778,54.97825
325,Durham,0.9477352,0.1446842911681387,-1.584852,54.77525
326,Ashington,0.9355993,0.17828004203818534,-1.5659829,55.18298000000001
327,Darlington,0.9323308,0.18732806826211126,-1.559458,54.52361
328,Leeds,0.8369565000000001,0.4513520729030985,-1.5490774,53.80076
329,Harrogate,0.8369565000000001,0.4513520729030985,-1.5418120000000002,53.99211999999999
330,Leamington Spa,0.9398301,0.1665678663007648,-1.5200789,52.28519
331,Coventry,0.9429537,0.15792077190630285,-1.519693,52.40682
332,Blyth,0.9355993,0.17828004203818534,-1.510277,55.12696
333,Wakefield,0.8477336999999999,0.42151765666903296,-1.505924,53.6833
334,Andover,0.8601399,0.3871738023839872,-1.4919233,51.2112
335,Witney,0.9029851,0.2685657209846662,-1.4850544,51.78594
336,Barnsley,0.8542999,0.4033404378796782,-1.479726,53.55263000000001
337,Derby,0.9392361,0.1682122321552255,-1.4746186,52.92253
338,Sheffield,0.8913042999999999,0.3009013727077568,-1.470085,53.38113000000001
339,Nuneaton,0.9379909,0.17165931020568748,-1.465382,52.52049
340,Northallerton,0.8627244000000001,0.3800190668926922,-1.429959,54.33796
341,South Shields,0.9366197,0.17545516545144155,-1.427406,54.99941999999999
342,Chesterfield,0.9090909,0.251662968781299,-1.421629,53.23505
343,Southampton,0.8510158000000001,0.4124318709328936,-1.4043508999999998,50.9097
344,Wetherby,0.8369565000000001,0.4513520729030985,-1.384816,53.92706
345,Sunderland,0.9403974,0.1649975799585354,-1.383801,54.90687
346,Rotherham,0.8723724,0.3533106344406393,-1.3635008999999998,53.4326
347,Castleford,0.8522829,0.4089241672726459,-1.345968,53.72346999999999
348,Thirsk,0.8497853999999999,0.4158379505687015,-1.341377,54.23385
349,Banbury,0.8951049000000001,0.29038033794652696,-1.339775,52.0629
350,Stockton,0.9429477,0.157937464711189,-1.3289821000000002,54.57046
351,Newbury,0.8931116,0.2958982650223894,-1.3231138999999998,51.40141
352,Isle of Wight,0.8764301999999999,0.34207734565467185,-1.304734,50.69385
353,Isle of Wight,0.8764301999999999,0.34207734565467185,-1.304734,50.69385
354,Abingdon,0.8854962,0.3169800872277952,-1.2879528999999998,51.67078
355,Shetland Islands,0.9354839,0.17859953069687784,-1.2659409,60.52965
356,Rugby,0.9377839,0.172232319108406,-1.265032,52.37088
357,Oxford,0.8785714,0.33614982199324384,-1.2577263,51.75202
358,Middlesbrough,0.9429477,0.157937464711189,-1.234956,54.57423000000001
359,Hartlepool,0.9463327,0.14856668324320327,-1.212926,54.69174
360,Loughborough,0.9472296,0.14608405068101665,-1.206166,52.7721
361,Mansfield,0.8951049000000001,0.29038033794652696,-1.198674,53.1472
362,Nottingham,0.9461883,0.14896642470681287,-1.1581086,52.95478000000001
363,Bicester,0.8650793999999999,0.3734997929870731,-1.1535898999999998,51.8996
364,Leicester,0.9371069,0.1741064532556617,-1.1397592,52.63688000000001
365,Doncaster,0.8684211,0.3642490446898776,-1.128462,53.52282
366,Worksop,0.8934426,0.2949820155097473,-1.122745,53.3093
367,Basingstoke,0.907563,0.2558925878077525,-1.0923964,51.26654
368,Portsmouth,0.8285714,0.4745644562071046,-1.0879769,50.81977
369,York,0.851958,0.4098236409316213,-1.0872979,53.95997
370,Selby,0.8710601999999998,0.35694318810094794,-1.067189,53.78352
371,Helmsley,0.8712446,0.3564325211494793,-1.0562636,54.24651
372,Towcester,0.8577878000000001,0.39368496519204144,-0.989688,52.13511
373,Reading,0.8680351999999999,0.3653172181050328,-0.9781303,51.45426
374,Retford,0.8930041,0.2961959118518029,-0.945503,53.32136
375,Petersfield,0.8329764000000001,0.4623700715670098,-0.93899,51.00759
376,Northampton,0.9015544,0.2725262342792811,-0.902656,52.24048
377,Melton Mowbray,0.9389712,0.16894549752143684,-0.887126,52.7664
378,Aylesbury,0.8564593,0.3973625866572501,-0.8084,51.81561
379,Newark-on-Trent,0.9230769,0.21294559961607104,-0.80657,53.07004000000001
380,Malton,0.8790323,0.3348741096755484,-0.7978970000000001,54.13684
381,Chichester,0.8394834000000001,0.444356957167979,-0.774936,50.83761
382,Gainsborough,0.8705881999999999,0.3582496284674388,-0.774465,53.40057
383,Milton Keynes,0.8495575000000001,0.4164688167885213,-0.7594171,52.04062
384,Aldershot,0.8859648999999999,0.31568250539789394,-0.7557509,51.24837
385,High Wycombe,0.9196429,0.22245208279144,-0.748229,51.62861
386,Midhurst,0.8824885,0.3253062811342957,-0.737274,50.9869
387,Kettering,0.9025229,0.2698450320828513,-0.7302489999999999,52.39632
388,Wellingborough,0.8994083,0.2784673225748621,-0.693964,52.30242
389,Corby,0.9047085,0.26379470695794865,-0.6842333,52.4923
390,Bognor Regis,0.8376866,0.44933108082894196,-0.673061,50.783
391,Scunthorpe,0.9034483,0.2672834201303821,-0.654413,53.58865
392,Grantham,0.9240506,0.21025008534646347,-0.643582,52.91252
393,Whitby,0.9331849,0.184963863260958,-0.613347,54.48634000000001
394,Slough,0.9325843,0.186626472164208,-0.5950406,51.51054
395,Guildford,0.8736841999999999,0.34967907736569714,-0.570409,51.23622
396,Woking,0.8780488000000001,0.3375966701646813,-0.5600349,51.31677
397,Lincoln,0.8992806000000001,0.2788208335506443,-0.540579,53.23069
398,Bedford,0.8251748,0.4839672391385206,-0.4667782,52.13864
399,Heathrow,0.9152542,0.23460106743151274,-0.4542955,51.47002
400,Driffield,0.8770104,0.3404711822392542,-0.443377,54.006
401,Beverley,0.8657117,0.3717492354252435,-0.435093,53.84196
402,Luton,0.8461538000000001,0.4258911715492152,-0.4200255,51.87867
403,Scarborough,0.902439,0.2700773472049158,-0.399752,54.28311
404,Worthing,0.8475499,0.4220264688644032,-0.372882,50.81787
405,Dorking,0.8430233,0.4345575609436865,-0.332378,51.2322
406,Hull,0.8918919,0.2992748900240365,-0.3274198,53.76762
407,Horsham,0.8255159,0.48302291913806,-0.325858,51.06288
408,Biggleswade,0.7952756,0.5667370864959693,-0.26421999999999995,52.08694000000001
409,Peterborough,0.8547009,0.4022305739766978,-0.2405299,52.5695
410,Welwyn Garden City,0.8681319,0.3650495795683169,-0.208661,51.80317
411,Bridlington,0.8888889000000001,0.307588072954921,-0.198802,54.08535
412,Stevenage,0.814433,0.513703796226197,-0.196612,51.90376
413,Crawley,0.8705440999999999,0.3583718485894497,-0.1872275,51.10914
414,Huntingdon,0.8257575999999999,0.4823540165767581,-0.182552,52.33146
415,Hove,0.8653846,0.3726547716451975,-0.168749,50.82793
416,Spalding,0.8980892,0.28211900513761895,-0.1537024,52.7901
417,Brighton,0.8652482,0.373032339084406,-0.137163,50.82253
418,London,0.8910690999999998,0.3015525028300256,-0.12775830000000002,51.50735
419,Grimsby,0.8939394,0.2936068107529789,-0.08078400000000001,53.56746999999999
420,Boston,0.9007091999999999,0.2748659398901785,-0.026577,52.97894
421,Royston,0.7570093000000001,0.6726692387427655,-0.024066,52.04814
422,Louth_Lincs,0.9019608,0.2714012554982445,-0.007711,53.36596
423,Lewes,0.8642857,0.3756968761588765,0.00878,50.87387
424,Chatteris,0.8181818000000001,0.503325937562598,0.054012,52.4561
425,Uckfield,0.8484321,0.419584419472968,0.095913,50.96641
426,Cambridge,0.8181818000000001,0.503325937562598,0.121817,52.20534
427,Bishop's Stortford,0.8041236999999999,0.5422429006303624,0.1536502,51.87216
428,Wisbech,0.8444444,0.4306233187466456,0.158797,52.66631999999999
429,Sevenoaks,0.8015267,0.5494321290485035,0.190898,51.27241
430,Tunbridge Wells,0.7961783,0.5642380102752379,0.263695,51.13238
431,Eastbourne,0.8251879999999999,0.4839308637726492,0.29047199999999995,50.76803
432,Brentwood,0.6894977,0.8595611901753958,0.30717490000000003,51.62047000000001
433,Skegness,0.9242424,0.20971915449254594,0.337881,53.1464
434,Downham Market,0.8615385,0.3833020682357571,0.385472,52.60661
435,King's Lynn,0.8630136999999999,0.37921817213620396,0.4022963,52.75168000000001
436,Bexhill,0.8241966000000001,0.4866752660910611,0.4662071,50.84991
437,Chelmsford,0.6387665,1.0,0.4685497,51.73559
438,Mildenhall,0.8263889000000001,0.4806063657222471,0.5156095,52.34757000000001
439,Medway,0.6591716,0.9435127663139086,0.5417860999999999,51.40474
440,Braintree,0.6711111,0.910460708127054,0.5509269,51.88009
441,Gillingham,0.6591716,0.9435127663139086,0.551438,51.38632
442,Hastings,0.8297456,0.4713140099860069,0.573453,50.85426
443,Maldon,0.6579353,0.9469352342424074,0.6714479999999999,51.7318
444,Southend,0.6593279000000001,0.9430799991185757,0.7077123000000001,51.54593
445,Bury St Edmunds,0.8188406,0.5015022970739035,0.7104931999999999,52.24292
446,Thetford,0.8531469,0.4065325008080646,0.751657,52.41286
447,Ashford,0.7621951,0.6583135095894213,0.8750190000000001,51.14647
448,Faversham,0.6733728,0.9041997436118048,0.889358,51.31599
449,Colchester,0.6730038,0.9052211882464494,0.891874,51.89593
450,New Romney,0.7613635999999999,0.6606152895905439,0.939473,50.98512
451,Canterbury,0.6733728,0.9041997436118048,1.0789089,51.28023
452,Ipswich,0.7463126999999999,0.702280752049893,1.14822,52.05674000000001
453,Clacton,0.6784314,0.8901960859220469,1.153035,51.78953
454,Folkestone,0.7398844,0.7200761402293054,1.169456,51.0814
455,Sheringham,0.9090909,0.251662968781299,1.2109589,52.94442
456,Harwich,0.6964981,0.8401822278488694,1.260297,51.93473
457,Norwich,0.8613139000000001,0.3839237990897189,1.297355,52.63089
458,Cromer,0.8802817,0.3314153217470319,1.301866,52.93145
459,Dover,0.7305389,0.7459471364614377,1.3134027,51.12788
460,Felixstowe,0.7386364000000001,0.7235310525480639,1.351255,51.96173
461,Margate,0.6962025,0.8410003137029269,1.3868339,51.38965
462,Ramsgate,0.6756757,0.8978246423891828,1.419895,51.33555
463,Great Yarmouth,0.8467153000000001,0.4243368305728473,1.728047,52.59823000000001
464,Lowestoft,0.8450704,0.4288904228921417,1.7534490000000005,52.48114
465,Swaffham,0.8661972,0.3704053677416611,0.687481,52.64747
466,Dereham,0.8827586,0.32455845454856513,0.937827,52.68162
467,Ely,0.8235294,0.4885222432870841,0.262363,52.39954
468,March,0.8181818000000001,0.503325937562598,0.088622,52.55172
469,St Neots,0.8424658000000002,0.436100911798098,-0.26510300000000003,52.23008
470,Banham,0.8467153000000001,0.4243368305728473,1.0402849,52.45125
471,Holt,0.8785714,0.33614982199324384,1.086747,52.90936
472,Cromer,0.8802817,0.3314153217470319,1.301866,52.93145
473,Hunstanton,0.8819444,0.32681234308625,0.491032,52.93891
474,Horncastle,0.9166667,0.23069104779545904,-0.11245,53.20731
475,Market Weighton,0.8770104,0.3404711822392542,-0.6677465,53.86484
476,Hawes,0.8636364,0.377494467013412,-2.1968695,54.30383000000001
477,Reeth,0.8383838,0.4474008333889761,-1.9428115,54.38946
478,Aysgarth,0.8303571,0.46962108827786403,-1.9967434,54.29159
479,Stanhope,0.9394958,0.16749333422804552,-2.011302,54.74946
480,Keswick,0.8926174000000001,0.2972663275840323,-3.134706,54.60128
481,Oxenholme,0.9205298,0.21999677327804726,-2.7243328,54.30134
