,placename,drank,drunk,longitude,latitude
0,Dingle,0.9028669821597386,0.09713307858396736,-10.2640135,52.14094
1,Tralee,0.9028669821597386,0.09713307858396736,-9.6999325,52.27131
2,Killarney,0.9028669821597386,0.09713307858396736,-9.5044265,52.05994000000001
3,Bantry,0.8993349177194251,0.10066519858569037,-9.4539805,51.68035
4,Mayo,0.7785365975193331,0.2214634147421773,-9.4289369,54.01526
5,Ballycastle,0.7785365975193331,0.2214634147421773,-9.3724643,54.27967
6,Abbeyfeale,0.9028669821597386,0.09713307858396736,-9.2970823,52.38618
7,Ennistymon,1.0,0.01,-9.2934951,52.94037
8,Galway,0.8543003348249819,0.14569961787595104,-9.0567905,53.27067
9,Claremorris,0.8022647401196179,0.19773518777938293,-9.0017356,53.72388
10,Clare,1.0,0.01,-8.9811351,52.90453
11,Adare,1.0,0.01,-8.7925892,52.56363
12,Charleville,0.9011323700598092,0.09886760773115494,-8.681017599999999,52.36206
13,Mallow,0.8974707495290439,0.10252936687928264,-8.6539164,52.13898
14,Limerick,1.0,0.01,-8.6267343,52.66384
15,Loughrea,0.8503624386996226,0.14963743117055486,-8.5660931,53.19891
16,Sligo,0.5741087136159854,0.4258911715492152,-8.476088800000001,54.27661
17,Cork,0.8741686471492817,0.12583149823211293,-8.4756035,51.89851
18,Nenagh,1.0,0.01,-8.19834,52.8635
19,Roscommon,0.7785365975193331,0.2214634147421773,-8.1890955,53.62759000000001
20,Tipperary,1.0,0.01,-8.161851400000002,52.47379
21,Donegal,1.0,0.01,-8.1096143,54.653830000000006
22,Leitrim,1.0,0.01,-8.0020132,54.12469
23,Athlone,0.7592789705273733,0.2407210981662054,-7.9406898,53.42393000000001
24,Longford,1.0,0.01,-7.7932573,53.72763000000001
25,Offaly,0.8154470723230266,0.18455285484612333,-7.7122229,53.23569000000001
26,Fermanagh,1.0,0.01,-7.6318728,54.34383
27,Enniskillen,1.0,0.01,-7.631533599999999,54.34382
28,Doon,0.5741087136159854,0.4258911715492152,-7.60964,54.185930000000006
29,Westmeath,0.7785365975193331,0.2214634147421773,-7.4653217,53.53453
30,Strabane,0.7086006696499633,0.2913992357519021,-7.4633103,54.82739
31,Cavan,1.0,0.01,-7.3633319,53.98972
32,Mullingar,0.7785365975193331,0.2214634147421773,-7.3401868000000015,53.52582
33,Laois,0.8154470723230266,0.18455285484612333,-7.3323006999999985,52.99429
34,Omagh,0.7086006696499633,0.2913992357519021,-7.309959700000001,54.59771
35,Derry,0.6924119717578798,0.307588072954921,-7.308574799999999,54.99661
36,Derry,0.6924119717578798,0.307588072954921,-7.308574799999999,54.99661
37,Kilkenny,1.0,0.01,-7.2447879,52.65415
38,Tyrone,0.7231707468991664,0.2768292684277216,-7.1312320000000025,54.49121
39,Waterford,1.0,0.01,-7.110070200000001,52.25932
40,Monaghan,0.604529757068489,0.39547037555876596,-6.9683132,54.2492
41,Carlow,0.8462058474643132,0.15379405031892393,-6.9341358999999985,52.83651
42,Kildare,0.873013992334598,0.12698590396438336,-6.8194708,53.21204
43,Dungannon,0.5741087136159854,0.4258911715492152,-6.7669352,54.50827
44,Cookstown,0.538617819222193,0.4613821232738449,-6.7443895000000005,54.64182
45,Coleraine,1.0,0.01,-6.6646103000000005,55.13258
46,Meath,0.8945413423727315,0.10545877419778478,-6.656416900000001,53.60555
47,Armagh,0.5741087136159854,0.4258911715492152,-6.652792,54.35028000000001
48,Armagh,0.5741087136159854,0.4258911715492152,-6.652792,54.35028000000001
49,Magherafelt,0.4966740349386202,0.503325937562598,-6.607980499999999,54.75536999999999
50,Louth,1.0,0.01,-6.4889423,53.925230000000006
51,Wexford,1.0,0.01,-6.4633381,52.33692
52,Craigavon,0.5741087136159854,0.4258911715492152,-6.4175653,54.44293
53,Drogheda,0.8914394705917364,0.10856050773588316,-6.3560985,53.71786
54,Rosslare,1.0,0.01,-6.3414908,52.25131
55,Newry,0.8123191785922402,0.18768085948179555,-6.34023,54.1751
56,Ballymena,1.0,0.01,-6.2802213,54.86529
57,Banbridge,0.8123191785922402,0.18768085948179555,-6.2704803,54.34873
58,Dublin,0.8945413423727315,0.10545877419778478,-6.2603097000000005,53.34981
59,Antrim,0.8090833214527445,0.19091674448337406,-6.2072498,54.719530000000006
60,Antrim,0.8090833214527445,0.19091674448337406,-6.2072498,54.719530000000006
61,Wicklow,0.8955362667083756,0.10446387748998236,-6.044589,52.98082
62,Kilkeel,0.8123191785922402,0.18768085948179555,-6.007004,54.06312
63,Belfast,0.8123191785922402,0.18768085948179555,-5.93012,54.59728000000001
64,Down,0.8154470723230266,0.18455285484612333,-5.7156922,54.32875
65,Balivanich,0.7429272202052135,0.2570727386619867,-7.3743509,57.47227
66,Western Isles,0.7402469593766909,0.2597529165901234,-7.0194034,57.75989000000001
67,Dunvegan,0.7402469593766909,0.2597529165901234,-6.5813982000000015,57.4366
68,Stornoway,0.8012296755422739,0.19877044619452214,-6.3848692000000025,58.20943000000001
69,Scilly Isles,0.6816020662535451,0.3183978683260477,-6.327496599999999,49.92773
70,Portree,0.7375105022097892,0.2624895676890193,-6.1960231,57.41246999999999
71,Islay,0.684987411189715,0.3150126062512256,-6.177067,55.73625
72,Mull,0.7395681740480881,0.260431729639235,-6.0008870000000005,56.4392
73,Broadford,0.7375105022097892,0.2624895676890193,-5.9096592,57.24139
74,Kyle of Lochalsh,0.7402469593766909,0.2597529165901234,-5.7143293,57.28261
75,Campbeltown,0.684987411189715,0.3150126062512256,-5.6053739999999985,55.42412
76,Penzance,0.6433486927430592,0.35665121627153723,-5.537592,50.1188
77,Oban,0.7091111427926811,0.29088890099555553,-5.471047,56.41516
78,Lochgilphead,0.681694527224081,0.3183054350333197,-5.4323449,56.03829
79,Helston,0.6476719351887356,0.3523281673669893,-5.274996,50.10159
80,Redruth,0.6433486927430592,0.35665121627153723,-5.226666000000002,50.23302
81,Ullapool,0.7618673240438665,0.23813271682347936,-5.161313,57.89542
82,Ballachulish,0.7422625531685185,0.2577375995159696,-5.1337199999999985,56.67393000000001
83,Fort William,0.7402469593766909,0.2597529165901234,-5.1052179,56.81981999999999
84,Achnasheen,0.7023340858475198,0.2976658752671541,-5.078765799999998,57.57859000000001
85,Newquay,0.6107088628269526,0.3892911587264835,-5.0737190000000005,50.4155
86,Falmouth,0.6107088628269526,0.3892911587264835,-5.0662699999999985,50.15257
87,Rothesay,0.681694527224081,0.3183054350333197,-5.055793,55.83596
88,Truro,0.6107088628269526,0.3892911587264835,-5.0510410000000014,50.2632
89,Milford Haven,0.3192724373570005,0.6807277110637696,-5.0426971,51.71431
90,Stranraer,0.6905887742969575,0.30941121515093234,-5.0240550000000015,54.90337
91,Fishguard,0.2961967813062742,0.703803229977465,-4.975989,51.99393
92,Inchnadamph,0.7618673240438665,0.23813271682347936,-4.974295,58.15221
93,Haverfordwest,0.2961967813062742,0.703803229977465,-4.971319,51.80048
94,Dunoon,0.681694527224081,0.3183054350333197,-4.926214,55.95097
95,Pembroke,0.3192724373570005,0.6807277110637696,-4.9086370000000015,51.67404000000001
96,Girvan,0.6343323639695652,0.3656677946905697,-4.8542179,55.24016
97,Wadebridge,0.6107088628269526,0.3892911587264835,-4.836456,50.51665
98,Invergarry,0.7297028099553334,0.2702970942781937,-4.800261,57.07095
99,St Austell,0.6557564566962918,0.34424364541182617,-4.7834252,50.34038
100,Greenock,0.6545630457861741,0.3454368626075301,-4.7719830000000005,55.956480000000006
101,Helensburgh,0.6545630457861741,0.3454368626075301,-4.734014,56.00232
102,Bodmin,0.6107088628269526,0.3892911587264835,-4.7188629,50.4715
103,Tenby,0.3079268672479158,0.6920731710693039,-4.703579,51.67274000000001
104,Camelford,0.6107088628269526,0.3892911587264835,-4.682364,50.62206
105,Irvine,0.681694527224081,0.3183054350333197,-4.6696364,55.61156999999999
106,Cardigan,0.3079268672479158,0.6920731710693039,-4.660864,52.0837
107,Holyhead,0.8910834681722484,0.10891642712630067,-4.633038,53.30944
108,Ayr,0.6343323639695652,0.3656677946905697,-4.629179,55.45856
109,Dumbarton,0.6545630457861741,0.3454368626075301,-4.564554,55.94529
110,Bude,0.6107088628269526,0.3892911587264835,-4.543678,50.82664000000001
111,Isle of Man,0.7050179454563322,0.2949820155097473,-4.5126331,54.27697
112,Kilmarnock,0.6808607175137412,0.3191394108873851,-4.498792,55.61472
113,Newton Stewart,0.4541394970289298,0.5458605331931027,-4.483164,54.9603
114,Liskeard,0.6557564566962918,0.34424364541182617,-4.4647190000000005,50.45552
115,Altnaharra,0.8214005622402132,0.17859953069687784,-4.442655,58.28023
116,Pwllheli,0.8755824141448676,0.12441764810947205,-4.417633900000001,52.88882
117,Lairg,0.8174751234312432,0.18252480362562185,-4.402414,58.02206
118,Launceston,0.6557564566962918,0.34424364541182617,-4.360451599999998,50.63683
119,Carmarthen,0.2961967813062742,0.703803229977465,-4.312131,51.85762
120,Llangefni,0.8909046364747456,0.10909528651663183,-4.311401999999998,53.25578
121,Caernarfon,0.8476168461673679,0.15238307922067468,-4.273911,53.13955
122,Cumnock,0.6305785592975179,0.3694214334728885,-4.265828900000002,55.45355
123,Aberaeron,0.17816315485689999,0.8218368906447985,-4.2581619,52.24279
124,Alness,0.8174751234312432,0.18252480362562185,-4.256825,57.69595
125,Glasgow,0.6509332606195163,0.3490666756580813,-4.251806,55.86424
126,Dalwhinnie,0.7047153710826933,0.295284562217212,-4.242783,56.9366
127,Inverness,0.8214005622402132,0.17859953069687784,-4.224721,57.47776999999999
128,Saltash,0.6560108627798918,0.3439890455336532,-4.21643,50.40921
129,Bideford,0.6080294324861896,0.3919706445814492,-4.206666,51.01668
130,Invergordon,0.8214005622402132,0.17859953069687784,-4.172882,57.68811
131,Llanelli,0.3200685982889184,0.6799315500877715,-4.160248,51.68089000000001
132,Plymouth,0.6678048962789996,0.3321951221132659,-4.1426565,50.37546
133,Tavistock,0.6560108627798918,0.3439890455336532,-4.141654,50.55112
134,Porthmadog,0.8374248235559548,0.1625751023963781,-4.133384,52.92784
135,Bangor,0.892319233958091,0.10768074432081988,-4.129263,53.22739
136,Tywyn,0.693546971695593,0.30645307295436736,-4.087249,52.58701
137,Aberystwyth,0.5470065760789077,0.4529933382697529,-4.08292,52.4153
138,Lampeter,0.17816315485689999,0.8218368906447985,-4.078509,52.1129
139,Barnstaple,0.4804377224150027,0.5195622509851523,-4.058338,51.07816
140,Tain,0.8214005622402132,0.17859953069687784,-4.05523,57.8115
141,Okehampton,0.7051522076440861,0.2948477533145599,-4.004263,50.73831
142,Llandeilo,0.17816315485689999,0.8218368906447985,-3.99143,51.88469
143,Motherwell,0.7060220051573292,0.29397798343608683,-3.9810968,55.78321
144,Golspie,0.8214005622402132,0.17859953069687784,-3.976086,57.97341
145,Airdrie,0.7060220051573292,0.29397798343608683,-3.962566,55.86626999999999
146,Swansea,0.3339953243539151,0.6660047955687829,-3.943646,51.62144
147,Stirling,0.6731532374489075,0.32684672528138864,-3.9369029,56.11652
148,Tregaron,0.3708426820879016,0.6291574357947111,-3.934385,52.22
149,Tregaron,0.3708426820879016,0.6291574357947111,-3.934385,52.22
150,Castle Douglas,0.4663532036757389,0.5336467705042179,-3.931414,54.94042
151,Dolgellau,0.9095656964262728,0.090434253214846,-3.8844,52.74215
152,Aberfeldy,0.6986893519011942,0.3013107755128345,-3.866969,56.62175
153,Machynlleth,0.8038219046683099,0.19617821692496493,-3.853485,52.59027
154,Brora,0.8214005622402132,0.17859953069687784,-3.852548000000001,58.01216
155,Llandudno,0.9048540625384964,0.09514591504641264,-3.827609,53.32406
156,Llandudno,0.9048540625384964,0.09514591504641264,-3.827609,53.32406
157,Aviemore,0.8214005622402132,0.17859953069687784,-3.823812,57.19449
158,Dalbeattie,0.4137733626587788,0.5862266974810861,-3.822527,54.93422
159,Falkirk,0.6766958214008392,0.3233042518650265,-3.7839131,56.00188000000001
160,Kingsbridge,0.6418380355088883,0.3581618459064204,-3.777493,50.28395
161,Pitlochry,0.6869365659607982,0.3130634790551529,-3.729711,56.70436
162,Colwyn Bay,0.8636513501654745,0.13634874043236525,-3.72764,53.29318000000001
163,Totnes,0.6418380355088883,0.3581618459064204,-3.685797,50.43374
164,Grantown-on-Spey,0.8214005622402132,0.17859953069687784,-3.609628,57.33041
165,Dumfries,0.6977755385367086,0.30222453356206075,-3.60512,55.07086
166,Whitehaven,0.7105052549112967,0.2894946503851193,-3.589233,54.5497
167,Dartmouth,0.6418380355088883,0.3581618459064204,-3.578807,50.35252
168,Bridgend,0.3854390581161493,0.614560975909542,-3.576945,51.50429000000001
169,Paignton,0.6620108600115991,0.3379892140673118,-3.564235,50.43508
170,Workington,0.6633158331107165,0.3366842408959435,-3.542752,54.64357
171,Llanidloes,0.8178754185312269,0.1821245085034754,-3.540195,52.44779000000001
172,Exeter,0.7550182914928986,0.2449816667048691,-3.533899,50.71841
173,Torquay,0.7420845519587747,0.2579154623209344,-3.525315,50.46192
174,Thurso,0.8214005622402132,0.17859953069687784,-3.5220800000000003,58.59356999999999
175,Livingston,0.5654998775030555,0.4345001465534147,-3.518068,55.90071
176,Rhyl,0.8545323177390797,0.14546760726608174,-3.4916339999999995,53.31914
177,Tiverton,0.5702948369960151,0.4297051314291245,-3.491207,50.90205
178,Tiverton,0.5702948369960151,0.4297051314291245,-3.491207,50.90205
179,Minehead,0.3910456809792005,0.608954408101929,-3.481152,51.20428
180,Dunfermline,0.6049998131402542,0.3950001533634147,-3.452151,56.07174000000001
181,Perth,0.6869365659607982,0.3130634790551529,-3.4308381000000003,56.39499
182,Prestatyn,0.9024594894991742,0.09754051590123927,-3.407613,53.33651
183,Builth Wells,0.4067944971881068,0.5932055633381489,-3.404592,52.15002
184,Braemar,0.8214005622402132,0.17859953069687784,-3.3979439,57.00646999999999
185,Brecon,0.4232724816496807,0.5767276333301111,-3.391463,51.94895
186,Merthyr Tydfil,0.3885979567232829,0.6114020771275132,-3.381646,51.74873
187,Llandrindod Wells,0.5807246559358421,0.41927539496062216,-3.377742,52.2417
188,Corwen,0.8538341543627599,0.146165853729837,-3.369242,52.98005
189,Cockermouth,0.7027335504597445,0.2972663275840323,-3.367985,54.66326
190,Lockerbie,0.6389183173764339,0.36108164724930814,-3.349008,55.12224000000001
191,Blairgowrie,0.6869365659607982,0.3130634790551529,-3.3378318,56.58941
192,Elgin,0.8214005622402132,0.17859953069687784,-3.318485,57.64945
193,Newtown,0.9155435473177324,0.08445637430949092,-3.313106,52.51211
194,Ruthin,0.8554530518348934,0.14454692848514486,-3.3103108,53.11487
195,Ruthin,0.8554530518348934,0.14454692848514486,-3.3103108,53.11487
196,Sidmouth,0.7528310635641489,0.2471689778034971,-3.23756,50.67865
197,Barrow-in-Furness,0.8500247070108391,0.14997521824389035,-3.218894,54.10896999999999
198,Peebles,0.6035857693154151,0.3964142249494704,-3.193642,55.65306999999999
199,Edinburgh,0.5978266135339054,0.4021732703181333,-3.188267,55.95325
200,Cardiff,0.36689260547540575,0.6331072911624914,-3.17909,51.48158
201,Llangollen,0.8698296254361789,0.1301704925025222,-3.17166,52.96921
202,Kirkcaldy,0.6788661627451498,0.32113385503469943,-3.158137,56.11682
203,Welshpool,0.7914299199825044,0.2085700085163756,-3.146407,52.66035
204,Mold,0.8647415037641856,0.13525858677329688,-3.141903,53.1672
205,Mold,0.8647415037641856,0.13525858677329688,-3.141903,53.1672
206,Taunton,0.5597822461095109,0.4402178059464477,-3.106849,51.01534
207,Wick,0.8214005622402132,0.17859953069687784,-3.093716,58.43894
208,John o' Groats,0.8214005622402132,0.17859953069687784,-3.0688997,58.63734
209,Dalkeith,0.6380440905951416,0.3619559571277834,-3.066606,55.89312
210,Oswestry,0.8559848408301002,0.14401522250927573,-3.056412,52.85715
211,Blackpool,0.8610062466520967,0.13899378872633844,-3.0356748,53.81751
212,Birkenhead,0.7971328794256345,0.202867242537984,-3.023009,53.38999
213,Cupar,0.6859499465027471,0.3140500155190488,-3.010137,56.32023
214,Southport,0.8514775069311122,0.14852241824318166,-3.010113,53.64571
215,Bridgwater,0.5971301111331037,0.40287004958676587,-3.003632,51.12789
216,Langholm,0.6891221329140289,0.31087780124920866,-2.998913,55.15306
217,Newport,0.40811552638390414,0.5918843956545777,-2.997664,51.58415
218,Axminster,0.7604361168053348,0.2395637857266165,-2.994937,50.78273
219,Wrexham,0.8694201949708429,0.13057983994174627,-2.992494,53.04304000000001
220,Liverpool,0.7971328794256345,0.202867242537984,-2.9915726,53.40837
221,Weston-super-Mare,0.5458270066314448,0.4541730185142308,-2.977255,51.34741
222,Dundee,0.7217212689299305,0.27827863574550177,-2.970721,56.46202
223,Kirkwall,0.8214005622402132,0.17859953069687784,-2.9622491,58.98467
224,Ambleside,0.7785365975193331,0.2214634147421773,-2.961333,54.42874000000001
225,Orkney Islands,0.8214005622402132,0.17859953069687784,-2.9605206,58.98094
226,Lyme Regis,0.7604361168053348,0.2395637857266165,-2.936639,50.72516
227,Carlisle,0.7358871754696062,0.2641127284215184,-2.932931,54.89247
228,Chester,0.8352752444056271,0.16472484776328042,-2.893075,53.19339
229,Forfar,0.7464158224527904,0.2535840531724801,-2.889062,56.64356
230,Morecambe,0.8549367652778604,0.1450633811683236,-2.864968,54.07417
231,Selkirk,0.5704374040613621,0.4295626474046648,-2.838524,55.55066
232,Galashiels,0.6035857693154151,0.3964142249494704,-2.814449,55.62373
233,Lancaster,0.8458490145570665,0.15415085556300046,-2.8007399,54.04657
234,St Andrews,0.6859499465027471,0.3140500155190488,-2.7967214,56.33978000000001
235,Hawick,0.6112611371868891,0.3887389673847507,-2.780914,55.42706
236,Bridport,0.7888590067089569,0.2111409772981176,-2.758301,50.73358
237,Shrewsbury,0.8165682307980849,0.18343186240655213,-2.7553268,52.7073
238,Penrith,0.7372799034419562,0.2627202218354733,-2.752708,54.6641
239,Kendal,0.8202406476697205,0.1797592515511021,-2.74629,54.32801
240,Street,0.5861543849061616,0.41384577642138815,-2.742919,51.12468
241,Glastonbury,0.5786107877591639,0.4213891525226289,-2.718454,51.14743
242,Hereford,0.7785365975193331,0.2214634147421773,-2.715974,52.0564
243,Ludlow,0.8366787687188483,0.16332110190893714,-2.7139129,52.36775
244,Preston,0.8348932200363476,0.16510692751956435,-2.70309,53.7632
245,Whitchurch,0.7599746424404161,0.2400253708487929,-2.682045,52.96872
246,Wells,0.6232190536038321,0.3767808565252589,-2.6445979,51.20935
247,Yeovil,0.7172175338112331,0.28278259257696714,-2.633308,50.94206
248,Wigan,0.7007251542284975,0.2992748900240365,-2.6325074,53.54506
249,Warrington,0.5937832454631146,0.4062168600762033,-2.5969501,53.39004
250,Arbroath,0.7464158224527904,0.2535840531724801,-2.591543,56.55911
251,Bristol,0.6096923458095667,0.3903075927513696,-2.58791,51.45451
252,Guernsey,0.8199483159784462,0.18005155557563493,-2.585278,49.46569
253,Ross-on-Wye,0.7350248523461971,0.26497510695852444,-2.582446,51.91445
254,Jedburgh,0.721234879932232,0.2787651355018367,-2.5549369,55.47772
255,Sedbergh,0.7515634624142005,0.2484365236577739,-2.5281740000000004,54.32363
256,Sedbergh,0.7515634624142005,0.2484365236577739,-2.5281740000000004,54.32363
257,Nantwich,0.7582278498533501,0.2417722742642792,-2.524102,53.06718000000001
258,Banff,0.8204349818053976,0.17956491740466582,-2.524038,57.66651
259,Dunbar,0.72084455068536,0.27915557550202713,-2.516737,56.00209
260,Cinderford,0.7580412669367597,0.2419587464594921,-2.5009579,51.8253
261,Banchory,0.7848876142439722,0.21511248071468905,-2.4909599,57.05386
262,Blackburn,0.7660599030820785,0.2339402206019221,-2.487529,53.74858
263,Market Drayton,0.7546564756590957,0.2453435102416309,-2.483485,52.90355
264,Telford,0.7743240867748981,0.2256760364515493,-2.4672611,52.67759
265,Montrose,0.7492868186366989,0.2507133059759577,-2.4661150000000003,56.70692
266,Turriff,0.8204349818053976,0.17956491740466582,-2.4623,57.53893000000001
267,Weymouth,0.7876595055552712,0.21234064461577595,-2.457621,50.61443
268,Crewe,0.6997202640397417,0.3002796695367218,-2.4438209,53.1004
269,Fortuneswell,0.7700188382306735,0.22998122986828354,-2.442219,50.55919
270,Dorchester,0.6663219219701384,0.3336781241871601,-2.4411810000000003,50.71116
271,Alston,0.7622933642643888,0.23770670426229604,-2.438685,54.81217
272,Kelso,0.7355901376810292,0.2644100153728829,-2.432207,55.60003
273,Wincanton,0.7508536722092498,0.24914634158494944,-2.416007,51.05569000000001
274,Clitheroe,0.826981716811979,0.17301829276732594,-2.3930830000000003,53.8711
275,Sark,0.8199483159784462,0.18005155557563493,-2.3666256000000003,49.43007
276,Bath,0.7941594564180785,0.2058406380272393,-2.3590167,51.38106
277,Kidderminster,0.8200460367047907,0.1799540286243678,-2.2496839,52.3886
278,Manchester,0.7823319265793454,0.21766816852081367,-2.2426305,53.48076
279,Burnley,0.7749356025949975,0.22506443754881192,-2.2405035,53.78929
280,Gloucester,0.8082353934504964,0.1917645064350071,-2.238156,51.86424
281,Newcastle-under-Lyme,0.6631857233617591,0.3368142952862509,-2.2273002,53.01321
282,Worcester,0.83294185063124,0.16705815861807716,-2.221575,52.19364
283,Trowbridge,0.7662791518505342,0.2337207780408394,-2.208853,51.31966
284,Shaftesbury,0.6838244514974385,0.3161755660078905,-2.198083,51.0046
285,Alderney,0.6554746445166356,0.3445255129729393,-2.1973557,49.715
286,Stoke-on-Trent,0.6772118311286189,0.32278815905989666,-2.179404,53.00267
287,Colne,0.5977695867077665,0.4022305739766978,-2.176991,53.85564
288,Blandford Forum,0.6522587190833625,0.3477411894379225,-2.165353,50.85691
289,Rochdale,0.8330678079414011,0.1669322289838694,-2.1561,53.60971
290,Jersey,0.8696543925189665,0.13034561469772954,-2.13125,49.21444
291,Wolverhampton,0.7816229668621542,0.21837701754554967,-2.12882,52.58697
292,Stafford,0.7665712067125559,0.2334288062114287,-2.12066,52.80669
293,Macclesfield,0.8141329638585568,0.18586704643213028,-2.119287,53.25866
294,Hexham,0.8325066750453657,0.16749333422804552,-2.1121439,54.97266
295,Aberdeen,0.7848876142439722,0.21511248071468905,-2.094278,57.14972
296,Dudley,0.8015823560107244,0.19841757192605733,-2.081112,52.51225
297,Cheltenham,0.9495143722827482,0.05048557514657833,-2.0782533,51.89939
298,Bromsgrove,0.8222130560980639,0.1777870644769693,-2.061906,52.33559
299,Skipton,0.5574394401405186,0.4425605843622247,-2.0162787,53.96285
300,Fraserburgh,0.8802901724231005,0.11970994493644388,-2.007631,57.69335
301,Berwick,0.7627177435093921,0.2372822419450157,-2.005395,55.77024
302,Poole,0.6078251324974014,0.3921748061669145,-1.987248,50.71505
303,Walsall,0.7811050193296027,0.21889504815555846,-1.982919,52.58621
304,Cirencester,0.7993990036915178,0.2006009243661468,-1.968243,51.71849
305,Evesham,0.9476034199485932,0.05239669368409595,-1.94677,52.09215
306,Buxton,0.7848128703456347,0.2151871138854571,-1.91483,53.25908
307,Keighley,0.5469002736457167,0.4530996407088291,-1.912358,53.8678
308,Birmingham,0.8164893344609513,0.18351067569927348,-1.890401,52.48624
309,Bournemouth,0.6579226456018058,0.34207734565467185,-1.880769,50.71916
310,Halifax,0.5716089454604846,0.42839107825775175,-1.85754,53.72702
311,Salisbury,0.6651260195967428,0.3348741096755484,-1.794472,51.06878
312,Ringwood,0.69593130205255,0.30406877014832623,-1.788817,50.84495
313,Huddersfield,0.5805616035057658,0.4194382813021649,-1.7850351000000002,53.64579000000001
314,Peterhead,0.8802901724231005,0.11970994493644388,-1.784066,57.50812
315,Swindon,0.7902808017528832,0.20971915449254594,-1.7797176,51.55577
316,Bradford,0.5396080374605344,0.4603920157123864,-1.759398,53.79598000000001
317,Ashbourne,0.7942881820207706,0.20571177400278626,-1.732179,53.016630000000006
318,Marlborough,0.8169724015076124,0.18302760862586712,-1.727062,51.42007
319,Stratford-upon-Avon,0.8248736620496162,0.1751262922805494,-1.708298,52.19173
320,Alnwick,0.8245447888969325,0.17545516545144155,-1.7062990000000002,55.41274
321,Otley,0.5616428155196015,0.4383572917991987,-1.691786,53.90583
322,Bishop Auckland,0.8553157445253552,0.1446842911681387,-1.6787880000000002,54.66382
323,Burton upon Trent,0.7930679186731021,0.20693217583264986,-1.6371359,52.81403
324,Newcastle,0.8325066750453657,0.16749333422804552,-1.61778,54.97825
325,Durham,0.8553157445253552,0.1446842911681387,-1.584852,54.77525
326,Ashington,0.8217200231982915,0.17828004203818534,-1.5659829,55.18298000000001
327,Darlington,0.8126718590606908,0.18732806826211126,-1.559458,54.52361
328,Leeds,0.5486478967205425,0.4513520729030985,-1.5490774,53.80076
329,Harrogate,0.5486478967205425,0.4513520729030985,-1.5418120000000002,53.99211999999999
330,Leamington Spa,0.8334321152384815,0.1665678663007648,-1.5200789,52.28519
331,Coventry,0.8420791537883391,0.15792077190630285,-1.519693,52.40682
332,Blyth,0.8217200231982915,0.17828004203818534,-1.510277,55.12696
333,Wakefield,0.5784823389857251,0.42151765666903296,-1.505924,53.6833
334,Andover,0.6128263297839208,0.3871738023839872,-1.4919233,51.2112
335,Witney,0.7314343769334796,0.2685657209846662,-1.4850544,51.78594
336,Barnsley,0.5966595014028322,0.4033404378796782,-1.479726,53.55263000000001
337,Derby,0.8317877494750623,0.1682122321552255,-1.4746186,52.92253
338,Sheffield,0.6990985055372769,0.3009013727077568,-1.470085,53.38113000000001
339,Nuneaton,0.8283406716154509,0.17165931020568748,-1.465382,52.52049
340,Northallerton,0.6199809818303121,0.3800190668926922,-1.429959,54.33796
341,South Shields,0.8245447888969325,0.17545516545144155,-1.427406,54.99941999999999
342,Chesterfield,0.7483370174693098,0.251662968781299,-1.421629,53.23505
343,Southampton,0.5875681519017479,0.4124318709328936,-1.4043508999999998,50.9097
344,Wetherby,0.5486478967205425,0.4513520729030985,-1.384816,53.92706
345,Sunderland,0.8350025675913226,0.1649975799585354,-1.383801,54.90687
346,Rotherham,0.6466894681694805,0.3533106344406393,-1.3635008999999998,53.4326
347,Castleford,0.5910758553677883,0.4089241672726459,-1.345968,53.72346999999999
348,Thirsk,0.5841620447715948,0.4158379505687015,-1.341377,54.23385
349,Banbury,0.7096196781306277,0.29038033794652696,-1.339775,52.0629
350,Stockton,0.842062544033153,0.157937464711189,-1.3289821000000002,54.57046
351,Newbury,0.7041016406285685,0.2958982650223894,-1.3231138999999998,51.40141
352,Isle of Wight,0.6579226456018058,0.34207734565467185,-1.304734,50.69385
353,Isle of Wight,0.6579226456018058,0.34207734565467185,-1.304734,50.69385
354,Abingdon,0.6830199856879274,0.3169800872277952,-1.2879528999999998,51.67078
355,Shetland Islands,0.8214005622402132,0.17859953069687784,-1.2659409,60.52965
356,Rugby,0.8277676350615322,0.172232319108406,-1.265032,52.37088
357,Oxford,0.6638501135692011,0.33614982199324384,-1.2577263,51.75202
358,Middlesbrough,0.842062544033153,0.157937464711189,-1.234956,54.57423000000001
359,Hartlepool,0.851433214250616,0.14856668324320327,-1.212926,54.69174
360,Loughborough,0.8539160958216777,0.14608405068101665,-1.206166,52.7721
361,Mansfield,0.7096196781306277,0.29038033794652696,-1.198674,53.1472
362,Nottingham,0.8510334728091387,0.14896642470681287,-1.1581086,52.95478000000001
363,Bicester,0.6265003107408365,0.3734997929870731,-1.1535898999999998,51.8996
364,Leicester,0.8258935010180395,0.1741064532556617,-1.1397592,52.63688000000001
365,Doncaster,0.635751113891707,0.3642490446898776,-1.128462,53.52282
366,Worksop,0.7050179454563322,0.2949820155097473,-1.122745,53.3093
367,Basingstoke,0.7441073433111821,0.2558925878077525,-1.0923964,51.26654
368,Portsmouth,0.5254354870187841,0.4745644562071046,-1.0879769,50.81977
369,York,0.5901764371244638,0.4098236409316213,-1.0872979,53.95997
370,Selby,0.6430569147102908,0.35694318810094794,-1.067189,53.78352
371,Helmsley,0.6435673878530093,0.3564325211494793,-1.0562636,54.24651
372,Towcester,0.6063150289217365,0.39368496519204144,-0.989688,52.13511
373,Reading,0.6346828298039907,0.3653172181050328,-0.9781303,51.45426
374,Retford,0.703804049181485,0.2961959118518029,-0.945503,53.32136
375,Petersfield,0.5376298156178762,0.4623700715670098,-0.93899,51.00759
376,Northampton,0.7274737808093656,0.2725262342792811,-0.902656,52.24048
377,Melton Mowbray,0.8310544287835985,0.16894549752143684,-0.887126,52.7664
378,Aylesbury,0.6026373522942917,0.3973625866572501,-0.8084,51.81561
379,Newark-on-Trent,0.7870543568079925,0.21294559961607104,-0.80657,53.07004000000001
380,Malton,0.6651260195967428,0.3348741096755484,-0.7978970000000001,54.13684
381,Chichester,0.5556430951171475,0.444356957167979,-0.774936,50.83761
382,Gainsborough,0.6417502806356551,0.3582496284674388,-0.774465,53.40057
383,Milton Keynes,0.5835311509037785,0.4164688167885213,-0.7594171,52.04062
384,Aldershot,0.6843174843972111,0.31568250539789394,-0.7557509,51.24837
385,High Wycombe,0.7775480402565101,0.22245208279144,-0.748229,51.62861
386,Midhurst,0.6746937922424139,0.3253062811342957,-0.737274,50.9869
387,Kettering,0.7301548721256469,0.2698450320828513,-0.7302489999999999,52.39632
388,Wellingborough,0.7215327482085688,0.2784673225748621,-0.693964,52.30242
389,Corby,0.7362052522814189,0.26379470695794865,-0.6842333,52.4923
390,Bognor Regis,0.5506690270974313,0.44933108082894196,-0.673061,50.783
391,Scunthorpe,0.7327166500338423,0.2672834201303821,-0.654413,53.58865
392,Grantham,0.7897498432454353,0.21025008534646347,-0.643582,52.91252
393,Whitby,0.8150362577114248,0.184963863260958,-0.613347,54.48634000000001
394,Slough,0.8133736212173014,0.186626472164208,-0.5950406,51.51054
395,Guildford,0.6503209143116568,0.34967907736569714,-0.570409,51.23622
396,Woking,0.6624034038924963,0.3375966701646813,-0.5600349,51.31677
397,Lincoln,0.7211792372523592,0.2788208335506443,-0.540579,53.23069
398,Bedford,0.5160327046079612,0.4839672391385206,-0.4667782,52.13864
399,Heathrow,0.7653988348256734,0.23460106743151274,-0.4542955,51.47002
400,Driffield,0.659528808928297,0.3404711822392542,-0.443377,54.006
401,Beverley,0.6282507021081931,0.3717492354252435,-0.435093,53.84196
402,Luton,0.5741087136159854,0.4258911715492152,-0.4200255,51.87867
403,Scarborough,0.7299226123822956,0.2700773472049158,-0.399752,54.28311
404,Worthing,0.5779735268185259,0.4220264688644032,-0.372882,50.81787
405,Dorking,0.5654425738476637,0.4345575609436865,-0.332378,51.2322
406,Hull,0.7007251542284975,0.2992748900240365,-0.3274198,53.76762
407,Horsham,0.5169769691902881,0.48302291913806,-0.325858,51.06288
408,Biggleswade,0.4332629725648368,0.5667370864959693,-0.26421999999999995,52.08694000000001
409,Peterborough,0.5977695867077665,0.4022305739766978,-0.2405299,52.5695
410,Welwyn Garden City,0.6349505236917394,0.3650495795683169,-0.208661,51.80317
411,Bridlington,0.6924119717578798,0.307588072954921,-0.198802,54.08535
412,Stevenage,0.4862962598983759,0.513703796226197,-0.196612,51.90376
413,Crawley,0.6416281989350376,0.3583718485894497,-0.1872275,51.10914
414,Huntingdon,0.5176460654950326,0.4823540165767581,-0.182552,52.33146
415,Hove,0.6273451936213001,0.3726547716451975,-0.168749,50.82793
416,Spalding,0.7178810935309157,0.2821190051376189,-0.1537024,52.7901
417,Brighton,0.6269675985200709,0.373032339084406,-0.137163,50.82253
418,London,0.6984474031339835,0.3015525028300256,-0.12775830000000002,51.50735
419,Grimsby,0.7063932331857373,0.2936068107529789,-0.08078400000000001,53.56746999999999
420,Boston,0.7251340199621571,0.2748659398901785,-0.026577,52.97894
421,Royston,0.3273306600855128,0.6726692387427655,-0.024066,52.04814
422,Louth_Lincs,0.7285988148939675,0.2714012554982445,-0.007711,53.36596
423,Lewes,0.6243031169589754,0.3756968761588765,0.00878,50.87387
424,Chatteris,0.4966740349386202,0.503325937562598,0.054012,52.4561
425,Uckfield,0.5804157144893816,0.419584419472968,0.095913,50.96641
426,Cambridge,0.4966740349386202,0.503325937562598,0.121817,52.20534
427,Bishop's Stortford,0.4577571017084514,0.5422429006303624,0.1536502,51.87216
428,Wisbech,0.5693765943634795,0.4306233187466456,0.158797,52.66631999999999
429,Sevenoaks,0.4505678460054232,0.5494321290485035,0.190898,51.27241
430,Tunbridge Wells,0.4357619102325781,0.5642380102752379,0.263695,51.13238
431,Eastbourne,0.5160692460693704,0.4839308637726492,0.29047199999999995,50.76803
432,Brentwood,0.14043880204909007,0.8595611901753958,0.30717490000000003,51.62047000000001
433,Skegness,0.7902808017528832,0.20971915449254594,0.337881,53.1464
434,Downham Market,0.6166980637177891,0.3833020682357571,0.385472,52.60661
435,King's Lynn,0.6207818488595324,0.37921817213620396,0.4022963,52.75168000000001
436,Bexhill,0.5133247608541291,0.4866752660910611,0.4662071,50.84991
437,Chelmsford,0.01,1.0,0.4685497,51.73559
438,Mildenhall,0.5193936885698588,0.4806063657222471,0.5156095,52.34757000000001
439,Medway,0.056487285924478076,0.9435127663139086,0.5417860999999999,51.40474
440,Braintree,0.0895393145984521,0.9104607081270542,0.5509269,51.88009
441,Gillingham,0.056487285924478076,0.9435127663139086,0.551438,51.38632
442,Hastings,0.5286860161086941,0.4713140099860069,0.573453,50.85426
443,Maldon,0.053064845868392566,0.9469352342424074,0.6714479999999999,51.7318
444,Southend,0.05691997004707499,0.9430799991185757,0.7077123000000001,51.54593
445,Bury St Edmunds,0.4984977860580484,0.5015022970739035,0.7104931999999999,52.24292
446,Thetford,0.5934676601145797,0.4065325008080646,0.751657,52.41286
447,Ashford,0.3416864714928156,0.6583135095894213,0.8750190000000001,51.14647
448,Faversham,0.09580036181583376,0.9041997436118048,0.889358,51.31599
449,Colchester,0.0947788618718918,0.9052211882464494,0.891874,51.89593
450,New Romney,0.3393846362532819,0.6606152895905439,0.939473,50.98512
451,Canterbury,0.09580036181583376,0.9041997436118048,1.0789089,51.28023
452,Ipswich,0.2977193421983286,0.702280752049893,1.14822,52.05674000000001
453,Clacton,0.1098040464131926,0.8901960859220469,1.153035,51.78953
454,Folkestone,0.2799239273212479,0.7200761402293054,1.169456,51.0814
455,Sheringham,0.7483370174693098,0.251662968781299,1.2109589,52.94442
456,Harwich,0.15981795708316088,0.8401822278488694,1.260297,51.93473
457,Norwich,0.6160763052153249,0.3839237990897189,1.297355,52.63089
458,Cromer,0.6685847242849845,0.3314153217470319,1.301866,52.93145
459,Dover,0.25405284947270945,0.7459471364614377,1.3134027,51.12788
460,Felixstowe,0.2764690982425497,0.7235310525480639,1.351255,51.96173
461,Margate,0.15899964981099465,0.8410003137029269,1.3868339,51.38965
462,Ramsgate,0.10217546268549284,0.8978246423891828,1.419895,51.33555
463,Great Yarmouth,0.5756631098721465,0.4243368305728473,1.728047,52.59823000000001
464,Lowestoft,0.5711095454878907,0.4288904228921417,1.7534490000000005,52.48114
465,Swaffham,0.6295947081319977,0.3704053677416611,0.687481,52.64747
466,Dereham,0.6754415080550389,0.32455845454856513,0.937827,52.68162
467,Ely,0.5114777560774401,0.4885222432870841,0.262363,52.39954
468,March,0.4966740349386202,0.503325937562598,0.088622,52.55172
469,St Neots,0.5638992507616268,0.436100911798098,-0.26510300000000003,52.23008
470,Banham,0.5756631098721465,0.4243368305728473,1.0402849,52.45125
471,Holt,0.6638501135692011,0.33614982199324384,1.086747,52.90936
472,Cromer,0.6685847242849845,0.3314153217470319,1.301866,52.93145
473,Hunstanton,0.6731875642762921,0.32681234308625,0.491032,52.93891
474,Horncastle,0.7693090480257229,0.23069104779545904,-0.11245,53.20731
475,Market Weighton,0.659528808928297,0.3404711822392542,-0.6677465,53.86484
476,Hawes,0.6225056646185915,0.3774944670134121,-2.1968695,54.30383000000001
477,Reeth,0.5525990806500505,0.4474008333889761,-1.9428115,54.38946
478,Aysgarth,0.5303788269914057,0.46962108827786403,-1.9967434,54.29159
479,Stanhope,0.8325066750453657,0.16749333422804552,-2.011302,54.74946
480,Keswick,0.7027335504597445,0.2972663275840323,-3.134706,54.60128
481,Oxenholme,0.7800032389022614,0.2199967732780473,-2.7243328,54.30134
