,placename,jab,jag,shot,longitude,latitude
0,Dingle,0.17586784350095258,0.024019889667966185,0.9677426194349992,-10.264013499999999,52.14094
1,Tralee,0.17586784350095258,0.024019889667966185,0.9677426194349992,-9.6999325,52.27131
2,Killarney,0.18322056092355246,0.023810565582138832,0.959103546982626,-9.5044265,52.05994000000001
3,Bantry,0.1824775879173018,0.024125936967908983,0.959672989177582,-9.4539805,51.68035
4,Mayo,0.3300476167513962,0.028240437231927488,0.7777050201361306,-9.4289369,54.01526
5,Ballycastle,0.329972242678298,0.04534875225500445,0.7601436144300396,-9.3724643,54.279669999999996
6,Abbeyfeale,0.17586784350095258,0.024019889667966185,0.9677426194349992,-9.2970823,52.386179999999996
7,Ennistymon,0.17586784350095258,0.024019889667966185,0.9677426194349992,-9.2934951,52.940369999999994
8,Galway,0.17493971244557038,0.024046313377489973,0.9688331956501488,-9.0567905,53.270669999999996
9,Claremorris,0.2362822698176463,0.02551528965833769,0.8934408267653179,-9.0017356,53.72388
10,Clare,0.17586784350095258,0.024019889667966185,0.9677426194349992,-8.9811351,52.90453
11,Adare,0.17586784350095258,0.024019889667966185,0.9677426194349992,-8.7925892,52.56363
12,Charleville,0.17214291298788906,0.024125936967908983,0.9721193665679668,-8.681017599999999,52.36206
13,Mallow,0.1861571067217289,0.024019889667966185,0.955350949586597,-8.6539164,52.13898
14,Limerick,0.17586784350095258,0.024019889667966185,0.9677426194349992,-8.6267343,52.66384
15,Loughrea,0.17586784350095258,0.024019889667966185,0.9677426194349992,-8.5660931,53.19891
16,Sligo,0.5646606551551884,0.03861855065174568,0.4844456670211559,-8.476088800000001,54.27661
17,Cork,0.1861571067217289,0.024019889667966185,0.955350949586597,-8.4756035,51.898509999999995
18,Nenagh,0.16047982854036932,0.024358952500875282,0.9859250428529256,-8.19834,52.8635
19,Roscommon,0.1728521783341207,0.026473272763447884,0.9688432119284476,-8.1890955,53.62759000000001
20,Tipperary,0.17214291298788906,0.024125936967908983,0.9721193665679668,-8.161851400000002,52.47379
21,Donegal,0.6324544841253307,0.02101740380100321,0.4209602624329191,-8.1096143,54.653830000000006
22,Leitrim,0.3019679655507714,0.026591361143720658,0.8132236422778306,-8.0020132,54.12469
23,Athlone,0.1646183801315815,0.026377433195774853,0.9788582329065884,-7.9406898,53.42393000000001
24,Longford,0.20877401027053685,0.02592894325435292,0.9261430676590834,-7.7932573000000005,53.72763000000001
25,Offaly,0.16480845388113294,0.02504747715733017,0.9800017547234068,-7.7122229,53.23569000000001
26,Fermanagh,0.6594636830393823,0.042034804869744036,0.36674671213198135,-7.6318728,54.343830000000004
27,Enniskillen,0.6594636830393823,0.042034804869744036,0.36674671213198135,-7.631533599999999,54.343819999999994
28,Doon,0.6541088467158205,0.04062843564918255,0.3746469790481786,-7.60964,54.185930000000006
29,Westmeath,0.14752204223476167,0.026786887304504577,0.9990255060509654,-7.4653217000000005,53.534530000000004
30,Strabane,0.6538368446259456,0.06403739964468567,0.3508214836692152,-7.4633103,54.82739
31,Balivanich,0.17858552358997815,0.7352599772249536,0.2306236209856981,-7.3743509000000005,57.472269999999995
32,Cavan,0.3366089064064685,0.027254486689046082,0.7708201608326183,-7.3633319,53.98972
33,Mullingar,0.14752204223476167,0.026786887304504577,0.9990255060509654,-7.3401868000000015,53.525819999999996
34,Laois,0.1485894514686943,0.024596511786187568,1.0,-7.3323006999999985,52.9943
35,Omagh,0.6552600569378555,0.06378822824423781,0.3493646268442145,-7.309959700000001,54.59771
36,Derry,0.6355492686608181,0.08538319952624758,0.3508214836692152,-7.308574799999999,54.99661
37,Derry,0.6355492686608181,0.08538319952624758,0.3508214836692152,-7.308574799999999,54.99661
38,Kilkenny,0.18139449525822174,0.02386255233853518,0.9612491674197716,-7.2447879,52.65415
39,Tyrone,0.6734764722873876,0.04252548367465028,0.3493646268442145,-7.1312320000000025,54.491209999999995
40,Waterford,0.1898045564329432,0.023914768604971853,0.9510667423780408,-7.110070200000001,52.25932
41,Western Isles,0.2495850914765032,0.6968928356965489,0.1847033264068688,-7.0194034,57.75989000000001
42,Monaghan,0.6734764722873876,0.04252548367465028,0.3493646268442145,-6.9683132,54.2492
43,Carlow,0.16480845388113294,0.02504747715733017,0.9800017547234068,-6.934135899999999,52.83651
44,Kildare,0.18065152225197129,0.027391102540550463,0.9585032158596326,-6.8194707999999995,53.21204
45,Dungannon,0.6734764722873876,0.04252548367465028,0.3493646268442145,-6.7669352,54.508269999999996
46,Cookstown,0.6552600569378555,0.06378822824423781,0.3493646268442145,-6.7443895000000005,54.641819999999996
47,Coleraine,0.6464157755594179,0.2771860380517811,0.13983551348404186,-6.6646103000000005,55.132580000000004
48,Meath,0.2731565772305693,0.02788022942042212,0.8465919332587608,-6.656416900000001,53.60555
49,Armagh,0.5151714900611561,0.036798145318435074,0.5459252280117094,-6.652792,54.35028000000001
50,Armagh,0.5151714900611561,0.036798145318435074,0.5459252280117094,-6.652792,54.35028000000001
51,Magherafelt,0.6385263104672116,0.08472131442804487,0.3479190633518523,-6.607980499999999,54.75536999999999
52,Dunvegan,0.2074252357078352,0.7168292936560747,0.2149075503433145,-6.5813982000000015,57.4366
53,Louth,0.3950282605957924,0.02409933839359256,0.7037194802477922,-6.4889423,53.925230000000006
54,Wexford,0.3223615680241647,0.023419393041026068,0.7919358258374378,-6.4633381,52.33692
55,Craigavon,0.5151714900611561,0.036798145318435074,0.5459252280117094,-6.4175653,54.442930000000004
56,Stornoway,0.4931861369757581,0.4202044000025574,0.1768103074083484,-6.3848692000000025,58.20943000000001
57,Drogheda,0.3485210530085727,0.024670539703242424,0.7591402133834325,-6.3560985,53.717859999999995
58,Rosslare,0.33360588161214383,0.011862210040703609,0.7903184999459241,-6.3414908,52.25131
59,Newry,0.4330650141174235,0.024670539703242424,0.6573215419739346,-6.34023,54.1751
60,Scilly Isles,0.8963878028832223,0.01,0.12478308823268232,-6.327496599999999,49.92773
61,Ballymena,0.6576074209286179,0.26477594109635744,0.1391615924571048,-6.2802213,54.86529
62,Banbridge,0.4496040052190693,0.012918497214157951,0.6495286829392972,-6.2704803,54.34873
63,Dublin,0.2553652529268315,0.02809524207653472,0.8677969666954265,-6.2603097000000005,53.34981
64,Antrim,0.6205868129079739,0.15524218145358873,0.2967619523236881,-6.2072498,54.719530000000006
65,Antrim,0.6205868129079739,0.15524218145358873,0.2967619523236881,-6.2072498,54.719530000000006
66,Portree,0.25509746429445873,0.6961881906920236,0.17879179676223145,-6.1960231,57.41246999999999
67,Islay,0.1349799837360541,0.8339754368518698,0.18128594872727752,-6.177067,55.73625
68,Wicklow,0.35104023243304217,0.02497117053344636,0.7557960168376316,-6.044589,52.980819999999994
69,Kilkeel,0.4363922410584578,0.01249034350166638,0.6658815836506734,-6.007004,54.06312
70,Mull,0.0401991935442343,0.9404820082434542,0.18554154766333844,-6.0008870000000005,56.4392
71,Belfast,0.5818033410845346,0.19814116539624665,0.2992073929820288,-5.93012,54.59728000000001
72,Broadford,0.22077580988505205,0.7012460482606062,0.2149075503433145,-5.9096592,57.24139
73,Down,0.4549433921984556,0.012797482580871005,0.6432231129627692,-5.7156921999999994,54.32875
74,Kyle of Lochalsh,0.2692984546442365,0.6796122815849942,0.17879179676223145,-5.7143293,57.28261
75,Campbeltown,0.31966308257487186,0.6005566820673369,0.19970457363508293,-5.605373999999999,55.424119999999995
76,Penzance,0.8963878028832223,0.01,0.12478308823268232,-5.537592,50.1188
77,Oban,0.09482409517170558,0.8685895864846566,0.19393266296005549,-5.471047,56.41516
78,Lochgilphead,0.021713350995522848,0.955203284966278,0.19261538845630607,-5.4323449,56.03829
79,Helston,0.8980708450744447,0.01,0.12275612108495874,-5.274996,50.10159
80,Redruth,0.8980708450744447,0.01,0.12275612108495874,-5.226666000000002,50.23302
81,Ullapool,0.6413437090504601,0.2969508853431773,0.12555098128911854,-5.161313,57.895419999999994
82,Ballachulish,0.16730562969420132,0.7481854389759306,0.2308719474440437,-5.133719999999999,56.67393000000001
83,Fort William,0.2079617492964698,0.7200915821564251,0.2108954290058542,-5.1052179,56.81981999999999
84,Achnasheen,0.6086065487429149,0.33210705572334376,0.12870371553350152,-5.078765799999998,57.57859000000001
85,Newquay,0.8980708450744447,0.01,0.12275612108495874,-5.0737190000000005,50.4155
86,Falmouth,0.8980708450744447,0.01,0.12275612108495874,-5.066269999999999,50.152570000000004
87,Rothesay,0.01,0.9923275777133292,0.17341351764894175,-5.055793,55.83596
88,Truro,0.8980708450744447,0.01,0.12275612108495874,-5.0510410000000014,50.2632
89,Milford Haven,0.9439879345303612,0.01,0.06745680114204858,-5.0426971,51.71431
90,Stranraer,0.5379541229383903,0.4127878431591773,0.13054725482764035,-5.0240550000000015,54.903369999999995
91,Fishguard,0.9644384186800362,0.01,0.04282785816065858,-4.975989,51.99393
92,Inchnadamph,0.6494199707586048,0.28752387245952193,0.12555098128911854,-4.974295,58.15221
93,Haverfordwest,0.9439879345303612,0.01,0.06745680114204858,-4.971319,51.800470000000004
94,Dunoon,0.013735403295766665,0.9819913334822964,0.17458384069226926,-4.926214,55.95097
95,Pembroke,0.9426068567934744,0.01,0.06912027859337917,-4.9086370000000015,51.67404000000001
96,Girvan,0.03119643934751355,0.9510956700034694,0.18543280352624414,-4.8542179,55.240159999999996
97,Wadebridge,0.8987314215784267,0.01,0.12196075867424645,-4.836456,50.51665
98,Invergarry,0.4451272066228061,0.4624971686931037,0.19105206533064945,-4.800261,57.07095
99,St Austell,0.897403246141292,0.01,0.12356022553873455,-4.7834252,50.340379999999996
100,Greenock,0.03404333213327817,0.9640964247089856,0.16859007776928278,-4.7719830000000005,55.956480000000006
101,Helensburgh,0.037732448257571466,0.9361916513755604,0.1929388891553256,-4.734014,56.00232
102,Bodmin,0.8980708450744447,0.01,0.12275612108495874,-4.7188629,50.4715
103,Tenby,0.9426068567934744,0.01,0.06912027859337917,-4.703579,51.67274000000001
104,Camelford,0.8987314215784267,0.01,0.12196075867424645,-4.682364,50.62206
105,Irvine,0.01,1.0,0.17254480495816885,-4.6696364,55.61156999999999
106,Cardigan,0.9633340246524716,0.01,0.044158007514672616,-4.660864,52.0837
107,Holyhead,0.676650610272503,0.01,0.3894189287734416,-4.633038,53.30944
108,Ayr,0.01,1.0,0.17254480495816885,-4.629179,55.45856
109,Dumbarton,0.037732448257571466,0.9525443428425352,0.1760664443986948,-4.564554,55.94529
110,Bude,0.9172907655524568,0.01,0.09960910522491366,-4.543678,50.82664000000001
111,Isle of Man,0.9230203655127568,0.01803473503311748,0.07410090610190999,-4.5126330999999995,54.27697
112,Kilmarnock,0.01,1.0,0.17254480495816885,-4.498792,55.61472
113,Newton Stewart,0.18635607554822933,0.7051695333290382,0.2523120547287868,-4.483164,54.9603
114,Liskeard,0.897403246141292,0.01,0.12356022553873455,-4.4647190000000005,50.45552
115,Altnaharra,0.6252773274319959,0.3186356688220392,0.12252613290140445,-4.442655,58.28023
116,Pwllheli,0.9721216584355992,0.01,0.033574635335018935,-4.417633900000001,52.888819999999996
117,Lairg,0.6252773274319959,0.3186356688220392,0.12252613290140445,-4.402414,58.022059999999996
118,Launceston,0.8980708450744447,0.01,0.12275612108495874,-4.360451599999998,50.636829999999996
119,Carmarthen,0.9820853150238316,0.01,0.021575060636400658,-4.312131,51.857620000000004
120,Llangefni,0.9654180475493359,0.01,0.04164791069455824,-4.311401999999998,53.25579000000001
121,Caernarfon,0.9654180475493359,0.01,0.04164791069455824,-4.273911,53.13955
122,Cumnock,0.01,0.9956434568080956,0.17487859780177736,-4.265828900000002,55.45355
123,Aberaeron,0.9633340246524716,0.01,0.044158007514672616,-4.2581619,52.24279
124,Alness,0.6519569403369737,0.2855534085437736,0.1245288783032392,-4.256825,57.69595
125,Glasgow,0.07981365281952904,0.8901670576260914,0.18974680585029136,-4.251806,55.86424
126,Dalwhinnie,0.4402108039604625,0.473205363999372,0.18592456529662285,-4.242783,56.9366
127,Inverness,0.6519569403369737,0.2855534085437736,0.1245288783032392,-4.224721,57.47776999999999
128,Saltash,0.8967281566170244,0.01,0.12437321580990345,-4.21643,50.409209999999995
129,Bideford,0.9306968169201218,0.01,0.08346376953987583,-4.206666,51.01668
130,Invergordon,0.6519569403369737,0.2855534085437736,0.1245288783032392,-4.1728819999999995,57.688109999999995
131,Llanelli,0.9574429088212479,0.01,0.051252650479767035,-4.160248,51.68089000000001
132,Plymouth,0.8967281566170244,0.01,0.12437321580990345,-4.1426565,50.37546
133,Tavistock,0.9162280379379708,0.01,0.1008891055289259,-4.141654,50.551120000000004
134,Porthmadog,0.9733206211759948,0.01,0.03213085069759812,-4.1333839999999995,52.92784
135,Bangor,0.9616823493115444,0.01,0.046147133822653945,-4.129263,53.22739
136,Tywyn,0.9188361681319356,0.01,0.09774795498494528,-4.087249,52.58701
137,Aberystwyth,0.9509092407209132,0.01,0.05912127858612844,-4.08292,52.4153
138,Lampeter,0.9628796734851328,0.01,0.044705102668233916,-4.0785089999999995,52.1129
139,Barnstaple,0.9108820966913588,0.01,0.10732733128694162,-4.058338,51.07816
140,Tain,0.6519569403369737,0.2855534085437736,0.1245288783032392,-4.05523,57.8115
141,Okehampton,0.9315879631818721,0.01,0.08239053927473218,-4.004263,50.73831
142,Llandeilo,0.9813189339203454,0.01,0.02249806927989911,-3.9914300000000003,51.88469
143,Motherwell,0.1125098489569119,0.8450725205278972,0.1968977886188759,-3.9810968,55.78321
144,Golspie,0.6519569403369737,0.2855534085437736,0.1245288783032392,-3.976086,57.97341
145,Airdrie,0.1113396781761161,0.8444665402503507,0.19893202341800792,-3.9625660000000003,55.86626999999999
146,Swansea,0.9558059805815788,0.01,0.053224002333857684,-3.9436459999999998,51.62144
147,Stirling,0.10871890760964456,0.8563807479765001,0.18979554252893724,-3.9369029,56.116519999999994
148,Tregaron,0.939446529585728,0.01,0.0729262980197381,-3.934385,52.22
149,Tregaron,0.939446529585728,0.01,0.0729262980197381,-3.934385,52.22
150,Castle Douglas,0.3661824623726544,0.6132847952385191,0.13054725482764035,-3.9314139999999997,54.940419999999996
151,Dolgellau,0.9424188897726744,0.01,0.06934667805690134,-3.8844,52.74215
152,Aberfeldy,0.39537235962515227,0.4857355356898222,0.2269962341161645,-3.866969,56.62175
153,Machynlleth,0.9316982153198504,0.01,0.08225789758876692,-3.853485,52.59027
154,Brora,0.6519569403369737,0.2855534085437736,0.1245288783032392,-3.852548000000001,58.012159999999994
155,Llandudno,0.9722106092050936,0.01,0.03346750372570032,-3.827609,53.324059999999996
156,Llandudno,0.9722106092050936,0.01,0.03346750372570032,-3.827609,53.324059999999996
157,Aviemore,0.6463385288385414,0.2987439516590653,0.11768547393144185,-3.823812,57.19449
158,Dalbeattie,0.36899073179798064,0.6106488997479925,0.12988477090767148,-3.8225269999999996,54.934219999999996
159,Falkirk,0.2130445835301564,0.7253225913891221,0.19937671178139746,-3.7839131,56.00188000000001
160,Kingsbridge,0.9120377544518686,0.01,0.10593559013774853,-3.777493,50.28395
161,Pitlochry,0.4446927523381178,0.4250780019926936,0.23018373919548601,-3.729711,56.70436
162,Colwyn Bay,0.9722106092050936,0.01,0.03346750372570032,-3.72764,53.29318000000001
163,Totnes,0.92339068161102,0.01,0.0922627754289062,-3.685797,50.43374
164,Grantown-on-Spey,0.6405747530562783,0.29908459373963275,0.124275536657983,-3.609628,57.33041
165,Dumfries,0.2644885588243143,0.7403549689716088,0.12191133413410185,-3.60512,55.070859999999996
166,Whitehaven,0.90254787775168,0.017076639905249515,0.09974498888105718,-3.589233,54.5497
167,Dartmouth,0.9266991820742662,0.01,0.08827839407975427,-3.578807,50.35252
168,Bridgend,0.958149833357756,0.01,0.05040141059870303,-3.576945,51.50429000000001
169,Paignton,0.9271879431445408,0.01,0.0876896071896998,-3.564235,50.43508
170,Workington,0.8941879099050425,0.032526933413071675,0.09387185543974914,-3.5427519999999997,54.64357
171,Llanidloes,0.9128940226487386,0.01,0.10490426022283128,-3.5401949999999998,52.44779000000001
172,Exeter,0.924946383753282,0.01,0.09038913373688552,-3.533899,50.71841
173,Torquay,0.9266991820742662,0.01,0.08827839407975427,-3.525315,50.46192
174,Thurso,0.6506929030862638,0.2865352524962906,0.12503817208452134,-3.5220800000000003,58.59356999999999
175,Livingston,0.3743994067451836,0.5601449093607473,0.17548032720060458,-3.518068,55.90071
176,Rhyl,0.9726331253601921,0.01,0.03295881041367731,-3.4916339999999995,53.319140000000004
177,Tiverton,0.9174724123870032,0.01,0.09939023558951868,-3.491207,50.90205
178,Tiverton,0.9174724123870032,0.01,0.09939023558951868,-3.491207,50.90205
179,Minehead,0.9105644488118748,0.01,0.1077099232354461,-3.481152,51.20428
180,Dunfermline,0.4364109675362461,0.4916181457851056,0.17150290340136576,-3.452151,56.07174000000001
181,Perth,0.4605889570896805,0.4567363983743476,0.1783748624826728,-3.4308381000000003,56.39499
182,Prestatyn,0.9718887478681074,0.01,0.03385506857454789,-3.4076129999999996,53.33651
183,Builth Wells,0.9012932037398648,0.01,0.1188753982083779,-3.4045919999999996,52.15002
184,Braemar,0.6277000654958561,0.3039258156882462,0.13478582355339938,-3.3979439,57.00646999999999
185,Brecon,0.8888831669095645,0.01,0.13382109216325824,-3.391463,51.94895
186,Merthyr Tydfil,0.9507409365017908,0.01,0.05932400602913988,-3.381646,51.74873
187,Llandrindod Wells,0.8941879099050425,0.01,0.1274326235997184,-3.377742,52.2417
188,Corwen,0.9668962688897492,0.01,0.039867863272033344,-3.369242,52.98005
189,Cockermouth,0.9214705153948032,0.01636085273471869,0.07769435941054241,-3.367985,54.66326
190,Lockerbie,0.3817788093986319,0.6111890079117029,0.11392646025356402,-3.349008,55.12224000000001
191,Blairgowrie,0.4555377237872616,0.4279447108127044,0.2141649672071052,-3.3378318,56.58941
192,Elgin,0.6405747530562783,0.29908459373963275,0.124275536657983,-3.318485,57.64945
193,Newtown,0.922544712976934,0.01,0.09328158851983066,-3.313106,52.51211
194,Ruthin,0.9608902193010996,0.01,0.047100997564936464,-3.3103108,53.114869999999996
195,Ruthin,0.9608902193010996,0.01,0.047100997564936464,-3.3103108,53.114869999999996
196,Sidmouth,0.9288592812871456,0.01,0.08567678348926723,-3.2375599999999998,50.67865
197,Barrow-in-Furness,0.9516292737918728,0.01,0.05825413613656365,-3.2188939999999997,54.10896999999999
198,Peebles,0.36771733130837664,0.5753786136970609,0.16780981730139238,-3.1936419999999996,55.65306999999999
199,Edinburgh,0.4404189019448851,0.5070177612902137,0.15078676470579944,-3.1882669999999997,55.95325
200,Cardiff,0.9640201159824398,0.01,0.04333152782845745,-3.17909,51.48158
201,Llangollen,0.9638145928887136,0.01,0.043579166425304336,-3.1716599999999997,52.96921
202,Kirkcaldy,0.4622528046411704,0.4553770650507411,0.17777377302056774,-3.158137,56.11682
203,Welshpool,0.9369715914650334,0.01,0.0759069738589965,-3.146407,52.66035
204,Mold,0.9646476870693199,0.01,0.042575914791235785,-3.1419029999999997,53.1672
205,Mold,0.9646476870693199,0.01,0.042575914791235785,-3.1419029999999997,53.1672
206,Taunton,0.9408615490636056,0.01,0.07122209860386333,-3.106849,51.01534
207,Wick,0.6506929030862638,0.2865352524962906,0.12503817208452134,-3.093716,58.43894
208,John o' Groats,0.6506929030862638,0.2865352524962906,0.12503817208452134,-3.0688997000000002,58.63734
209,Dalkeith,0.42636936198422026,0.5146384618499394,0.15984404849207062,-3.066606,55.893119999999996
210,Oswestry,0.9156117027377644,0.01,0.10163134755349038,-3.056412,52.85715
211,Blackpool,0.947663942120202,0.01,0.06302969634534564,-3.0356748,53.81751
212,Birkenhead,0.9695711121608344,0.01,0.0366464415464376,-3.023009,53.389990000000004
213,Cupar,0.4869490494673954,0.4253821683704235,0.17897954912212355,-3.010137,56.32023
214,Southport,0.9492278370964968,0.01,0.0611463090090585,-3.010113,53.64571
215,Bridgwater,0.9737798880437524,0.01,0.03157755351413048,-3.003632,51.12789
216,Langholm,0.8539311324416099,0.10088353441964808,0.07182501202658173,-2.998913,55.153059999999996
217,Newport,0.9619091737737552,0.01,0.045873753982591234,-2.997664,51.58415
218,Axminster,0.9383615642788692,0.01,0.07423298114787014,-2.9949369999999997,50.78273
219,Wrexham,0.9615117042826986,0.01,0.04635249149016658,-2.9924939999999998,53.04304000000001
220,Liverpool,0.9726783029878562,0.01,0.032904246646023975,-2.9915726,53.40837
221,Weston-super-Mare,0.9734184670224386,0.01,0.03201280633474884,-2.977255,51.347409999999996
222,Dundee,0.4696389956428167,0.4279447108127044,0.19718241104769613,-2.9707209999999997,56.462019999999995
223,Kirkwall,0.6506929030862638,0.2865352524962906,0.12503817208452134,-2.9622491,58.984669999999994
224,Ambleside,0.9038737123790912,0.033766372330969,0.08092797376311311,-2.961333,54.42874000000001
225,Orkney Islands,0.6506929030862638,0.2865352524962906,0.12503817208452134,-2.9605206,58.980940000000004
226,Lyme Regis,0.9603272545625888,0.01,0.04777890198653613,-2.936639,50.725159999999995
227,Carlisle,0.9052384044479128,0.047107971304468935,0.06551879083691355,-2.932931,54.892469999999996
228,Chester,0.9727410366884468,0.01,0.03282886942982585,-2.893075,53.19339
229,Forfar,0.5526551102451155,0.3442220328217937,0.18358745154790995,-2.889062,56.64356
230,Morecambe,0.9596954700182068,0.01,0.048539772653655666,-2.864968,54.074169999999995
231,Selkirk,0.4653780197030638,0.4170743202144848,0.21353010769216005,-2.838524,55.55066
232,Galashiels,0.4788072450869917,0.44185101377590297,0.17179264814306774,-2.814449,55.62373
233,Lancaster,0.9570974053060536,0.01,0.05166890817424497,-2.8007399,54.046569999999996
234,St Andrews,0.4831527242577645,0.4065866649311336,0.2029443505500969,-2.7967214,56.33978000000001
235,Hawick,0.5347605562325699,0.3271641034493556,0.222738687178892,-2.780914,55.42706
236,Bridport,0.961250469917552,0.01,0.0466672219550776,-2.758301,50.733579999999996
237,Shrewsbury,0.9588406063071712,0.01,0.049569318075422635,-2.7553267999999997,52.7073
238,Penrith,0.9325582288122776,0.028023203246496025,0.05230813448206506,-2.752708,54.6641
239,Kendal,0.919574225437766,0.016677084783140058,0.07965205834152557,-2.74629,54.32801
240,Street,0.9817571335005921,0.01,0.02197045131934824,-2.7429189999999997,51.12468
241,Glastonbury,0.9808172983965922,0.01,0.023102409169495988,-2.718454,51.14743
242,Hereford,0.9356244554691379,0.01,0.07752921908786793,-2.715974,52.0564
243,Ludlow,0.9547659588214112,0.01,0.054476677057923466,-2.7139129,52.36775
244,Preston,0.9408456315574859,0.01,0.07124142920343958,-2.70309,53.7632
245,Whitchurch,0.9431063855884771,0.01,0.06851852100350694,-2.682045,52.96872
246,Wells,0.9950129048840056,0.01,0.01,-2.6445979,51.20935
247,Yeovil,0.9972949602834812,0.01,0.01,-2.633308,50.94206
248,Wigan,0.9698845465828156,0.01,0.0362688168600672,-2.6325074,53.54506
249,Warrington,0.9542633869737682,0.01,0.05508185140245319,-2.5969501,53.39004
250,Arbroath,0.5684949014823409,0.3273022657613698,0.1819688711548923,-2.591543,56.55911
251,Bristol,0.9937942793419324,0.01,0.01,-2.58791,51.45451
252,Guernsey,0.9704374458395147,0.01,0.035602961291112865,-2.5852779999999997,49.46569
253,Ross-on-Wye,0.954498872431956,0.01,0.054798272042299014,-2.582446,51.91445
254,Jedburgh,0.7123222096494732,0.1956273774439609,0.1446134924844873,-2.5549369,55.47772
255,Sedbergh,0.9063233697547722,0.01652578028905478,0.0957664148871812,-2.5281740000000004,54.32363
256,Sedbergh,0.9063233697547722,0.01652578028905478,0.0957664148871812,-2.5281740000000004,54.32363
257,Nantwich,0.9597947203504846,0.01,0.04842034974870448,-2.524102,53.067190000000004
258,Banff,0.6653330293401769,0.2671828183537868,0.12737401723620792,-2.524038,57.666509999999995
259,Dunbar,0.5260440830650375,0.3703367699183157,0.18869113296799167,-2.516737,56.00209
260,Cinderford,0.9645301784211988,0.01,0.042717397188922056,-2.5009579,51.8253
261,Banchory,0.6090875851411015,0.2874892710886804,0.17416038018578645,-2.4909599,57.05386
262,Blackburn,0.9633188093892684,0.01,0.044176103346476654,-2.487529,53.748580000000004
263,Market Drayton,0.9365961255853776,0.01,0.07635923433708076,-2.483485,52.90355
264,Telford,0.9773863735848046,0.01,0.027234367820269417,-2.4672611,52.67759
265,Montrose,0.5565012947018579,0.3183937187910745,0.2056046548963341,-2.4661150000000003,56.70692
266,Turriff,0.6653330293401769,0.2671828183537868,0.12737401723620792,-2.4623,57.53893000000001
267,Weymouth,0.9760610071193384,0.01,0.02883053069428015,-2.457621,50.61443
268,Crewe,0.964341977319426,0.01,0.0429439770751324,-2.4438209,53.10041
269,Fortuneswell,0.9787206351272204,0.01,0.02562728655451901,-2.4422189999999997,50.55919
270,Dorchester,1.0,0.01,0.01,-2.4411810000000003,50.71116
271,Alston,0.952323792036846,0.01,0.05741791644429101,-2.438685,54.812169999999995
272,Kelso,0.6060698132455185,0.28443109898205193,0.1809498720030706,-2.432207,55.600030000000004
273,Wincanton,0.9739512353155152,0.01,0.031371398040043526,-2.416007,51.05569000000001
274,Clitheroe,0.9463617496709992,0.01,0.06459804593433091,-2.3930830000000003,53.8711
275,Sark,0.9703082331427756,0.01,0.035758736548628774,-2.3666256000000003,49.43007
276,Bath,0.9537905434096138,0.01,0.05565145710547003,-2.3590167,51.38106
277,Kidderminster,0.9768870788707744,0.01,0.027835617971331127,-2.2496839,52.3886
278,Manchester,0.9609531870826626,0.01,0.04702524258873495,-2.2426305,53.48076
279,Burnley,0.93380564631395,0.01,0.0797197224878038,-2.2405035,53.78929
280,Gloucester,0.9382475668453326,0.01,0.07437032791925066,-2.238156,51.86424
281,Newcastle-under-Lyme,0.9270004442856852,0.01,0.08791533006814126,-2.2273002,53.01321
282,Worcester,0.9699599206559132,0.01,0.03617816573567244,-2.221575,52.19364
283,Trowbridge,0.954565819590049,0.01,0.054717625919785004,-2.208853,51.31966
284,Shaftesbury,0.9866578527377872,0.01,0.01606831493091452,-2.198083,51.0046
285,Alderney,0.9737649068615218,0.01,0.0315955506772769,-2.1973557,49.715
286,Stoke-on-Trent,0.9355261414607492,0.01,0.07764772578385569,-2.179404,53.002669999999995
287,Colne,0.9256465199415921,0.01,0.08954603261052134,-2.176991,53.85564
288,Blandford Forum,0.9798388399321541,0.01,0.0242807525651342,-2.165353,50.85691
289,Rochdale,0.9505272205740322,0.01,0.059581505853537865,-2.1561,53.60971
290,Jersey,0.9734261916945262,0.01,0.032003666797950484,-2.13125,49.21444
291,Wolverhampton,0.9779008835620382,0.01,0.02661448056933913,-2.12882,52.586969999999994
292,Stafford,0.967826038511938,0.01,0.03874808677244256,-2.12066,52.80669
293,Macclesfield,0.934421045190268,0.01,0.07897856863757742,-2.119287,53.25866
294,Hexham,0.964992254260625,0.01,0.0421608749499031,-2.1121439,54.97266
295,Aberdeen,0.6110866366450018,0.2860891614812425,0.17319730642909306,-2.094278,57.149719999999995
296,Dudley,0.9688426521748694,0.01,0.03752371585758575,-2.081112,52.51226
297,Cheltenham,0.9414165550490564,0.01,0.07055365791607984,-2.0782533,51.899390000000004
298,Bromsgrove,0.976649720764808,0.01,0.028121477987028128,-2.061906,52.33559
299,Skipton,0.903629565924926,0.01,0.11606166409957132,-2.0162787,53.96285
300,Fraserburgh,0.6076861423596207,0.2884706205017057,0.17483540630168867,-2.007631,57.69335
301,Berwick,0.7571178171668431,0.17506486800740967,0.11188100823761507,-2.005395,55.77024
302,Poole,0.9949049935557508,0.01,0.01,-1.987248,50.71505
303,Walsall,0.9704805167384276,0.01,0.035551219447066934,-1.9829189999999999,52.586209999999994
304,Cirencester,0.9373859147860992,0.01,0.07540782039661126,-1.968243,51.71849
305,Evesham,0.9478924051492194,0.01,0.0627546560527307,-1.9467700000000001,52.09215
306,Buxton,0.9677623684874574,0.01,0.03882476359581651,-1.91483,53.259080000000004
307,Keighley,0.9130744990784228,0.01,0.10468694109491293,-1.9123580000000002,53.8678
308,Birmingham,0.9819949597685028,0.01,0.02168386397468949,-1.8904009999999998,52.48624
309,Bournemouth,0.9952893545123552,0.01,0.01,-1.880769,50.719159999999995
310,Halifax,0.9201254861276588,0.01,0.09619529089341404,-1.8575400000000002,53.727019999999996
311,Salisbury,0.9812494118715568,0.01,0.02258194327706893,-1.794472,51.06878
312,Ringwood,0.9949049935557508,0.01,0.01,-1.7888169999999999,50.84495
313,Huddersfield,0.9125033415058804,0.01,0.1053746334473466,-1.7850351000000002,53.64579000000001
314,Peterhead,0.6069518303493471,0.2863215649874346,0.17793735155934762,-1.784066,57.50812
315,Swindon,0.9392007445647568,0.01,0.07322224197224192,-1.7797176,51.55577
316,Bradford,0.9085754627897862,0.01,0.11010511899423196,-1.759398,53.79598000000001
317,Ashbourne,0.9358306808057816,0.01,0.07728107869041953,-1.7321790000000001,53.016630000000006
318,Marlborough,0.9305259378103036,0.01,0.0836694852336603,-1.7270619999999999,51.42007
319,Stratford-upon-Avon,0.9512989855398818,0.01,0.058652086566399836,-1.7082979999999999,52.19173
320,Alnwick,0.9445185960946864,0.031863119337625284,0.03394191108875925,-1.7062990000000002,55.41274
321,Otley,0.8960027396837006,0.01,0.1252469183156464,-1.691786,53.90583
322,Bishop Auckland,0.9801365909289874,0.015349789968258216,0.01,-1.6787880000000002,54.663819999999994
323,Burton upon Trent,0.9816635011116506,0.01,0.02208322677588164,-1.6371358999999999,52.81403
324,Newcastle,0.9776635254560718,0.01,0.026900591485336883,-1.61778,54.97825
325,Durham,0.9801365909289874,0.01,0.023922165291471783,-1.5848520000000001,54.77525
326,Ashington,0.9779121194487111,0.01,0.02660093759130727,-1.5659829,55.18298000000001
327,Darlington,0.9666886390672716,0.015436511976353038,0.024190600422236457,-1.559458,54.52361
328,Leeds,0.8882532550129609,0.01,0.1345799302560312,-1.5490774,53.80076
329,Harrogate,0.8918794033556914,0.01,0.13021260738941645,-1.5418120000000002,53.99211999999999
330,Leamington Spa,0.9513266070946196,0.01,0.058618776027593765,-1.5200789,52.28519
331,Coventry,0.9629274260034936,0.01,0.044647702881450695,-1.519693,52.40682
332,Blyth,0.9779121194487111,0.01,0.02660093759130727,-1.510277,55.12696
333,Wakefield,0.9268829356375636,0.01,0.0880568688479176,-1.505924,53.6833
334,Andover,0.9292583893450086,0.01,0.08519618819182448,-1.4919233,51.2112
335,Witney,0.9104183822851264,0.01,0.10788584099463512,-1.4850543999999999,51.785940000000004
336,Barnsley,0.9485777942362708,0.01,0.0619291292238375,-1.479726,53.55263000000001
337,Derby,0.9439699102954896,0.01,0.06747858718164686,-1.4746186000000001,52.92253
338,Sheffield,0.9640950218935932,0.01,0.04324138696197772,-1.470085,53.38113000000001
339,Nuneaton,0.9528141916739268,0.01,0.05682736197571325,-1.465382,52.52049
340,Northallerton,0.8981312379653119,0.01104688381923068,0.11128546113496267,-1.429959,54.337959999999995
341,South Shields,0.9784011145999576,0.01,0.02601217889229784,-1.427406,54.99941999999999
342,Chesterfield,0.9711321981654606,0.01,0.03476642585913592,-1.421629,53.23505
343,Southampton,0.9953312550064064,0.01,0.01,-1.4043508999999998,50.9097
344,Wetherby,0.8818015152529499,0.01,0.1423497656641935,-1.384816,53.92706
345,Sunderland,0.9787601948115484,0.01,0.0255795929445392,-1.383801,54.90687
346,Rotherham,0.9605763167171734,0.01,0.047479028202355285,-1.3635008999999998,53.4326
347,Castleford,0.9230257493751208,0.01,0.09270223999165184,-1.345968,53.72346999999999
348,Thirsk,0.8875997009381497,0.011136939187435005,0.12387591168007207,-1.341377,54.23385
349,Banbury,0.9271879431445408,0.01,0.0876896071896998,-1.339775,52.0629
350,Stockton,0.9666886390672716,0.015436511976353038,0.024190600422236457,-1.3289821000000002,54.57046
351,Newbury,0.9261446442507608,0.01,0.08894600031260487,-1.3231138999999998,51.40141
352,Isle of Wight,0.9684697611859104,0.01,0.037972869682507834,-1.304734,50.69385
353,Isle of Wight,0.9684697611859104,0.01,0.037972869682507834,-1.304734,50.69385
354,Abingdon,0.9164040668291812,0.01,0.10067699892523334,-1.2879528999999998,51.67078
355,Shetland Islands,0.6602766462563664,0.2775435819074613,0.12277350932153255,-1.2659409,60.52965
356,Rugby,0.9313791629545324,0.01144003725057245,0.07083834800340816,-1.265032,52.37088
357,Oxford,0.9075284186004484,0.01,0.1113662961374784,-1.2577263,51.75202
358,Middlesbrough,0.9666886390672716,0.015436511976353038,0.024190600422236457,-1.234956,54.57423000000001
359,Hartlepool,0.9803568611239724,0.01,0.02365672968789818,-1.212926,54.69174
360,Loughborough,0.9476372568893536,0.01,0.06306196945369465,-1.206166,52.7721
361,Mansfield,0.9513357362525416,0.01,0.05860767721316591,-1.198674,53.1472
362,Nottingham,0.940635426844312,0.01,0.07149451431018605,-1.1581086,52.95478000000001
363,Bicester,0.9561517181777448,0.01,0.05280766288534919,-1.1535898999999998,51.8996
364,Leicester,0.9322326221797338,0.011329353301362585,0.0699247269779043,-1.1397591999999999,52.63688000000001
365,Doncaster,0.9790965691688204,0.01,0.025174566562400767,-1.128462,53.522819999999996
366,Worksop,0.9509651860733056,0.01,0.059053924541345525,-1.122745,53.3093
367,Basingstoke,0.9506796072870344,0.01,0.05939797087398205,-1.0923964,51.26654
368,Portsmouth,0.9515295552976502,0.01,0.050922942112632166,-1.0879769,50.81977
369,York,0.902239124949146,0.01,0.11773630520473335,-1.0872979,53.95997
370,Selby,0.9120740370025836,0.01,0.10589184609317732,-1.067189,53.783519999999996
371,Helmsley,0.8979673812846641,0.011061791042802364,0.11146747943629597,-1.0562636,54.24651
372,Towcester,0.8757088557045298,0.012918497214157951,0.13635835951257144,-0.9896879999999999,52.13511
373,Reading,0.9418903349371,0.01,0.06998323749186168,-0.9781303,51.45426
374,Retford,0.9451644254974104,0.01,0.0660400432594969,-0.9455030000000001,53.32136
375,Petersfield,0.9544508858326236,0.01,0.05485597911147306,-0.93899,51.00759
376,Northampton,0.8666101283091441,0.017005781412561073,0.1430989567813576,-0.9026559999999999,52.24048
377,Melton Mowbray,0.9139878830325469,0.012325995186955874,0.09086904963014307,-0.887126,52.7664
378,Aylesbury,0.9051700528039855,0.01,0.11420653546682112,-0.8084,51.81561
379,Newark-on-Trent,0.9176402484441808,0.01,0.09918826930472303,-0.80657,53.07004000000001
380,Malton,0.9343819536678846,0.01,0.07902570970307468,-0.7978970000000001,54.13684
381,Chichester,0.9505403291084836,0.01,0.05340582893608474,-0.774936,50.83761
382,Gainsborough,0.941808406596776,0.01,0.07008194279782116,-0.774465,53.40058000000001
383,Milton Keynes,0.901253644055537,0.017265480219977727,0.10110889137328426,-0.7594171,52.040620000000004
384,Aldershot,0.9258597677074059,0.01,0.08928912197896446,-0.7557509,51.24837
385,High Wycombe,0.8502239920824449,0.01,0.1803796686498992,-0.748229,51.628609999999995
386,Midhurst,0.9188967951037752,0.01,0.08985139237206477,-0.737274,50.9869
387,Kettering,0.9170271903775864,0.014083826247128868,0.08539516622584706,-0.7302489999999999,52.39632
388,Wellingborough,0.8803771325361783,0.018054598580655255,0.12543671734540762,-0.693964,52.30242
389,Corby,0.924690767331472,0.01476898475632564,0.0754587841678144,-0.6842333,52.4923
390,Bognor Regis,0.9366202359255305,0.01,0.06833648860665119,-0.673061,50.783
391,Scunthorpe,0.930218355412631,0.01,0.0840401749229536,-0.654413,53.58865
392,Grantham,0.9295573107467044,0.01,0.08483626184352318,-0.643582,52.912519999999994
393,Whitby,0.9178666047444466,0.016961794720427532,0.08141461040150558,-0.613347,54.48633
394,Slough,0.7762118020817288,0.01,0.26951461662270537,-0.5950406,51.51054
395,Guildford,0.8782701697040232,0.01,0.1466027823005298,-0.570409,51.23622
396,Woking,0.8648568618262156,0.01,0.16275675290265998,-0.5600349,51.31677
397,Lincoln,0.9048250174507364,0.01,0.1146220714705463,-0.540579,53.23069
398,Bedford,0.8692419006813159,0.014624062827171344,0.1423867748681074,-0.46677820000000003,52.13864
399,Heathrow,0.6760333387484064,0.01,0.39016241966130094,-0.4542955,51.47002
400,Driffield,0.9368091392702196,0.01,0.07610245056522652,-0.443377,54.006
401,Beverley,0.929797009662394,0.01,0.08454743331078465,-0.435093,53.84196
402,Luton,0.9298187791928232,0.01905121860814948,0.06486450769194357,-0.4200255,51.87867
403,Scarborough,0.9376143778151164,0.01,0.07513267015892071,-0.399752,54.28311
404,Worthing,0.9161210629336058,0.01,0.09297860244427864,-0.372882,50.81787
405,Dorking,0.8191321869295741,0.01,0.2178241930428944,-0.332378,51.2322
406,Hull,0.9304800579397221,0.01,0.08372500467774012,-0.3274198,53.767619999999994
407,Horsham,0.9107901028692238,0.01,0.09949682874987724,-0.325858,51.06288
408,Biggleswade,0.8799482961948264,0.01,0.1445818057498749,-0.26421999999999995,52.08694000000001
409,Peterborough,0.8719504516124201,0.014984986491421545,0.13875247837343715,-0.2405299,52.5695
410,Welwyn Garden City,0.8233529009420819,0.02181447031295825,0.1902334594033108,-0.208661,51.80317
411,Bridlington,0.925101111276008,0.01,0.09020290933163397,-0.198802,54.08535
412,Stevenage,0.9385797277451026,0.023638894804236952,0.0495798671644724,-0.19661199999999998,51.90376
413,Crawley,0.8689731757250542,0.01,0.15779927024209786,-0.18722750000000002,51.109140000000004
414,Huntingdon,0.8733540011226525,0.014842529062938375,0.1372091511560195,-0.182552,52.33146
415,Hove,0.8709654388807556,0.01,0.1464503899684174,-0.168749,50.82793
416,Spalding,0.8314275240834206,0.015687631479881285,0.1868303633071312,-0.1537024,52.7901
417,Brighton,0.8571347646292415,0.01,0.1631637244669054,-0.137163,50.82253
418,London,0.7125272645812547,0.01,0.3462117572828153,-0.12775830000000002,51.50735
419,Grimsby,0.9227750486537301,0.01,0.09300432959197197,-0.08078400000000001,53.56746999999999
420,Boston,0.8815753930336566,0.01,0.14262226594365132,-0.026576999999999996,52.97894
421,Royston,0.8926006068315124,0.01,0.12934431192610998,-0.024066,52.048140000000004
422,Louth_Lincs,0.9439156035099036,0.01,0.06754401013984529,-0.007711,53.36596
423,Lewes,0.8545313160547242,0.01,0.16615658447582524,0.00878,50.873870000000004
424,Chatteris,0.8630806554079961,0.01588524508912722,0.1485056637444544,0.054012,52.4561
425,Uckfield,0.8836704177362213,0.01,0.13100522117323846,0.095913,50.966409999999996
426,Cambridge,0.8630373504281103,0.01,0.1649480033652891,0.12181700000000001,52.20534
427,Bishop's Stortford,0.9016469000890908,0.02294412146370793,0.09477604656069084,0.15365020000000001,51.87216
428,Wisbech,0.8638112221227116,0.014546207010515332,0.14900740232566878,0.158797,52.66631999999999
429,Sevenoaks,0.8523876025099099,0.01,0.17777377302056774,0.190898,51.27241
430,Tunbridge Wells,0.8804492294756633,0.01,0.1439783144107334,0.26369499999999996,51.13238
431,Eastbourne,0.8542050071792634,0.01,0.16792441953764364,0.29047199999999995,50.768029999999996
432,Brentwood,0.8510500638338812,0.01,0.17938469108754654,0.30717490000000003,51.62047000000001
433,Skegness,0.9020034054099858,0.01,0.11801999732906765,0.337881,53.1464
434,Downham Market,0.8706625381025301,0.01,0.1557649170405767,0.385472,52.606609999999996
435,King's Lynn,0.8950973144826366,0.01,0.12633736767109371,0.4022963,52.75168000000001
436,Bexhill,0.9018552321544856,0.01,0.11819844664410024,0.4662071,50.849909999999994
437,Chelmsford,0.8971459911526756,0.01,0.12387001693255655,0.4685497,51.73559
438,Mildenhall,0.8589055871850969,0.01,0.16992396807497215,0.5156095,52.34757000000001
439,Medway,0.938560299024397,0.01,0.07399355460244014,0.5417860999999999,51.404740000000004
440,Braintree,0.8906118548903963,0.01,0.13173923705086354,0.5509269,51.88009
441,Gillingham,0.9435581618651196,0.01,0.06797456915146638,0.551438,51.38632
442,Hastings,0.8990010828585779,0.01,0.1216357638498404,0.573453,50.85426
443,Maldon,0.8739265631810291,0.01,0.1518337913945888,0.6714479999999999,51.731809999999996
444,Southend,0.9064308129210824,0.01,0.11268815168604494,0.7077123000000001,51.54593
445,Bury St Edmunds,0.8579053591902295,0.01,0.17112858834368175,0.7104931999999999,52.24292
446,Thetford,0.8632861785017227,0.01,0.1646482592599154,0.751657,52.412859999999995
447,Ashford,0.8641101435244073,0.01,0.16365595984684056,0.8750190000000001,51.14647
448,Faversham,0.9217411129988441,0.01,0.0942495477846276,0.889358,51.31599
449,Colchester,0.8817649986212631,0.01,0.14239382544846907,0.891874,51.89593
450,New Romney,0.8793151071646097,0.01,0.14534426921103855,0.939473,50.98512
451,Canterbury,0.9367943921689612,0.01,0.07612025884837123,1.0789089,51.280229999999996
452,Ipswich,0.8846453649860746,0.01,0.13892479895528048,1.14822,52.05674000000001
453,Clacton,0.899244292988853,0.01,0.1213429660179618,1.153035,51.78953
454,Folkestone,0.8652491815358799,0.01,0.1622841892339459,1.169456,51.0814
455,Sheringham,0.8916752847477986,0.01,0.13045859399102466,1.2109589,52.944419999999994
456,Harwich,0.8955863096338833,0.01,0.12574834679536548,1.260297,51.93473
457,Norwich,0.8430622847332858,0.01,0.18900463712244395,1.297355,52.63089
458,Cromer,0.8923705052356888,0.01,0.12962136787844447,1.301866,52.93145
459,Dover,0.8979877463292593,0.01,0.12285615418913913,1.3134027,51.12788
460,Felixstowe,0.894891089145993,0.01,0.12658576178794734,1.3512549999999999,51.961729999999996
461,Margate,0.9272813414525098,0.01,0.08757708827167618,1.3868339,51.38965
462,Ramsgate,0.9272813414525098,0.01,0.08757708827167618,1.4198950000000001,51.33555
463,Great Yarmouth,0.8438904632134729,0.01,0.18800731688424946,1.728047,52.59823000000001
464,Lowestoft,0.8499014285025419,0.01,0.18076804258173906,1.7534490000000005,52.48114
465,Swaffham,0.8717477374903616,0.01,0.15445787306706835,0.687481,52.64747
466,Dereham,0.8808474012096367,0.01,0.1434989482428539,0.9378270000000001,52.681619999999995
467,Ely,0.8423230570225931,0.01,0.18989474963549827,0.262363,52.39954
468,March,0.8674781005546315,0.014795643440414518,0.1443341643339235,0.088622,52.551719999999996
469,St Neots,0.8646569566758255,0.015725252000658146,0.14677231760712428,-0.26510300000000003,52.23008
470,Banham,0.8438904632134729,0.01,0.18800731688424946,1.0402849,52.45125
471,Holt,0.8930580010514919,0.01,0.12879319391042307,1.086747,52.90936
472,Cromer,0.8923705052356888,0.01,0.12962136787844447,1.301866,52.93145
473,Hunstanton,0.9086391328142664,0.01,0.11002843371354447,0.49103199999999997,52.93891
474,Horncastle,0.9269849949415102,0.01,0.08793418141995206,-0.11245,53.20731
475,Market Weighton,0.916803174887044,0.01,0.10019629650181948,-0.6677465,53.86484
476,Hawes,0.9112556899232356,0.019207468497151315,0.08705943020733399,-2.1968695,54.30383000000001
477,Reeth,0.9285652755858692,0.0212489630381184,0.06410652096873047,-1.9428115000000001,54.38946
478,Aysgarth,0.904133776339376,0.017770812148053868,0.09711879006109599,-1.9967433999999997,54.29159
479,Stanhope,0.9640201159824398,0.016215206756032413,0.02660093759130727,-2.011302,54.74946
480,Keswick,0.9208794609396104,0.032918824539191656,0.06132195331511073,-3.134706,54.60128
481,Oxenholme,0.9322628186251676,0.01698816105244124,0.06404972165120634,-2.7243327999999996,54.30134
