,placename,jab,jag,shot,longitude,latitude
0,Dingle,0.6395604,0.024019889667966185,0.9677426194349992,-10.2640135,52.14094
1,Tralee,0.6395604,0.024019889667966185,0.9677426194349992,-9.6999325,52.27131
2,Killarney,0.6427015,0.023810565582138832,0.959103546982626,-9.5044265,52.05994000000001
3,Bantry,0.6423840999999999,0.024125936967908983,0.9596729891775819,-9.4539805,51.68035
4,Mayo,0.7054264,0.028240437231927488,0.7777050201361306,-9.4289369,54.01526
5,Ballycastle,0.7053941999999999,0.04534875225500445,0.7601436144300396,-9.3724643,54.27967
6,Abbeyfeale,0.6395604,0.024019889667966185,0.9677426194349992,-9.2970823,52.38618
7,Ennistymon,0.6395604,0.024019889667966185,0.9677426194349992,-9.2934951,52.94037
8,Galway,0.6391639,0.024046313377489973,0.9688331956501488,-9.0567905,53.27067
9,Claremorris,0.6653696,0.02551528965833769,0.8934408267653179,-9.0017356,53.72388
10,Clare,0.6395604,0.024019889667966185,0.9677426194349992,-8.9811351,52.90453
11,Adare,0.6395604,0.024019889667966185,0.9677426194349992,-8.7925892,52.56363
12,Charleville,0.6379691,0.024125936967908983,0.9721193665679668,-8.681017599999999,52.36206
13,Mallow,0.6439560000000001,0.024019889667966185,0.955350949586597,-8.6539164,52.13898
14,Limerick,0.6395604,0.024019889667966185,0.9677426194349992,-8.6267343,52.66384
15,Loughrea,0.6395604,0.024019889667966185,0.9677426194349992,-8.5660931,53.19891
16,Sligo,0.8056536999999999,0.03861855065174568,0.4844456670211559,-8.476088800000001,54.27661
17,Cork,0.6439560000000001,0.024019889667966185,0.955350949586597,-8.4756035,51.89851
18,Nenagh,0.6329866,0.024358952500875282,0.9859250428529256,-8.19834,52.8635
19,Roscommon,0.6382721,0.026473272763447884,0.9688432119284476,-8.1890955,53.62759000000001
20,Tipperary,0.6379691,0.024125936967908983,0.9721193665679668,-8.161851400000002,52.47379
21,Donegal,0.8346154,0.02101740380100321,0.4209602624329191,-8.1096143,54.653830000000006
22,Leitrim,0.6934307,0.02659136114372066,0.8132236422778306,-8.0020132,54.12469
23,Athlone,0.6347546,0.026377433195774853,0.9788582329065884,-7.9406898,53.42393000000001
24,Longford,0.653618,0.02592894325435292,0.9261430676590834,-7.7932573,53.72763000000001
25,Offaly,0.6348358000000001,0.02504747715733017,0.9800017547234068,-7.7122229,53.23569000000001
26,Fermanagh,0.8461538000000001,0.042034804869744036,0.36674671213198135,-7.6318728,54.34383
27,Enniskillen,0.8461538000000001,0.042034804869744036,0.36674671213198135,-7.631533599999999,54.34382
28,Doon,0.8438662,0.04062843564918255,0.3746469790481786,-7.60964,54.185930000000006
29,Westmeath,0.627451,0.026786887304504577,0.9990255060509654,-7.4653217,53.53453
30,Strabane,0.84375,0.06403739964468567,0.3508214836692152,-7.4633103,54.82739
31,Balivanich,0.6407214,0.7352599772249536,0.2306236209856981,-7.3743509,57.47227
32,Cavan,0.7082294,0.027254486689046082,0.7708201608326183,-7.3633319,53.98972
33,Mullingar,0.627451,0.026786887304504577,0.9990255060509654,-7.3401868000000015,53.52582
34,Laois,0.627907,0.024596511786187568,1.0,-7.3323006999999985,52.9943
35,Omagh,0.8443579999999999,0.06378822824423781,0.3493646268442145,-7.309959700000001,54.59771
36,Derry,0.8359375,0.08538319952624758,0.3508214836692152,-7.308574799999999,54.99661
37,Derry,0.8359375,0.08538319952624758,0.3508214836692152,-7.308574799999999,54.99661
38,Kilkenny,0.6419214,0.02386255233853518,0.9612491674197716,-7.2447879,52.65415
39,Tyrone,0.8521401,0.04252548367465028,0.3493646268442145,-7.131232000000002,54.49121
40,Waterford,0.6455142,0.023914768604971853,0.9510667423780408,-7.110070200000001,52.25932
41,Western Isles,0.6710526,0.6968928356965489,0.1847033264068688,-7.0194034,57.75989000000001
42,Monaghan,0.8521401,0.04252548367465028,0.3493646268442145,-6.9683132,54.2492
43,Carlow,0.6348358000000001,0.02504747715733017,0.9800017547234068,-6.9341358999999985,52.83651
44,Kildare,0.641604,0.027391102540550463,0.9585032158596326,-6.8194708,53.21204
45,Dungannon,0.8521401,0.04252548367465028,0.3493646268442145,-6.7669352,54.50827
46,Cookstown,0.8443579999999999,0.06378822824423781,0.3493646268442145,-6.7443895000000005,54.64182
47,Coleraine,0.8405796999999998,0.2771860380517811,0.13983551348404186,-6.6646103000000005,55.13258
48,Meath,0.6811224,0.02788022942042212,0.8465919332587608,-6.656416900000001,53.60555
49,Armagh,0.7845118000000001,0.036798145318435074,0.5459252280117094,-6.652792,54.35028000000001
50,Armagh,0.7845118000000001,0.036798145318435074,0.5459252280117094,-6.652792,54.35028000000001
51,Magherafelt,0.8372093,0.08472131442804487,0.3479190633518523,-6.607980499999999,54.75536999999999
52,Dunvegan,0.6530418,0.7168292936560747,0.2149075503433145,-6.5813982000000015,57.4366
53,Louth,0.7331863000000001,0.02409933839359256,0.7037194802477922,-6.4889423,53.925230000000006
54,Wexford,0.7021429,0.023419393041026068,0.7919358258374378,-6.4633381,52.33692
55,Craigavon,0.7845118000000001,0.036798145318435074,0.5459252280117094,-6.4175653,54.44293
56,Stornoway,0.7751196,0.4202044000025574,0.1768103074083484,-6.384869200000002,58.20943000000001
57,Drogheda,0.7133183000000001,0.024670539703242424,0.7591402133834325,-6.3560985,53.71786
58,Rosslare,0.7069465,0.011862210040703609,0.7903184999459241,-6.3414908,52.25131
59,Newry,0.7494357,0.024670539703242424,0.6573215419739346,-6.34023,54.1751
60,Scilly Isles,0.9473684,0.01,0.12478308823268232,-6.327496599999999,49.92773
61,Ballymena,0.8453608,0.26477594109635744,0.1391615924571048,-6.2802213,54.86529
62,Banbridge,0.7565012,0.012918497214157951,0.6495286829392972,-6.2704803,54.34873
63,Dublin,0.6735219,0.02809524207653472,0.8677969666954265,-6.2603097000000005,53.34981
64,Antrim,0.8295455,0.15524218145358873,0.2967619523236881,-6.2072498,54.719530000000006
65,Antrim,0.8295455,0.15524218145358873,0.2967619523236881,-6.2072498,54.719530000000006
66,Portree,0.6734074999999999,0.6961881906920236,0.17879179676223145,-6.1960231,57.41246999999999
67,Islay,0.622093,0.8339754368518698,0.18128594872727752,-6.177067,55.73625
68,Wicklow,0.7143944999999999,0.02497117053344636,0.7557960168376316,-6.044589,52.98082
69,Kilkeel,0.7508570999999999,0.01249034350166638,0.6658815836506734,-6.007004,54.06312
70,Mull,0.5816024000000001,0.9404820082434542,0.18554154766333844,-6.0008870000000005,56.4392
71,Belfast,0.8129771,0.19814116539624665,0.2992073929820288,-5.93012,54.59728000000001
72,Broadford,0.6587451999999999,0.7012460482606062,0.2149075503433145,-5.9096592,57.24139
73,Down,0.7587822,0.012797482580871005,0.6432231129627692,-5.7156922,54.32875
74,Kyle of Lochalsh,0.6794741999999999,0.6796122815849942,0.17879179676223145,-5.7143293,57.28261
75,Campbeltown,0.7009901,0.6005566820673369,0.19970457363508293,-5.6053739999999985,55.42412
76,Penzance,0.9473684,0.01,0.12478308823268232,-5.537592,50.1188
77,Oban,0.6049383,0.8685895864846566,0.19393266296005549,-5.471047,56.41516
78,Lochgilphead,0.5737051999999999,0.9552032849662779,0.19261538845630607,-5.4323449,56.03829
79,Helston,0.9480874,0.01,0.12275612108495874,-5.274996,50.10159
80,Redruth,0.9480874,0.01,0.12275612108495874,-5.226666000000002,50.23302
81,Ullapool,0.8384129000000001,0.2969508853431773,0.12555098128911854,-5.161313,57.89542
82,Ballachulish,0.6359026,0.7481854389759306,0.2308719474440437,-5.1337199999999985,56.67393000000001
83,Fort William,0.653271,0.7200915821564251,0.2108954290058542,-5.1052179,56.81981999999999
84,Achnasheen,0.8244275,0.33210705572334376,0.12870371553350152,-5.078765799999998,57.57859000000001
85,Newquay,0.9480874,0.01,0.12275612108495874,-5.0737190000000005,50.4155
86,Falmouth,0.9480874,0.01,0.12275612108495874,-5.0662699999999985,50.15257
87,Rothesay,0.5669291,0.9923275777133292,0.17341351764894175,-5.055793,55.83596
88,Truro,0.9480874,0.01,0.12275612108495874,-5.0510410000000014,50.2632
89,Milford Haven,0.9677033000000002,0.01,0.06745680114204858,-5.0426971,51.71431
90,Stranraer,0.7942446,0.4127878431591773,0.13054725482764035,-5.0240550000000015,54.90337
91,Fishguard,0.9764398,0.01,0.04282785816065858,-4.975989,51.99393
92,Inchnadamph,0.8418631,0.28752387245952193,0.12555098128911854,-4.974295,58.15221
93,Haverfordwest,0.9677033000000002,0.01,0.06745680114204858,-4.971319,51.80047
94,Dunoon,0.570297,0.9819913334822964,0.17458384069226926,-4.926214,55.95097
95,Pembroke,0.9671133,0.01,0.06912027859337917,-4.9086370000000015,51.67404000000001
96,Girvan,0.5777564000000001,0.9510956700034694,0.18543280352624414,-4.8542179,55.24016
97,Wadebridge,0.9483696,0.01,0.12196075867424645,-4.836456,50.51665
98,Invergarry,0.7545887,0.4624971686931037,0.19105206533064945,-4.800261,57.07095
99,St Austell,0.9478022,0.01,0.12356022553873455,-4.7834252,50.34038
100,Greenock,0.5789726,0.9640964247089856,0.16859007776928278,-4.7719830000000005,55.956480000000006
101,Helensburgh,0.5805486,0.9361916513755604,0.1929388891553256,-4.734014,56.00232
102,Bodmin,0.9480874,0.01,0.12275612108495874,-4.7188629,50.4715
103,Tenby,0.9671133,0.01,0.06912027859337917,-4.703579,51.67274000000001
104,Camelford,0.9483696,0.01,0.12196075867424645,-4.682364,50.62206
105,Irvine,0.5644292,1.0,0.17254480495816885,-4.6696364,55.61156999999999
106,Cardigan,0.975968,0.01,0.044158007514672616,-4.660864,52.0837
107,Holyhead,0.8534961,0.01,0.3894189287734416,-4.633038,53.30944
108,Ayr,0.5644292,1.0,0.17254480495816885,-4.629179,55.45856
109,Dumbarton,0.5805486,0.9525443428425352,0.1760664443986948,-4.564554,55.94529
110,Bude,0.9562982,0.01,0.09960910522491366,-4.543678,50.82664000000001
111,Isle of Man,0.9587459,0.01803473503311748,0.07410090610190999,-4.5126331,54.27697
112,Kilmarnock,0.5644292,1.0,0.17254480495816885,-4.498792,55.61472
113,Newton Stewart,0.644041,0.7051695333290382,0.2523120547287868,-4.483164,54.9603
114,Liskeard,0.9478022,0.01,0.12356022553873455,-4.4647190000000005,50.45552
115,Altnaharra,0.8315493,0.3186356688220392,0.12252613290140445,-4.442655,58.28023
116,Pwllheli,0.9797221,0.01,0.033574635335018935,-4.417633900000001,52.88882
117,Lairg,0.8315493,0.3186356688220392,0.12252613290140445,-4.402414,58.02206
118,Launceston,0.9480874,0.01,0.12275612108495874,-4.360451599999998,50.63683
119,Carmarthen,0.9839786,0.01,0.02157506063640066,-4.312131,51.85762
120,Llangefni,0.9768583,0.01,0.04164791069455824,-4.311401999999998,53.25579000000001
121,Caernarfon,0.9768583,0.01,0.04164791069455824,-4.273911,53.13955
122,Cumnock,0.5651958,0.9956434568080956,0.17487859780177736,-4.265828900000002,55.45355
123,Aberaeron,0.975968,0.01,0.044158007514672616,-4.2581619,52.24279
124,Alness,0.8429469,0.2855534085437736,0.1245288783032392,-4.256825,57.69595
125,Glasgow,0.5985258000000001,0.8901670576260914,0.18974680585029136,-4.251806,55.86424
126,Dalwhinnie,0.7524884,0.47320536399937196,0.18592456529662285,-4.242783,56.9366
127,Inverness,0.8429469,0.2855534085437736,0.1245288783032392,-4.224721,57.47776999999999
128,Saltash,0.9475138,0.01,0.12437321580990343,-4.21643,50.40921
129,Bideford,0.9620253,0.01,0.08346376953987583,-4.206666,51.01668
130,Invergordon,0.8429469,0.2855534085437736,0.1245288783032392,-4.172882,57.68811
131,Llanelli,0.9734513,0.01,0.051252650479767035,-4.160248,51.68089000000001
132,Plymouth,0.9475138,0.01,0.12437321580990343,-4.1426565,50.37546
133,Tavistock,0.9558442,0.01,0.1008891055289259,-4.141654,50.55112
134,Porthmadog,0.9802343,0.01,0.03213085069759812,-4.133384,52.92784
135,Bangor,0.9752624,0.01,0.046147133822653945,-4.129263,53.22739
136,Tywyn,0.9569584,0.01,0.09774795498494528,-4.087249,52.58701
137,Aberystwyth,0.9706601,0.01,0.05912127858612844,-4.08292,52.4153
138,Lampeter,0.9757739,0.01,0.044705102668233916,-4.078509,52.1129
139,Barnstaple,0.9535604,0.01,0.10732733128694162,-4.058338,51.07816
140,Tain,0.8429469,0.2855534085437736,0.1245288783032392,-4.05523,57.8115
141,Okehampton,0.962406,0.01,0.08239053927473218,-4.004263,50.73831
142,Llandeilo,0.9836511999999998,0.01,0.02249806927989911,-3.99143,51.88469
143,Motherwell,0.6124937,0.8450725205278972,0.1968977886188759,-3.9810968,55.78321
144,Golspie,0.8429469,0.2855534085437736,0.1245288783032392,-3.976086,57.97341
145,Airdrie,0.6119938,0.8444665402503507,0.19893202341800792,-3.962566,55.86626999999999
146,Swansea,0.972752,0.01,0.053224002333857684,-3.943646,51.62144
147,Stirling,0.6108741999999999,0.8563807479765001,0.18979554252893724,-3.9369029,56.11652
148,Tregaron,0.9657632,0.01,0.0729262980197381,-3.934385,52.22
149,Tregaron,0.9657632,0.01,0.0729262980197381,-3.934385,52.22
150,Castle Douglas,0.7208633000000001,0.6132847952385191,0.13054725482764035,-3.931414,54.94042
151,Dolgellau,0.967033,0.01,0.06934667805690134,-3.8844,52.74215
152,Aberfeldy,0.7333333000000001,0.4857355356898222,0.2269962341161645,-3.866969,56.62175
153,Machynlleth,0.9624531,0.01,0.08225789758876692,-3.853485,52.59027
154,Brora,0.8429469,0.2855534085437736,0.1245288783032392,-3.852548000000001,58.01216
155,Llandudno,0.9797601,0.01,0.03346750372570032,-3.827609,53.32406
156,Llandudno,0.9797601,0.01,0.03346750372570032,-3.827609,53.32406
157,Aviemore,0.8405466999999999,0.2987439516590653,0.11768547393144185,-3.823812,57.19449
158,Dalbeattie,0.722063,0.6106488997479925,0.12988477090767148,-3.822527,54.93422
159,Falkirk,0.6554424,0.7253225913891221,0.19937671178139746,-3.7839131,56.00188000000001
160,Kingsbridge,0.9540541,0.01,0.10593559013774853,-3.777493,50.28395
161,Pitlochry,0.7544031,0.4250780019926936,0.230183739195486,-3.729711,56.70436
162,Colwyn Bay,0.9797601,0.01,0.03346750372570032,-3.72764,53.29318000000001
163,Totnes,0.9589041,0.01,0.0922627754289062,-3.685797,50.43374
164,Grantown-on-Spey,0.8380844000000001,0.29908459373963275,0.12427553665798301,-3.609628,57.33041
165,Dumfries,0.6774194,0.7403549689716088,0.12191133413410185,-3.60512,55.07086
166,Whitehaven,0.95,0.017076639905249515,0.09974498888105718,-3.589233,54.5497
167,Dartmouth,0.9603175,0.01,0.08827839407975427,-3.578807,50.35252
168,Bridgend,0.9737533000000002,0.01,0.05040141059870303,-3.576945,51.50429000000001
169,Paignton,0.9605263,0.01,0.0876896071896998,-3.564235,50.43508
170,Workington,0.9464286,0.032526933413071675,0.09387185543974914,-3.542752,54.64357
171,Llanidloes,0.9544199,0.01,0.10490426022283128,-3.540195,52.44779000000001
172,Exeter,0.9595687,0.01,0.09038913373688552,-3.533899,50.71841
173,Torquay,0.9603175,0.01,0.08827839407975427,-3.525315,50.46192
174,Thurso,0.8424069,0.2865352524962906,0.12503817208452134,-3.5220800000000003,58.59356999999999
175,Livingston,0.7243736,0.5601449093607473,0.17548032720060458,-3.518068,55.90071
176,Rhyl,0.9799406,0.01,0.03295881041367731,-3.4916339999999995,53.31914
177,Tiverton,0.9563758,0.01,0.09939023558951868,-3.491207,50.90205
178,Tiverton,0.9563758,0.01,0.09939023558951868,-3.491207,50.90205
179,Minehead,0.9534247,0.01,0.1077099232354461,-3.481152,51.20428
180,Dunfermline,0.7508651,0.4916181457851056,0.17150290340136576,-3.452151,56.07174000000001
181,Perth,0.7611939999999999,0.4567363983743476,0.1783748624826728,-3.4308381000000003,56.39499
182,Prestatyn,0.9796226,0.01,0.03385506857454789,-3.407613,53.33651
183,Builth Wells,0.949464,0.01,0.1188753982083779,-3.404592,52.15002
184,Braemar,0.8325843,0.3039258156882462,0.13478582355339938,-3.3979439,57.00646999999999
185,Brecon,0.9441624,0.01,0.13382109216325824,-3.391463,51.94895
186,Merthyr Tydfil,0.9705882,0.01,0.05932400602913988,-3.381646,51.74873
187,Llandrindod Wells,0.9464286,0.01,0.1274326235997184,-3.377742,52.2417
188,Corwen,0.9774898,0.01,0.039867863272033344,-3.369242,52.98005
189,Cockermouth,0.9580838,0.01636085273471869,0.07769435941054241,-3.367985,54.66326
190,Lockerbie,0.7275261,0.6111890079117029,0.11392646025356402,-3.349008,55.12224000000001
191,Blairgowrie,0.7590361,0.4279447108127044,0.2141649672071052,-3.3378318,56.58941
192,Elgin,0.8380844000000001,0.29908459373963275,0.12427553665798301,-3.318485,57.64945
193,Newtown,0.9585427,0.01,0.09328158851983066,-3.313106,52.51211
194,Ruthin,0.974924,0.01,0.047100997564936464,-3.3103108,53.11487
195,Ruthin,0.974924,0.01,0.047100997564936464,-3.3103108,53.11487
196,Sidmouth,0.9612403,0.01,0.08567678348926723,-3.23756,50.67865
197,Barrow-in-Furness,0.9709677,0.01,0.05825413613656365,-3.218894,54.10896999999999
198,Peebles,0.7215189999999999,0.5753786136970609,0.16780981730139238,-3.193642,55.65306999999999
199,Edinburgh,0.7525773,0.5070177612902137,0.15078676470579944,-3.188267,55.95325
200,Cardiff,0.9762611,0.01,0.04333152782845745,-3.17909,51.48158
201,Llangollen,0.9761733,0.01,0.043579166425304336,-3.17166,52.96921
202,Kirkcaldy,0.7619048,0.4553770650507411,0.17777377302056774,-3.158137,56.11682
203,Welshpool,0.9647059,0.01,0.0759069738589965,-3.146407,52.66035
204,Mold,0.9765292,0.01,0.042575914791235785,-3.141903,53.1672
205,Mold,0.9765292,0.01,0.042575914791235785,-3.141903,53.1672
206,Taunton,0.9663677,0.01,0.07122209860386333,-3.106849,51.01534
207,Wick,0.8424069,0.2865352524962906,0.12503817208452134,-3.093716,58.43894
208,John o' Groats,0.8424069,0.2865352524962906,0.12503817208452134,-3.0688997,58.63734
209,Dalkeith,0.7465753,0.5146384618499394,0.15984404849207062,-3.066606,55.89312
210,Oswestry,0.9555809,0.01,0.10163134755349038,-3.056412,52.85715
211,Blackpool,0.9692737,0.01,0.06302969634534564,-3.0356748,53.81751
212,Birkenhead,0.9786325,0.01,0.0366464415464376,-3.023009,53.38999
213,Cupar,0.7724551,0.4253821683704235,0.17897954912212355,-3.010137,56.32023
214,Southport,0.9699418,0.01,0.0611463090090585,-3.010113,53.64571
215,Bridgwater,0.9804305,0.01,0.03157755351413048,-3.003632,51.12789
216,Langholm,0.9292308,0.10088353441964808,0.07182501202658173,-2.998913,55.15306
217,Newport,0.9753593,0.01,0.045873753982591234,-2.997664,51.58415
218,Axminster,0.9652997,0.01,0.07423298114787014,-2.994937,50.78273
219,Wrexham,0.9751895,0.01,0.046352491490166584,-2.992494,53.04304000000001
220,Liverpool,0.9799599,0.01,0.032904246646023975,-2.9915726,53.40837
221,Weston-super-Mare,0.9802761,0.01,0.03201280633474884,-2.977255,51.34741
222,Dundee,0.7650602,0.4279447108127044,0.19718241104769615,-2.970721,56.46202
223,Kirkwall,0.8424069,0.2865352524962906,0.12503817208452134,-2.9622491,58.98467
224,Ambleside,0.9505664,0.033766372330969,0.08092797376311311,-2.961333,54.42874000000001
225,Orkney Islands,0.8424069,0.2865352524962906,0.12503817208452134,-2.9605206,58.98094
226,Lyme Regis,0.9746835,0.01,0.04777890198653613,-2.936639,50.72516
227,Carlisle,0.9511494,0.047107971304468935,0.06551879083691355,-2.932931,54.89247
228,Chester,0.9799867,0.01,0.03282886942982585,-2.893075,53.19339
229,Forfar,0.8005249,0.3442220328217937,0.18358745154790995,-2.889062,56.64356
230,Morecambe,0.9744136,0.01,0.04853977265365567,-2.864968,54.07417
231,Selkirk,0.7632399000000001,0.4170743202144848,0.21353010769216005,-2.838524,55.55066
232,Galashiels,0.7689769000000001,0.44185101377590297,0.17179264814306774,-2.814449,55.62373
233,Lancaster,0.9733037,0.01,0.05166890817424497,-2.8007399,54.04657
234,St Andrews,0.7708333,0.4065866649311336,0.2029443505500969,-2.7967214,56.33978000000001
235,Hawick,0.7928803000000001,0.3271641034493556,0.222738687178892,-2.780914,55.42706
236,Bridport,0.9750779,0.01,0.0466672219550776,-2.758301,50.73358
237,Shrewsbury,0.9740484,0.01,0.049569318075422635,-2.7553268,52.7073
238,Penrith,0.9628205,0.028023203246496025,0.05230813448206506,-2.752708,54.6641
239,Kendal,0.9572737,0.016677084783140058,0.07965205834152557,-2.74629,54.32801
240,Street,0.9838384,0.01,0.02197045131934824,-2.742919,51.12468
241,Glastonbury,0.9834369,0.01,0.023102409169495988,-2.718454,51.14743
242,Hereford,0.9641304,0.01,0.07752921908786793,-2.715974,52.0564
243,Ludlow,0.9723077,0.01,0.054476677057923466,-2.7139129,52.36775
244,Preston,0.9663609,0.01,0.07124142920343958,-2.70309,53.7632
245,Whitchurch,0.9673267,0.01,0.06851852100350694,-2.682045,52.96872
246,Wells,0.9895013,0.01,0.01,-2.6445979,51.20935
247,Yeovil,0.9904762,0.01,0.01,-2.633308,50.94206
248,Wigan,0.9787664,0.01,0.0362688168600672,-2.6325074,53.54506
249,Warrington,0.972093,0.01,0.05508185140245319,-2.5969501,53.39004
250,Arbroath,0.8072917,0.3273022657613698,0.1819688711548923,-2.591543,56.55911
251,Bristol,0.9889807,0.01,0.01,-2.58791,51.45451
252,Guernsey,0.9790026,0.01,0.035602961291112865,-2.585278,49.46569
253,Ross-on-Wye,0.9721936,0.01,0.05479827204229901,-2.582446,51.91445
254,Jedburgh,0.8687351000000001,0.1956273774439609,0.1446134924844873,-2.5549369,55.47772
255,Sedbergh,0.9516129,0.01652578028905478,0.0957664148871812,-2.5281740000000004,54.32363
256,Sedbergh,0.9516129,0.01652578028905478,0.0957664148871812,-2.5281740000000004,54.32363
257,Nantwich,0.974456,0.01,0.04842034974870448,-2.524102,53.06719
258,Banff,0.8486611999999999,0.2671828183537868,0.12737401723620792,-2.524038,57.66651
259,Dunbar,0.7891566,0.3703367699183157,0.18869113296799167,-2.516737,56.00209
260,Cinderford,0.976479,0.01,0.042717397188922056,-2.5009579,51.8253
261,Banchory,0.824633,0.2874892710886804,0.17416038018578645,-2.4909599,57.05386
262,Blackburn,0.9759615,0.01,0.044176103346476654,-2.487529,53.74858
263,Market Drayton,0.9645455,0.01,0.07635923433708076,-2.483485,52.90355
264,Telford,0.9819712,0.01,0.027234367820269417,-2.4672611,52.67759
265,Montrose,0.802168,0.3183937187910745,0.20560465489633406,-2.4661150000000003,56.70692
266,Turriff,0.8486611999999999,0.2671828183537868,0.12737401723620792,-2.4623,57.53893000000001
267,Weymouth,0.981405,0.01,0.02883053069428015,-2.457621,50.61443
268,Crewe,0.9763986,0.01,0.0429439770751324,-2.4438209,53.10041
269,Fortuneswell,0.9825412,0.01,0.02562728655451901,-2.442219,50.55919
270,Dorchester,0.9916318,0.01,0.01,-2.4411810000000003,50.71116
271,Alston,0.9712644,0.01,0.05741791644429101,-2.438685,54.81217
272,Kelso,0.8233438,0.28443109898205193,0.1809498720030706,-2.432207,55.60003
273,Wincanton,0.9805037,0.01,0.031371398040043526,-2.416007,51.05569000000001
274,Clitheroe,0.9687174,0.01,0.06459804593433091,-2.3930830000000003,53.8711
275,Sark,0.9789474,0.01,0.035758736548628774,-2.3666256000000003,49.43007
276,Bath,0.971891,0.01,0.05565145710547003,-2.3590167,51.38106
277,Kidderminster,0.9817579,0.01,0.027835617971331127,-2.2496839,52.3886
278,Manchester,0.9749509,0.01,0.04702524258873495,-2.2426305,53.48076
279,Burnley,0.9633534,0.01,0.0797197224878038,-2.2405035,53.78929
280,Gloucester,0.965251,0.01,0.07437032791925066,-2.238156,51.86424
281,Newcastle-under-Lyme,0.9604462,0.01,0.08791533006814126,-2.2273002,53.01321
282,Worcester,0.9787986,0.01,0.03617816573567244,-2.221575,52.19364
283,Trowbridge,0.9722222,0.01,0.054717625919785004,-2.208853,51.31966
284,Shaftesbury,0.985932,0.01,0.01606831493091452,-2.198083,51.0046
285,Alderney,0.9804241,0.01,0.0315955506772769,-2.1973557,49.715
286,Stoke-on-Trent,0.9640884,0.01,0.07764772578385569,-2.179404,53.00267
287,Colne,0.9598678,0.01,0.08954603261052134,-2.176991,53.85564
288,Blandford Forum,0.9830189,0.01,0.0242807525651342,-2.165353,50.85691
289,Rochdale,0.9704969,0.01,0.059581505853537865,-2.1561,53.60971
290,Jersey,0.9802794,0.01,0.032003666797950484,-2.13125,49.21444
291,Wolverhampton,0.982191,0.01,0.02661448056933913,-2.12882,52.58697
292,Stafford,0.977887,0.01,0.03874808677244256,-2.12066,52.80669
293,Macclesfield,0.9636163,0.01,0.07897856863757742,-2.119287,53.25866
294,Hexham,0.9766764,0.01,0.0421608749499031,-2.1121439,54.97266
295,Aberdeen,0.8254870000000001,0.2860891614812425,0.17319730642909303,-2.094278,57.14972
296,Dudley,0.9783213,0.01,0.03752371585758575,-2.081112,52.51226
297,Cheltenham,0.9666048,0.01,0.07055365791607984,-2.0782533,51.89939
298,Bromsgrove,0.9816565,0.01,0.028121477987028128,-2.061906,52.33559
299,Skipton,0.9504621,0.01,0.11606166409957132,-2.0162787,53.96285
300,Fraserburgh,0.8240343000000001,0.2884706205017057,0.17483540630168867,-2.007631,57.69335
301,Berwick,0.8878719,0.17506486800740967,0.11188100823761507,-2.005395,55.77024
302,Poole,0.9894552,0.01,0.01,-1.987248,50.71505
303,Walsall,0.979021,0.01,0.035551219447066934,-1.982919,52.58621
304,Cirencester,0.9648829,0.01,0.07540782039661126,-1.968243,51.71849
305,Evesham,0.9693713,0.01,0.0627546560527307,-1.94677,52.09215
306,Buxton,0.9778598,0.01,0.03882476359581651,-1.91483,53.25908
307,Keighley,0.954497,0.01,0.10468694109491293,-1.912358,53.8678
308,Birmingham,0.98394,0.01,0.02168386397468949,-1.890401,52.48624
309,Bournemouth,0.9896194,0.01,0.01,-1.880769,50.71916
310,Halifax,0.9575091999999998,0.01,0.09619529089341404,-1.85754,53.72702
311,Salisbury,0.9836215,0.01,0.02258194327706893,-1.794472,51.06878
312,Ringwood,0.9894552,0.01,0.01,-1.788817,50.84495
313,Huddersfield,0.954253,0.01,0.1053746334473466,-1.7850351000000002,53.64579000000001
314,Peterhead,0.8237206,0.2863215649874346,0.17793735155934762,-1.784066,57.50812
315,Swindon,0.9656582,0.01,0.07322224197224192,-1.7797176,51.55577
316,Bradford,0.952575,0.01,0.11010511899423196,-1.759398,53.79598000000001
317,Ashbourne,0.9642185,0.01,0.07728107869041953,-1.732179,53.016630000000006
318,Marlborough,0.9619523,0.01,0.0836694852336603,-1.727062,51.42007
319,Stratford-upon-Avon,0.9708266,0.01,0.058652086566399836,-1.708298,52.19173
320,Alnwick,0.96793,0.031863119337625284,0.03394191108875925,-1.7062990000000002,55.41274
321,Otley,0.9472039,0.01,0.1252469183156464,-1.691786,53.90583
322,Bishop Auckland,0.9831461,0.015349789968258216,0.01,-1.6787880000000002,54.66382
323,Burton upon Trent,0.9837984,0.01,0.022083226775881638,-1.6371359,52.81403
324,Newcastle,0.9820896,0.01,0.026900591485336883,-1.61778,54.97825
325,Durham,0.9831461,0.01,0.023922165291471783,-1.584852,54.77525
326,Ashington,0.9821958,0.01,0.02660093759130727,-1.5659829,55.18298000000001
327,Darlington,0.9774011,0.015436511976353038,0.024190600422236457,-1.559458,54.52361
328,Leeds,0.9438933,0.01,0.1345799302560312,-1.5490774,53.80076
329,Harrogate,0.9454424,0.01,0.13021260738941645,-1.5418120000000002,53.99211999999999
330,Leamington Spa,0.9708384,0.01,0.058618776027593765,-1.5200789,52.28519
331,Coventry,0.9757943,0.01,0.044647702881450695,-1.519693,52.40682
332,Blyth,0.9821958,0.01,0.02660093759130727,-1.510277,55.12696
333,Wakefield,0.960396,0.01,0.0880568688479176,-1.505924,53.6833
334,Andover,0.9614108,0.01,0.08519618819182448,-1.4919233,51.2112
335,Witney,0.9533623,0.01,0.10788584099463512,-1.4850544,51.78594
336,Barnsley,0.9696641,0.01,0.0619291292238375,-1.479726,53.55263000000001
337,Derby,0.9676956,0.01,0.06747858718164686,-1.4746186,52.92253
338,Sheffield,0.9762931,0.01,0.04324138696197772,-1.470085,53.38113000000001
339,Nuneaton,0.9714739,0.01,0.05682736197571325,-1.465382,52.52049
340,Northallerton,0.9481132,0.01104688381923068,0.11128546113496267,-1.429959,54.33796
341,South Shields,0.9824047,0.01,0.02601217889229784,-1.427406,54.99941999999999
342,Chesterfield,0.9792994,0.01,0.03476642585913592,-1.421629,53.23505
343,Southampton,0.9896373,0.01,0.01,-1.4043508999999998,50.9097
344,Wetherby,0.9411371,0.01,0.1423497656641935,-1.384816,53.92706
345,Sunderland,0.9825581,0.01,0.025579592944539202,-1.383801,54.90687
346,Rotherham,0.9747899,0.01,0.047479028202355285,-1.3635008999999998,53.4326
347,Castleford,0.9587482,0.01,0.09270223999165184,-1.345968,53.72346999999999
348,Thirsk,0.9436141,0.011136939187435005,0.12387591168007207,-1.341377,54.23385
349,Banbury,0.9605263,0.01,0.0876896071896998,-1.339775,52.0629
350,Stockton,0.9774011,0.015436511976353038,0.024190600422236457,-1.3289821000000002,54.57046
351,Newbury,0.9600806,0.01,0.08894600031260487,-1.3231138999999998,51.40141
352,Isle of Wight,0.978162,0.01,0.037972869682507834,-1.304734,50.69385
353,Isle of Wight,0.978162,0.01,0.037972869682507834,-1.304734,50.69385
354,Abingdon,0.9559194,0.01,0.10067699892523334,-1.2879528999999998,51.67078
355,Shetland Islands,0.8465011,0.2775435819074613,0.12277350932153255,-1.2659409,60.52965
356,Rugby,0.9623168,0.01144003725057245,0.07083834800340816,-1.265032,52.37088
357,Oxford,0.9521277,0.01,0.1113662961374784,-1.2577263,51.75202
358,Middlesbrough,0.9774011,0.015436511976353038,0.024190600422236457,-1.234956,54.57423000000001
359,Hartlepool,0.9832402,0.01,0.02365672968789818,-1.212926,54.69174
360,Loughborough,0.9692623,0.01,0.06306196945369465,-1.206166,52.7721
361,Mansfield,0.9708423,0.01,0.05860767721316591,-1.198674,53.1472
362,Nottingham,0.9662711,0.01,0.07149451431018605,-1.1581086,52.95478000000001
363,Bicester,0.9728997,0.01,0.05280766288534919,-1.1535898999999998,51.8996
364,Leicester,0.9626814,0.011329353301362585,0.0699247269779043,-1.1397592,52.63688000000001
365,Doncaster,0.9827018,0.01,0.025174566562400767,-1.128462,53.52282
366,Worksop,0.970684,0.01,0.059053924541345525,-1.122745,53.3093
367,Basingstoke,0.970562,0.01,0.05939797087398205,-1.0923964,51.26654
368,Portsmouth,0.9709251,0.01,0.050922942112632166,-1.0879769,50.81977
369,York,0.9498681,0.01,0.11773630520473335,-1.0872979,53.95997
370,Selby,0.9540696,0.01,0.10589184609317732,-1.067189,53.78352
371,Helmsley,0.9480432,0.011061791042802364,0.11146747943629597,-1.0562636,54.24651
372,Towcester,0.9385343,0.012918497214157951,0.13635835951257144,-0.989688,52.13511
373,Reading,0.9668072,0.01,0.06998323749186168,-0.9781303,51.45426
374,Retford,0.9682059,0.01,0.0660400432594969,-0.945503,53.32136
375,Petersfield,0.9721731,0.01,0.05485597911147306,-0.93899,51.00759
376,Northampton,0.9346473,0.017005781412561073,0.1430989567813576,-0.902656,52.24048
377,Melton Mowbray,0.9548872,0.012325995186955874,0.09086904963014307,-0.887126,52.7664
378,Aylesbury,0.9511202,0.01,0.11420653546682112,-0.8084,51.81561
379,Newark-on-Trent,0.9564475,0.01,0.09918826930472303,-0.80657,53.07004000000001
380,Malton,0.9635996,0.01,0.07902570970307468,-0.7978970000000001,54.13684
381,Chichester,0.9705025,0.01,0.05340582893608474,-0.774936,50.83761
382,Gainsborough,0.9667722,0.01,0.07008194279782116,-0.774465,53.40058000000001
383,Milton Keynes,0.9494471,0.017265480219977727,0.10110889137328426,-0.7594171,52.04062
384,Aldershot,0.9599589,0.01,0.08928912197896446,-0.7557509,51.24837
385,High Wycombe,0.9276471,0.01,0.1803796686498992,-0.748229,51.62861
386,Midhurst,0.9569843,0.01,0.08985139237206477,-0.737274,50.9869
387,Kettering,0.9561856,0.014083826247128868,0.08539516622584706,-0.7302489999999999,52.39632
388,Wellingborough,0.9405286,0.01805459858065526,0.12543671734540762,-0.693964,52.30242
389,Corby,0.9594595,0.01476898475632564,0.0754587841678144,-0.6842333,52.4923
390,Bognor Regis,0.9645558,0.01,0.06833648860665119,-0.673061,50.783
391,Scunthorpe,0.9618209,0.01,0.0840401749229536,-0.654413,53.58865
392,Grantham,0.9615385,0.01,0.08483626184352318,-0.643582,52.91252
393,Whitby,0.9565442,0.016961794720427532,0.08141461040150558,-0.613347,54.48633
394,Slough,0.8960289,0.01,0.26951461662270537,-0.5950406,51.51054
395,Guildford,0.9396285,0.01,0.1466027823005298,-0.570409,51.23622
396,Woking,0.9338983,0.01,0.16275675290265998,-0.5600349,51.31677
397,Lincoln,0.9509728,0.01,0.1146220714705463,-0.540579,53.23069
398,Bedford,0.9357716,0.014624062827171344,0.1423867748681074,-0.4667782,52.13864
399,Heathrow,0.8532324,0.01,0.39016241966130094,-0.4542955,51.47002
400,Driffield,0.9646365,0.01,0.07610245056522652,-0.443377,54.006
401,Beverley,0.9616409,0.01,0.08454743331078465,-0.435093,53.84196
402,Luton,0.9616502,0.01905121860814948,0.06486450769194357,-0.4200255,51.87867
403,Scarborough,0.9649805,0.01,0.07513267015892071,-0.399752,54.28311
404,Worthing,0.9557985,0.01,0.09297860244427864,-0.372882,50.81787
405,Dorking,0.9143646,0.01,0.2178241930428944,-0.332378,51.2322
406,Hull,0.9619327,0.01,0.08372500467774012,-0.3274198,53.76762
407,Horsham,0.9535211,0.01,0.09949682874987724,-0.325858,51.06288
408,Biggleswade,0.9403454,0.01,0.1445818057498749,-0.26421999999999995,52.08694000000001
409,Peterborough,0.9369287,0.014984986491421545,0.13875247837343715,-0.2405299,52.5695
410,Welwyn Garden City,0.9161677,0.02181447031295825,0.1902334594033108,-0.208661,51.80317
411,Bridlington,0.9596348,0.01,0.09020290933163397,-0.198802,54.08535
412,Stevenage,0.9653929,0.023638894804236952,0.0495798671644724,-0.196612,51.90376
413,Crawley,0.9356568,0.01,0.15779927024209786,-0.1872275,51.10914
414,Huntingdon,0.9375283,0.014842529062938375,0.1372091511560195,-0.182552,52.33146
415,Hove,0.9365079,0.01,0.1464503899684174,-0.168749,50.82793
416,Spalding,0.9196172,0.015687631479881285,0.1868303633071312,-0.1537024,52.7901
417,Brighton,0.9305994,0.01,0.1631637244669054,-0.137163,50.82253
418,London,0.8688227,0.01,0.3462117572828153,-0.12775830000000002,51.50735
419,Grimsby,0.9586411,0.01,0.09300432959197197,-0.08078400000000001,53.56746999999999
420,Boston,0.9410405,0.01,0.14262226594365132,-0.026577,52.97894
421,Royston,0.9457505,0.01,0.12934431192610998,-0.024066,52.04814
422,Louth_Lincs,0.9676724,0.01,0.06754401013984529,-0.007711,53.36596
423,Lewes,0.9294872,0.01,0.16615658447582524,0.00878,50.87387
424,Chatteris,0.9331395,0.01588524508912722,0.1485056637444544,0.054012,52.4561
425,Uckfield,0.9419355,0.01,0.13100522117323846,0.095913,50.96641
426,Cambridge,0.933121,0.01,0.1649480033652891,0.121817,52.20534
427,Bishop's Stortford,0.9496151,0.02294412146370793,0.09477604656069084,0.1536502,51.87216
428,Wisbech,0.9334516,0.014546207010515332,0.14900740232566878,0.158797,52.66631999999999
429,Sevenoaks,0.9285714,0.01,0.17777377302056774,0.190898,51.27241
430,Tunbridge Wells,0.9405594,0.01,0.1439783144107334,0.263695,51.13238
431,Eastbourne,0.9293478,0.01,0.16792441953764364,0.29047199999999995,50.76803
432,Brentwood,0.9279999999999999,0.01,0.17938469108754654,0.30717490000000003,51.62047000000001
433,Skegness,0.9497674,0.01,0.11801999732906765,0.337881,53.1464
434,Downham Market,0.9363785,0.01,0.1557649170405767,0.385472,52.60661
435,King's Lynn,0.9468171,0.01,0.12633736767109371,0.4022963,52.75168000000001
436,Bexhill,0.9497041,0.01,0.11819844664410024,0.4662071,50.84991
437,Chelmsford,0.9476923,0.01,0.12387001693255655,0.4685497,51.73559
438,Mildenhall,0.9313559,0.01,0.16992396807497215,0.5156095,52.34757000000001
439,Medway,0.9653846,0.01,0.07399355460244014,0.5417860999999999,51.40474
440,Braintree,0.9449009,0.01,0.13173923705086354,0.5509269,51.88009
441,Gillingham,0.9675197,0.01,0.06797456915146638,0.551438,51.38632
442,Hastings,0.9484848,0.01,0.1216357638498404,0.573453,50.85426
443,Maldon,0.9377729,0.01,0.1518337913945888,0.6714479999999999,51.73181
444,Southend,0.9516588,0.01,0.11268815168604494,0.7077123000000001,51.54593
445,Bury St Edmunds,0.9309286,0.01,0.17112858834368175,0.7104931999999999,52.24292
446,Thetford,0.9332273,0.01,0.1646482592599154,0.751657,52.41286
447,Ashford,0.9335793,0.01,0.16365595984684056,0.8750190000000001,51.14647
448,Faversham,0.9581994,0.01,0.0942495477846276,0.889358,51.31599
449,Colchester,0.9411215,0.01,0.14239382544846907,0.891874,51.89593
450,New Romney,0.9400749,0.01,0.14534426921103855,0.939473,50.98512
451,Canterbury,0.9646302,0.01,0.07612025884837123,1.0789089,51.28023
452,Ipswich,0.942352,0.01,0.13892479895528048,1.14822,52.05674000000001
453,Clacton,0.9485886999999998,0.01,0.1213429660179618,1.153035,51.78953
454,Folkestone,0.9340659,0.01,0.1622841892339459,1.169456,51.0814
455,Sheringham,0.9453552,0.01,0.13045859399102466,1.2109589,52.94442
456,Harwich,0.947026,0.01,0.12574834679536548,1.260297,51.93473
457,Norwich,0.9245876,0.01,0.18900463712244395,1.297355,52.63089
458,Cromer,0.9456522,0.01,0.12962136787844447,1.301866,52.93145
459,Dover,0.9480519,0.01,0.12285615418913913,1.3134027,51.12788
460,Felixstowe,0.946729,0.01,0.12658576178794734,1.351255,51.96173
461,Margate,0.9605662,0.01,0.08757708827167618,1.3868339,51.38965
462,Ramsgate,0.9605662,0.01,0.08757708827167618,1.419895,51.33555
463,Great Yarmouth,0.9249414,0.01,0.18800731688424946,1.728047,52.59823000000001
464,Lowestoft,0.9275093,0.01,0.18076804258173906,1.7534490000000005,52.48114
465,Swaffham,0.9368421,0.01,0.15445787306706835,0.687481,52.64747
466,Dereham,0.9407295,0.01,0.1434989482428539,0.937827,52.68162
467,Ely,0.9242718,0.01,0.18989474963549827,0.262363,52.39954
468,March,0.9350181,0.014795643440414518,0.1443341643339235,0.088622,52.55172
469,St Neots,0.9338129,0.015725252000658146,0.14677231760712428,-0.26510300000000003,52.23008
470,Banham,0.9249414,0.01,0.18800731688424946,1.0402849,52.45125
471,Holt,0.9459459,0.01,0.12879319391042307,1.086747,52.90936
472,Cromer,0.9456522,0.01,0.12962136787844447,1.301866,52.93145
473,Hunstanton,0.9526022,0.01,0.11002843371354447,0.491032,52.93891
474,Horncastle,0.9604396,0.01,0.08793418141995206,-0.11245,53.20731
475,Market Weighton,0.9560899,0.01,0.10019629650181948,-0.6677465,53.86484
476,Hawes,0.95372,0.019207468497151315,0.08705943020733399,-2.1968695,54.30383000000001
477,Reeth,0.9611147,0.0212489630381184,0.06410652096873047,-1.9428115,54.38946
478,Aysgarth,0.9506775,0.017770812148053868,0.097118790061096,-1.9967434,54.29159
479,Stanhope,0.9762611,0.016215206756032413,0.02660093759130727,-2.011302,54.74946
480,Keswick,0.9578313,0.032918824539191656,0.06132195331511073,-3.134706,54.60128
481,Oxenholme,0.9626943,0.01698816105244124,0.06404972165120634,-2.7243328,54.30134
