,placename,past_participle,present_participle,longitude,latitude
0,Dingle,0.4598137408946596,0.01,-10.2640135,52.14094
1,Tralee,0.5427410788698533,0.01,-9.6999325,52.27131
2,Killarney,0.5427410788698533,0.01,-9.5044265,52.05994000000001
3,Bantry,0.4263666185451617,0.01,-9.4539805,51.68035
4,Mayo,0.4716871860991054,0.01,-9.4289369,54.01526
5,Ballycastle,0.3690577829655063,0.01,-9.3724643,54.27967
6,Abbeyfeale,0.5427410788698533,0.01,-9.2970823,52.38618
7,Ennistymon,0.5492951655077534,0.01,-9.2934951,52.94037
8,Galway,0.5542493875026713,0.01,-9.0567905,53.27067
9,Claremorris,0.4690569780066245,0.01,-9.0017356,53.72388
10,Clare,0.5592388218294446,0.01,-8.9811351,52.90453
11,Adare,0.5693202655366557,0.01,-8.7925892,52.56363
12,Charleville,0.5202648943496458,0.01,-8.681017599999999,52.36206
13,Mallow,0.4263666185451617,0.01,-8.6539164,52.13898
14,Limerick,0.5693202655366557,0.01,-8.6267343,52.66384
15,Loughrea,0.5448300887314311,0.01,-8.5660931,53.19891
16,Sligo,0.5222145858547534,0.01,-8.476088800000001,54.27661
17,Cork,0.4780889411274584,0.01,-8.4756035,51.89851
18,Nenagh,0.6224794043557351,0.01,-8.19834,52.8635
19,Roscommon,0.4226073193768923,0.01,-8.1890955,53.62759000000001
20,Tipperary,0.4263666185451617,0.01,-8.161851400000002,52.47379
21,Donegal,0.3289754325177467,0.01,-8.1096143,54.653830000000006
22,Leitrim,0.563789632978979,0.01,-8.0020132,54.12469
23,Athlone,0.2715578980006252,0.01,-7.9406898,53.42393000000001
24,Longford,0.4709155767401936,0.01,-7.7932573,53.72763000000001
25,Offaly,0.3518412491447859,0.01,-7.7122229,53.23569000000001
26,Fermanagh,0.2386190580066013,0.01,-7.6318728,54.34383
27,Enniskillen,0.2386190580066013,0.01,-7.631533599999999,54.34382
28,Doon,0.3684874962865484,0.01,-7.60964,54.185930000000006
29,Westmeath,0.5206598848548033,0.01,-7.4653217,53.53453
30,Strabane,0.28082792710421883,0.01,-7.4633103,54.82739
31,Cavan,0.42026799576495305,0.01,-7.3633319,53.98972
32,Mullingar,0.5206598848548033,0.01,-7.3401868000000015,53.52582
33,Laois,0.4202940222711069,0.01,-7.3323006999999985,52.99429
34,Omagh,0.2976096651750759,0.01,-7.309959700000001,54.59771
35,Derry,0.4874125542143094,0.01,-7.308574799999999,54.99661
36,Kilkenny,0.14540206427496602,0.060023664799244335,-7.2447879,52.65415
37,Tyrone,0.4508575608358616,0.01,-7.1312320000000025,54.49121
38,Waterford,0.2803770561593781,0.01,-7.110070200000001,52.25932
39,Monaghan,0.5198400499109592,0.01,-6.9683132,54.2492
40,Carlow,0.2654983149796469,0.01,-6.9341358999999985,52.83651
41,Kildare,0.5328425861911938,0.01,-6.8194708,53.21204
42,Dungannon,0.4714116113280655,0.01,-6.7669352,54.50827
43,Cookstown,0.4422879509419946,0.01,-6.7443895000000005,54.64182
44,Coleraine,0.4615636406907632,0.01,-6.6646103000000005,55.13258
45,Meath,0.4671715872814261,0.01,-6.656416900000001,53.60555
46,Armagh,0.4891984318277433,0.01,-6.652792,54.35028000000001
47,Magherafelt,0.4399677644669333,0.01,-6.607980499999999,54.75536999999999
48,Louth,0.40612871355417896,0.01,-6.4889423,53.925230000000006
49,Wexford,0.2537412235674181,0.01,-6.4633381,52.33692
50,Craigavon,0.4792938152652829,0.01,-6.4175653,54.44293
51,Drogheda,0.3721319726335514,0.01,-6.3560985,53.71786
52,Rosslare,0.2537412235674181,0.01,-6.3414908,52.25131
53,Newry,0.5198400499109592,0.01,-6.34023,54.1751
54,Ballymena,0.4301695503855132,0.01,-6.2802213,54.86529
55,Banbridge,0.4792938152652829,0.01,-6.2704803,54.34873
56,Dublin,0.4927893241914886,0.01,-6.2603097000000005,53.34981
57,Antrim,0.4350502857748205,0.01,-6.2072498,54.719530000000006
58,Wicklow,0.3745861190667572,0.01,-6.044589,52.98082
59,Kilkeel,0.4316852116262328,0.01,-6.007004,54.06312
60,Belfast,0.4549398948746281,0.01,-5.93012,54.59728000000001
61,Down,0.5067303456642094,0.01,-5.7156922,54.32875
62,Balivanich,0.06788594312333153,0.3416408495901399,-7.3743509,57.47227
63,Western Isles,0.11475126036604885,0.1713784769359556,-7.0194034,57.75989000000001
64,Dunvegan,0.04786926343465535,0.41436173524641656,-6.5813982000000015,57.4366
65,Stornoway,0.0874984464811489,0.2703883423661713,-6.3848692000000025,58.20943000000001
66,Scilly Isles,0.16221365627935266,0.01,-6.327496599999999,49.92773
67,Portree,0.0754764970945313,0.3140642576681656,-6.1960231,57.41246999999999
68,Islay,0.21771977356512207,0.01,-6.177067,55.73625
69,Mull,0.058442148816887786,0.3759502903466316,-6.0008870000000005,56.4392
70,Broadford,0.0754764970945313,0.3140642576681656,-5.9096592,57.24139
71,Kyle of Lochalsh,0.07620600475231218,0.31141394583863635,-5.7143293,57.28261
72,Campbeltown,0.21374613846382126,0.01,-5.6053739999999985,55.42412
73,Penzance,0.19036591559750785,0.01,-5.537592,50.1188
74,Oban,0.1369740691939946,0.0906426923366501,-5.471047,56.41516
75,Lochgilphead,0.1625650141124284,0.01,-5.4323449,56.03829
76,Helston,0.20019321812698213,0.01,-5.274996,50.10159
77,Redruth,0.19036591559750785,0.01,-5.226666000000002,50.23302
78,Ullapool,0.08537652074414129,0.2780973291358091,-5.161313,57.89542
79,Ballachulish,0.046129314949728266,0.4206829931567284,-5.1337199999999985,56.67393000000001
80,Fort William,0.07313640799711743,0.3225658350688806,-5.1052179,56.81981999999999
81,Achnasheen,0.08537652074414129,0.2780973291358091,-5.078765799999998,57.57859000000001
82,Newquay,0.1963688526933277,0.01,-5.0737190000000005,50.4155
83,Falmouth,0.20019321812698213,0.01,-5.0662699999999985,50.15257
84,Rothesay,0.19592487111776333,0.01,-5.055793,55.83596
85,Truro,0.20019321812698213,0.01,-5.0510410000000014,50.2632
86,Milford Haven,0.1865675766700072,0.01,-5.0426971,51.71431
87,Stranraer,0.1349531875397018,0.09798458449820577,-5.0240550000000015,54.90337
88,Fishguard,0.1966237593565398,0.01,-4.975989,51.99393
89,Inchnadamph,0.08326378083283514,0.2857729436683483,-4.974295,58.15221
90,Haverfordwest,0.19678910421916385,0.01,-4.971319,51.80048
91,Dunoon,0.1606168535782712,0.01,-4.926214,55.95097
92,Pembroke,0.20696623361076397,0.01,-4.9086370000000015,51.67404000000001
93,Girvan,0.2156460734130469,0.01,-4.8542179,55.24016
94,Wadebridge,0.1963688526933277,0.01,-4.836456,50.51665
95,Invergarry,0.08097268280582809,0.29409653580453565,-4.800261,57.07095
96,St Austell,0.20019321812698213,0.01,-4.7834252,50.34038
97,Greenock,0.18491030061639185,0.01,-4.7719830000000005,55.956480000000006
98,Helensburgh,0.14648063330939745,0.05610520795998227,-4.734014,56.00232
99,Bodmin,0.1963688526933277,0.01,-4.7188629,50.4715
100,Tenby,0.2472897119831828,0.01,-4.703579,51.67274000000001
101,Camelford,0.1963688526933277,0.01,-4.682364,50.62206
102,Irvine,0.21374613846382126,0.01,-4.6696364,55.61156999999999
103,Cardigan,0.19038505273438552,0.01,-4.660864,52.0837
104,Holyhead,0.01,0.985591536632944,-4.633038,53.30944
105,Ayr,0.19406091398586814,0.01,-4.629179,55.45856
106,Dumbarton,0.18888929411601885,0.01,-4.564554,55.94529
107,Bude,0.1997278029581147,0.01,-4.543678,50.82664000000001
108,Isle of Man,0.01,0.8512321290566777,-4.5126331,54.27697
109,Kilmarnock,0.23946109202922325,0.01,-4.498792,55.61472
110,Newton Stewart,0.15442024865724802,0.027260471028291263,-4.483164,54.9603
111,Liskeard,0.21726737164933155,0.01,-4.4647190000000005,50.45552
112,Altnaharra,0.13192263054373718,0.10899464172078098,-4.442655,58.28023
113,Pwllheli,0.05163621745767632,0.4006763370164827,-4.417633900000001,52.88882
114,Lairg,0.14567381161863038,0.05903640278509019,-4.402414,58.02206
115,Launceston,0.1963688526933277,0.01,-4.360451599999998,50.63683
116,Carmarthen,0.21999632736810207,0.01,-4.312131,51.85762
117,Llangefni,0.01,0.8276741106852598,-4.311401999999998,53.25578
118,Caernarfon,0.01,0.7596837396376217,-4.273911,53.13955
119,Cumnock,0.21899583785213225,0.01,-4.265828900000002,55.45355
120,Aberaeron,0.19229953190763807,0.01,-4.2581619,52.24279
121,Alness,0.17975705239794534,0.01,-4.256825,57.69595
122,Glasgow,0.19390552043442089,0.01,-4.251806,55.86424
123,Dalwhinnie,0.11093761172904584,0.18523351737113794,-4.242783,56.9366
124,Inverness,0.17975705239794534,0.01,-4.224721,57.47776999999999
125,Saltash,0.2014134019743088,0.01,-4.21643,50.40921
126,Bideford,0.1997278029581147,0.01,-4.206666,51.01668
127,Invergordon,0.17975705239794534,0.01,-4.172882,57.68811
128,Llanelli,0.22378854241180185,0.01,-4.160248,51.68089000000001
129,Plymouth,0.2014134019743088,0.01,-4.1426565,50.37546
130,Tavistock,0.21726737164933155,0.01,-4.141654,50.55112
131,Porthmadog,0.01,0.7289451282506124,-4.133384,52.92784
132,Bangor,0.01,0.7579011059726372,-4.129263,53.22739
133,Tywyn,0.07415833110639064,0.31885317369173183,-4.087249,52.58701
134,Aberystwyth,0.19742675361993114,0.01,-4.08292,52.4153
135,Lampeter,0.17320832415837112,0.01,-4.078509,52.1129
136,Barnstaple,0.1997278029581147,0.01,-4.058338,51.07816
137,Tain,0.15194543411621447,0.036251507906441986,-4.05523,57.8115
138,Okehampton,0.22224073078112755,0.01,-4.004263,50.73831
139,Llandeilo,0.2437011160758628,0.01,-3.99143,51.88469
140,Motherwell,0.17870986826799334,0.01,-3.9810968,55.78321
141,Golspie,0.1905565214808105,0.01,-3.976086,57.97341
142,Airdrie,0.17870986826799334,0.01,-3.962566,55.86626999999999
143,Swansea,0.2314525829886127,0.01,-3.943646,51.62144
144,Stirling,0.22299932688696245,0.01,-3.9369029,56.11652
145,Tregaron,0.1573015359855657,0.01679271265855653,-3.934385,52.22
146,Castle Douglas,0.15476777906294853,0.025997888058084468,-3.931414,54.94042
147,Dolgellau,0.1130090154246962,0.17770807790554116,-3.8844,52.74215
148,Aberfeldy,0.22853837978486505,0.01,-3.866969,56.62175
149,Machynlleth,0.08273023745668276,0.2877113144397917,-3.853485,52.59027
150,Brora,0.1915593074532057,0.01,-3.852548000000001,58.01216
151,Llandudno,0.01,0.8372602857916495,-3.827609,53.32406
152,Aviemore,0.2334344248836747,0.01,-3.823812,57.19449
153,Dalbeattie,0.14844180709663146,0.04898023533956369,-3.822527,54.93422
154,Falkirk,0.2094701365998516,0.01,-3.7839131,56.00188000000001
155,Kingsbridge,0.17953276515373776,0.01,-3.777493,50.28395
156,Pitlochry,0.2340728397699172,0.01,-3.729711,56.70436
157,Colwyn Bay,0.01,0.7380195957215081,-3.72764,53.29318000000001
158,Totnes,0.17953276515373776,0.01,-3.685797,50.43374
159,Grantown-on-Spey,0.2590912015529683,0.01,-3.609628,57.33041
160,Dumfries,0.2297577981467169,0.01,-3.60512,55.07086
161,Whitehaven,0.01,0.8336171499084553,-3.589233,54.5497
162,Dartmouth,0.19654950726545398,0.01,-3.578807,50.35252
163,Bridgend,0.30207703840782324,0.01,-3.576945,51.50429000000001
164,Paignton,0.17953276515373776,0.01,-3.564235,50.43508
165,Workington,0.01,0.9758579674793624,-3.542752,54.64357
166,Llanidloes,0.16108379971808867,0.01,-3.540195,52.44779000000001
167,Exeter,0.19654950726545398,0.01,-3.533899,50.71841
168,Torquay,0.19654950726545398,0.01,-3.525315,50.46192
169,Thurso,0.2027897448585584,0.01,-3.5220800000000003,58.59356999999999
170,Livingston,0.21152163767314888,0.01,-3.518068,55.90071
171,Rhyl,0.01,0.7408757030131471,-3.4916339999999995,53.31914
172,Tiverton,0.24372331515464096,0.01,-3.491207,50.90205
173,Minehead,0.2018535561224976,0.01,-3.481152,51.20428
174,Dunfermline,0.2278525047991658,0.01,-3.452151,56.07174000000001
175,Perth,0.2442446107631917,0.01,-3.4308381000000003,56.39499
176,Prestatyn,0.01,0.6886509329745518,-3.407613,53.33651
177,Builth Wells,0.25016028251484873,0.01,-3.404592,52.15002
178,Braemar,0.2485098958305097,0.01,-3.3979439,57.00646999999999
179,Brecon,0.17655273019913073,0.01,-3.391463,51.94895
180,Merthyr Tydfil,0.3645322328366501,0.01,-3.381646,51.74873
181,Llandrindod Wells,0.24199561443731565,0.01,-3.377742,52.2417
182,Corwen,0.01,0.6419715163337392,-3.369242,52.98005
183,Cockermouth,0.01,0.7516632786550694,-3.367985,54.66326
184,Lockerbie,0.20435439716968504,0.01,-3.349008,55.12224000000001
185,Blairgowrie,0.258474220260029,0.01,-3.3378318,56.58941
186,Elgin,0.2191068332460233,0.01,-3.318485,57.64945
187,Newtown,0.13961040117027665,0.08106486028952338,-3.313106,52.51211
188,Ruthin,0.01,0.7256663059557351,-3.3103108,53.11487
189,Sidmouth,0.20587235486683,0.01,-3.23756,50.67865
190,Barrow-in-Furness,0.01,0.6082933670623495,-3.218894,54.10896999999999
191,Peebles,0.2524437256871049,0.01,-3.193642,55.65306999999999
192,Edinburgh,0.22609418466283604,0.01,-3.188267,55.95325
193,Cardiff,0.3803655344038448,0.01,-3.17909,51.48158
194,Llangollen,0.01,0.6240339388935671,-3.17166,52.96921
195,Kirkcaldy,0.2303288503111497,0.01,-3.158137,56.11682
196,Welshpool,0.08508410529264901,0.27915967868342817,-3.146407,52.66035
197,Mold,0.01,0.6111300072156797,-3.141903,53.1672
198,Taunton,0.2361878761376489,0.01,-3.106849,51.01534
199,Wick,0.20010135986996874,0.01,-3.093716,58.43894
200,John o' Groats,0.20010135986996874,0.01,-3.0688997,58.63734
201,Dalkeith,0.2257175658090812,0.01,-3.066606,55.89312
202,Oswestry,0.046945322466196315,0.41771842609452176,-3.056412,52.85715
203,Blackpool,0.01,0.7736861741199824,-3.0356748,53.81751
204,Birkenhead,0.011305084230505956,0.5471999250149606,-3.023009,53.38999
205,Cupar,0.2593063029714747,0.01,-3.010137,56.32023
206,Southport,0.017556804105737154,0.5244873366500238,-3.010113,53.64571
207,Bridgwater,0.20605530589538185,0.01,-3.003632,51.12789
208,Langholm,0.10120140197111004,0.22060530767524825,-2.998913,55.15306
209,Newport,0.38828754358576795,0.01,-2.997664,51.58415
210,Axminster,0.20465140553402814,0.01,-2.994937,50.78273
211,Wrexham,0.013079479561813236,0.540753521215535,-2.992494,53.04304000000001
212,Liverpool,0.023235175360110046,0.5038577320839494,-2.9915726,53.40837
213,Weston-super-Mare,0.348861979675654,0.01,-2.977255,51.34741
214,Dundee,0.29285906231653713,0.01,-2.970721,56.46202
215,Kirkwall,0.19739613420092664,0.01,-2.9622491,58.98467
216,Ambleside,0.01,0.8361506589081484,-2.961333,54.42874000000001
217,Orkney Islands,0.19739613420092664,0.01,-2.9605206,58.98094
218,Lyme Regis,0.1902151149589109,0.01,-2.936639,50.72516
219,Carlisle,0.08236663185600522,0.2890322988249199,-2.932931,54.89247
220,Chester,0.01,0.5866570333438179,-2.893075,53.19339
221,Forfar,0.3016131542099061,0.01,-2.889062,56.64356
222,Morecambe,0.01,0.6442213613180929,-2.864968,54.07417
223,Selkirk,0.29691383887820016,0.01,-2.838524,55.55066
224,Galashiels,0.3224741643776297,0.01,-2.814449,55.62373
225,Lancaster,0.01,0.645812104619763,-2.8007399,54.04657
226,St Andrews,0.29722003306824435,0.01,-2.7967214,56.33978000000001
227,Hawick,0.16996878962770148,0.01,-2.780914,55.42706
228,Bridport,0.1568460721278745,0.018447419414661884,-2.758301,50.73358
229,Shrewsbury,0.0749521395440805,0.31596925620251304,-2.7553268,52.7073
230,Penrith,0.01,0.7563381728685488,-2.752708,54.6641
231,Kendal,0.01,0.7312700607684383,-2.74629,54.32801
232,Street,0.30487948073220456,0.01,-2.742919,51.12468
233,Glastonbury,0.30487948073220456,0.01,-2.718454,51.14743
234,Hereford,0.2246650232808037,0.01,-2.715974,52.0564
235,Ludlow,0.11183858813325163,0.18196025711578,-2.7139129,52.36775
236,Preston,0.01,0.6471803663407834,-2.70309,53.7632
237,Whitchurch,0.023108104771241696,0.5043193813638088,-2.682045,52.96872
238,Wells,0.2821667612001877,0.01,-2.6445979,51.20935
239,Yeovil,0.20574911170533736,0.01,-2.633308,50.94206
240,Wigan,0.01,0.6718396685364397,-2.6325074,53.54506
241,Warrington,0.015457077447507702,0.5321156738466738,-2.5969501,53.39004
242,Arbroath,0.29941238346896226,0.01,-2.591543,56.55911
243,Bristol,0.3374110824534694,0.01,-2.58791,51.45451
244,Guernsey,0.09509512433614996,0.2427895022861368,-2.585278,49.46569
245,Ross-on-Wye,0.3378872144189885,0.01,-2.582446,51.91445
246,Jedburgh,0.15789861465615224,0.014623517247183816,-2.5549369,55.47772
247,Sedbergh,0.01,0.6024949408665716,-2.5281740000000004,54.32363
248,Nantwich,0.01,0.5998001327209109,-2.524102,53.06718000000001
249,Banff,0.2398162772896748,0.01,-2.524038,57.66651
250,Dunbar,0.2527659950721265,0.01,-2.516737,56.00209
251,Cinderford,0.3644158790444333,0.01,-2.5009579,51.8253
252,Banchory,0.16735848415757315,0.01,-2.4909599,57.05386
253,Blackburn,0.017273574479946034,0.5255163139605468,-2.487529,53.74858
254,Market Drayton,0.02852774193502706,0.4846297614759909,-2.483485,52.90355
255,Telford,0.01,0.7236750958088891,-2.4672611,52.67759
256,Montrose,0.2085645672827952,0.01,-2.4661150000000003,56.70692
257,Turriff,0.1918670326142005,0.01,-2.4623,57.53893000000001
258,Weymouth,0.19871965858739327,0.01,-2.457621,50.61443
259,Crewe,0.01,0.6493328756336013,-2.4438209,53.1004
260,Fortuneswell,0.19430433836695368,0.01,-2.442219,50.55919
261,Dorchester,0.21141753164853366,0.01,-2.4411810000000003,50.71116
262,Alston,0.01,0.6406672180671572,-2.438685,54.81217
263,Kelso,0.21346979820730613,0.01,-2.432207,55.60003
264,Wincanton,0.15653987793783028,0.019559827317929445,-2.416007,51.05569000000001
265,Clitheroe,0.046989720623752736,0.4175571269485466,-2.3930830000000003,53.8711
266,Sark,0.11857639128517786,0.15748172120439852,-2.3666256000000003,49.43007
267,Bath,0.31691061594452313,0.01,-2.3590167,51.38106
268,Kidderminster,0.07931464126673766,0.3001202246007257,-2.2496839,52.3886
269,Manchester,0.01,0.6508262832437374,-2.2426305,53.48076
270,Burnley,0.04182958303602991,0.43630398113834223,-2.2405035,53.78929
271,Gloucester,0.27242748950035084,0.01,-2.238156,51.86424
272,Newcastle-under-Lyme,0.01,0.7038519869726823,-2.2273002,53.01321
273,Worcester,0.17578724472401994,0.01,-2.221575,52.19364
274,Trowbridge,0.2305722746922349,0.01,-2.208853,51.31966
275,Shaftesbury,0.17283706370294247,0.01,-2.198083,51.0046
276,Alderney,0.11159439826669122,0.1828474024186313,-2.1973557,49.715
277,Stoke-on-Trent,0.01,0.6497500285973253,-2.179404,53.00267
278,Colne,0.021539625032739297,0.5100176908482892,-2.176991,53.85564
279,Blandford Forum,0.17466580850298244,0.01,-2.165353,50.85691
280,Rochdale,0.04455777326932535,0.4263924267202388,-2.1561,53.60971
281,Jersey,0.11061228040212363,0.1864154507683569,-2.13125,49.21444
282,Wolverhampton,0.10031037687808077,0.22384241467375346,-2.12882,52.58697
283,Stafford,0.07759765734606396,0.3063580519182903,-2.12066,52.80669
284,Macclesfield,0.06254361999253208,0.3610495864823769,-2.119287,53.25866
285,Hexham,0.027368031440234118,0.4888430064096144,-2.1121439,54.97266
286,Aberdeen,0.153480997979287,0.03067278227156155,-2.094278,57.14972
287,Dudley,0.09658246261429022,0.23738598089602456,-2.081112,52.51225
288,Cheltenham,0.24150800018966995,0.01,-2.0782533,51.89939
289,Bromsgrove,0.0787833943470107,0.30205025231289,-2.061906,52.33559
290,Skipton,0.01,0.6580903068520616,-2.0162787,53.96285
291,Fraserburgh,0.1918670326142005,0.01,-2.007631,57.69335
292,Berwick,0.15400688650068806,0.028762221697697512,-2.005395,55.77024
293,Poole,0.09815630075111847,0.2316682042732349,-1.987248,50.71505
294,Walsall,0.0692056400824227,0.3368463715270633,-1.982919,52.58621
295,Cirencester,0.2579161813486732,0.01,-1.968243,51.71849
296,Evesham,0.18377814759870287,0.01,-1.94677,52.09215
297,Buxton,0.07430836625951223,0.3183080938191252,-1.91483,53.25908
298,Keighley,0.07103438488246265,0.33020251532480666,-1.912358,53.8678
299,Birmingham,0.13208032055161026,0.10842175165059764,-1.890401,52.48624
300,Bournemouth,0.1191244788853576,0.15549051105755612,-1.880769,50.71916
301,Halifax,0.16223279341623031,0.01,-1.85754,53.72702
302,Salisbury,0.09160451056964396,0.2554709523833735,-1.794472,51.06878
303,Ringwood,0.11343232889243265,0.1761701739792759,-1.788817,50.84495
304,Huddersfield,0.18162330598626567,0.01,-1.7850351000000002,53.64579000000001
305,Peterhead,0.19459292639107034,0.01,-1.784066,57.50812
306,Swindon,0.17419273847936362,0.01,-1.7797176,51.55577
307,Bradford,0.1477704763349594,0.051419189667475586,-1.759398,53.79598000000001
308,Ashbourne,0.21179644695871397,0.01,-1.732179,53.016630000000006
309,Marlborough,0.2077432013680013,0.01,-1.727062,51.42007
310,Stratford-upon-Avon,0.17825670086672785,0.01,-1.708298,52.19173
311,Alnwick,0.11031221009588027,0.1875056105135644,-1.7062990000000002,55.41274
312,Otley,0.13038553570971473,0.11457892939517805,-1.691786,53.90583
313,Bishop Auckland,0.01,0.7026422433778807,-1.6787880000000002,54.66382
314,Burton upon Trent,0.1070497110009576,0.1993583167228621,-1.6371359,52.81403
315,Newcastle,0.0248419293723678,0.4980203716115598,-1.61778,54.97825
316,Durham,0.01,0.6742341265482171,-1.584852,54.77525
317,Ashington,0.15167062483064964,0.037249893999622606,-1.5659829,55.18298000000001
318,Darlington,0.01,0.7755160851208565,-1.559458,54.52361
319,Leeds,0.17087435894475764,0.01,-1.5490774,53.80076
320,Harrogate,0.16923698551349545,0.01,-1.5418120000000002,53.99211999999999
321,Leamington Spa,0.16020272593623613,0.01,-1.5200789,52.28519
322,Coventry,0.10879348691326024,0.1930231537137604,-1.519693,52.40682
323,Blyth,0.012830696782402184,0.5416573526369415,-1.510277,55.12696
324,Wakefield,0.14395988963985673,0.06526310602362158,-1.505924,53.6833
325,Andover,0.11734931806857528,0.16193969587674167,-1.4919233,51.2112
326,Witney,0.2193341824321313,0.01,-1.4850544,51.78594
327,Barnsley,0.15496221237362653,0.02529150903950584,-1.479726,53.55263000000001
328,Derby,0.23096190679906645,0.01,-1.4746186,52.92253
329,Sheffield,0.1714591898477427,0.01,-1.470085,53.38113000000001
330,Nuneaton,0.11847458171698845,0.15785159683224054,-1.465382,52.52049
331,Northallerton,0.01,0.7122979439782362,-1.429959,54.33796
332,South Shields,0.02181826174567973,0.5090053996563155,-1.427406,54.99941999999999
333,Chesterfield,0.14946526117685485,0.04526201192289564,-1.421629,53.23505
334,Southampton,0.016401686523794676,0.5286838954650943,-1.4043508999999998,50.9097
335,Wetherby,0.16790733724322798,0.01,-1.384816,53.92706
336,Sunderland,0.01,0.5728882045211432,-1.383801,54.90687
337,Rotherham,0.14579169638179745,0.05860812574233575,-1.3635008999999998,53.4326
338,Castleford,0.18303868862974576,0.01,-1.345968,53.72346999999999
339,Thirsk,0.04266396220390092,0.4332726696019405,-1.341377,54.23385
340,Banbury,0.2469506019177089,0.01,-1.339775,52.0629
341,Stockton,0.01,0.6642335794978524,-1.3289821000000002,54.57046
342,Newbury,0.15338913972227355,0.031006504642538717,-1.3231138999999998,51.40141
343,Isle of Wight,0.012982262906474015,0.5411067107248245,-1.304734,50.69385
344,Abingdon,0.2878229333757824,0.01,-1.2879528999999998,51.67078
345,Shetland Islands,0.2451670207607001,0.01,-1.2659409,60.52965
346,Rugby,0.1714209155739871,0.01,-1.265032,52.37088
347,Oxford,0.2574622484619321,0.01,-1.2577263,51.75202
348,Middlesbrough,0.01,0.6552314185406721,-1.234956,54.57423000000001
349,Hartlepool,0.01,0.6606599691086107,-1.212926,54.69174
350,Loughborough,0.1470738845526083,0.053949917647405324,-1.206166,52.7721
351,Mansfield,0.20917083177908333,0.01,-1.198674,53.1472
352,Nottingham,0.2421632557563651,0.01,-1.1581086,52.95478000000001
353,Bicester,0.17878182390265368,0.01,-1.1535898999999998,51.8996
354,Leicester,0.10445777718223173,0.20877484962401327,-1.1397592,52.63688000000001
355,Doncaster,0.19529334560079675,0.01,-1.128462,53.52282
356,Worksop,0.18794545052520686,0.01,-1.122745,53.3093
357,Basingstoke,0.1697177103918653,0.01,-1.0923964,51.26654
358,Portsmouth,0.06520980590234368,0.3513632946646924,-1.0879769,50.81977
359,York,0.1985321146459912,0.01,-1.0872979,53.95997
360,Selby,0.15664092202054491,0.019192732709850426,-1.067189,53.78352
361,Helmsley,0.05479690698440928,0.3891935064350179,-1.0562636,54.24651
362,Towcester,0.15861281260443064,0.012028825812812942,-0.989688,52.13511
363,Reading,0.33832813405265233,0.01,-0.9781303,51.45426
364,Retford,0.14947827442993192,0.045214734587007005,-0.945503,53.32136
365,Petersfield,0.14497951629270495,0.06155878770574885,-0.93899,51.00759
366,Northampton,0.2236538169681824,0.01,-0.902656,52.24048
367,Melton Mowbray,0.11936866875191784,0.154603365754699,-0.887126,52.7664
368,Aylesbury,0.35127402440772865,0.01,-0.8084,51.81561
369,Newark-on-Trent,0.3477191098613134,0.01,-0.80657,53.07004000000001
370,Malton,0.13938075552774332,0.0818991662169753,-0.7978970000000001,54.13684
371,Chichester,0.18157048748848306,0.01,-0.774936,50.83761
372,Gainsborough,0.15842986157587918,0.012693489535019984,-0.774465,53.40057
373,Milton Keynes,0.2717622826224797,0.01,-0.7594171,52.04062
374,Aldershot,0.3727213964493867,0.01,-0.7557509,51.24837
375,High Wycombe,0.3934714112232196,0.01,-0.748229,51.62861
376,Midhurst,0.2387675621887728,0.01,-0.737274,50.9869
377,Kettering,0.2596232139581704,0.01,-0.7302489999999999,52.39632
378,Wellingborough,0.318296144654474,0.01,-0.693964,52.30242
379,Corby,0.2454709184943192,0.01,-0.6842333,52.4923
380,Bognor Regis,0.21898282459905544,0.01,-0.673061,50.783
381,Scunthorpe,0.15812213641488446,0.013811459477797413,-0.654413,53.58865
382,Grantham,0.31707442983619705,0.01,-0.643582,52.91252
383,Whitby,0.01,0.5718898184279595,-0.613347,54.48634000000001
384,Slough,0.5995041233057551,0.01,-0.5950406,51.51054
385,Guildford,0.410953568503803,0.01,-0.570409,51.23622
386,Woking,0.4560460213861635,0.01,-0.5600349,51.31677
387,Lincoln,0.20904452667569,0.01,-0.540579,53.23069
388,Bedford,0.3899869213405143,0.01,-0.4667782,52.13864
389,Heathrow,1.0,0.01,-0.4542955,51.47002
390,Driffield,0.13151692324192854,0.11046858219261096,-0.443377,54.006
391,Beverley,0.1818215667243194,0.01,-0.435093,53.84196
392,Luton,0.7973752292526579,0.01,-0.4200255,51.87867
393,Scarborough,0.04097453576033104,0.4394103802082179,-0.399752,54.28311
394,Worthing,0.3012365353561513,0.01,-0.372882,50.81787
395,Dorking,0.7642955399312139,0.01,-0.332378,51.2322
396,Hull,0.2182548479122248,0.01,-0.3274198,53.76762
397,Horsham,0.3602830229643092,0.01,-0.325858,51.06288
398,Biggleswade,0.6553692532793518,0.01,-0.26421999999999995,52.08694000000001
399,Peterborough,0.3313040393330345,0.01,-0.2405299,52.5695
400,Welwyn Garden City,0.6202457177393613,0.01,-0.208661,51.80317
401,Bridlington,0.09730737735922068,0.2347523551850353,-0.198802,54.08535
402,Stevenage,0.6903381607533701,0.01,-0.196612,51.90376
403,Crawley,0.4510673038560419,0.01,-0.1872275,51.10914
404,Huntingdon,0.3814341521270998,0.01,-0.182552,52.33146
405,Hove,0.2396624147091773,0.01,-0.168749,50.82793
406,Spalding,0.2288675385391628,0.01,-0.1537024,52.7901
407,Brighton,0.22453489075003494,0.01,-0.137163,50.82253
408,London,0.7214819373082588,0.01,-0.12775830000000002,51.50735
409,Grimsby,0.21759882686005466,0.01,-0.08078400000000001,53.56746999999999
410,Boston,0.2534281400080974,0.01,-0.026577,52.97894
411,Royston,0.6083278743773592,0.01,-0.024066,52.04814
412,Louth_Lincs,0.21135399635409965,0.01,-0.007711,53.36596
413,Lewes,0.3505835565091785,0.01,0.00878,50.87387
414,Chatteris,0.3669014103821186,0.01,0.054012,52.4561
415,Uckfield,0.3600686870312783,0.01,0.095913,50.96641
416,Cambridge,0.4531218668712396,0.01,0.121817,52.20534
417,Bishop's Stortford,0.5681842850915908,0.01,0.1536502,51.87216
418,Wisbech,0.3151392825551167,0.01,0.158797,52.66631999999999
419,Sevenoaks,0.5574942804316666,0.01,0.190898,51.27241
420,Tunbridge Wells,0.4505528976167675,0.01,0.263695,51.13238
421,Eastbourne,0.3629737044093242,0.01,0.29047199999999995,50.76803
422,Brentwood,0.5107904806241977,0.01,0.30717490000000003,51.62047000000001
423,Skegness,0.2736629830571803,0.01,0.337881,53.1464
424,Downham Market,0.2360118144783734,0.01,0.385472,52.60661
425,King's Lynn,0.25958953259726564,0.01,0.4022963,52.75168000000001
426,Bexhill,0.39468317473031983,0.01,0.4662071,50.84991
427,Chelmsford,0.6448323457144497,0.01,0.4685497,51.73559
428,Mildenhall,0.3640071098007239,0.01,0.5156095,52.34757000000001
429,Medway,0.4936994864213956,0.01,0.5417860999999999,51.40474
430,Braintree,0.5463671835654541,0.01,0.5509269,51.88009
431,Gillingham,0.46754361322233,0.01,0.551438,51.38632
432,Hastings,0.4101804281739411,0.01,0.573453,50.85426
433,Maldon,0.4590291182826708,0.01,0.6714479999999999,51.7318
434,Southend,0.6384267632587215,0.01,0.7077123000000001,51.54593
435,Bury St Edmunds,0.39080063240055735,0.01,0.7104931999999999,52.24292
436,Thetford,0.3802683177485057,0.01,0.751657,52.41286
437,Ashford,0.4428949809237577,0.01,0.8750190000000001,51.14647
438,Faversham,0.5170138775368498,0.01,0.889358,51.31599
439,Colchester,0.4117313017465158,0.01,0.891874,51.89593
440,New Romney,0.35161160350225257,0.01,0.939473,50.98512
441,Canterbury,0.4554030135870704,0.01,1.0789089,51.28023
442,Ipswich,0.2753302104219718,0.01,1.14822,52.05674000000001
443,Clacton,0.3019407819932535,0.01,1.153035,51.78953
444,Folkestone,0.4156391050969572,0.01,1.169456,51.0814
445,Sheringham,0.2402862853713928,0.01,1.2109589,52.94442
446,Harwich,0.1927373895994016,0.01,1.260297,51.93473
447,Norwich,0.3219276077484002,0.01,1.297355,52.63089
448,Cromer,0.2791170670673458,0.01,1.301866,52.93145
449,Dover,0.3545717358345065,0.01,1.3134027,51.12788
450,Felixstowe,0.2015274593101007,0.01,1.351255,51.96173
451,Margate,0.4024980159457277,0.01,1.3868339,51.38965
452,Ramsgate,0.4371140346157197,0.01,1.419895,51.33555
453,Great Yarmouth,0.2939399278073941,0.01,1.728047,52.59823000000001
454,Lowestoft,0.2865384487485463,0.01,1.7534490000000005,52.48114
455,Swaffham,0.2505904853518613,0.01,0.687481,52.64747
456,Dereham,0.26198167470698724,0.01,0.937827,52.68162
457,Ely,0.3593032015561673,0.01,0.262363,52.39954
458,March,0.3135156878624062,0.01,0.088622,52.55172
459,St Neots,0.4355853601219231,0.01,-0.26510300000000003,52.23008
460,Banham,0.35910417533263844,0.01,1.0402849,52.45125
461,Holt,0.2386611597077325,0.01,1.086747,52.90936
462,Hunstanton,0.2836663472459301,0.01,0.491032,52.93891
463,Horncastle,0.3156276622882373,0.01,-0.11245,53.20731
464,Market Weighton,0.1382417131407782,0.08603732361711862,-0.6677465,53.86484
465,Hawes,0.01,0.8596753050424708,-2.1968695,54.30383000000001
466,Reeth,0.01,0.7131628411230261,-1.9428115,54.38946
467,Aysgarth,0.01,0.8026755240791037,-1.9967434,54.29159
468,Stanhope,0.018475386675870144,0.5211501129402215,-2.011302,54.74946
469,Keswick,0.01,1.0,-3.134706,54.60128
470,Oxenholme,0.01,0.6772543140055824,-2.7243328,54.30134
