,placename,past_participle,present_participle,longitude,latitude
0,Dingle,0.514801190860899,0.7527655,-10.264013499999999,52.14094
1,Tralee,0.5892870648579149,0.7527655,-9.6999325,52.27131
2,Killarney,0.5892870648579149,0.7527655,-9.5044265,52.05994000000001
3,Bantry,0.4847587681602849,0.7527655,-9.4539805,51.68035
4,Mayo,0.5254659965209261,0.7527655,-9.4289369,54.01526
5,Ballycastle,0.433283599535207,0.7527655,-9.3724643,54.279669999999996
6,Abbeyfeale,0.5892870648579149,0.7527655,-9.2970823,52.386179999999996
7,Ennistymon,0.5951739880776399,0.7527655,-9.2934951,52.940369999999994
8,Galway,0.5996239024759181,0.7527655,-9.0567905,53.270669999999996
9,Claremorris,0.5231035265159071,0.7527655,-9.0017356,53.72388
10,Clare,0.6041054448195491,0.7527655,-8.9811351,52.90453
11,Adare,0.6131606630867501,0.7527655,-8.7925892,52.56363
12,Charleville,0.5690988098266652,0.7527655,-8.681017599999999,52.36206
13,Mallow,0.4847587681602849,0.7527655,-8.6539164,52.13898
14,Limerick,0.6131606630867501,0.7527655,-8.6267343,52.66384
15,Loughrea,0.5911634270941482,0.7527655,-8.5660931,53.19891
16,Sligo,0.5708500354095476,0.7527655,-8.476088800000001,54.27661
17,Cork,0.5312160944988005,0.7527655,-8.4756035,51.898509999999995
18,Nenagh,0.6609085471084496,0.7527655,-8.19834,52.8635
19,Roscommon,0.4813821412119006,0.7527655,-8.1890955,53.62759000000001
20,Tipperary,0.4847587681602849,0.7527655,-8.161851400000002,52.47379
21,Donegal,0.3972813718277514,0.7527655,-8.1096143,54.653830000000006
22,Leitrim,0.6081930129743333,0.7527655,-8.0020132,54.12469
23,Athlone,0.3457085691104985,0.7527655,-7.9406898,53.42393000000001
24,Longford,0.5247729319792906,0.7527655,-7.7932573000000005,53.72763000000001
25,Offaly,0.4178195969499661,0.7527655,-7.7122229,53.23569000000001
26,Fermanagh,0.3161226889254063,0.7527655,-7.6318728,54.343830000000004
27,Enniskillen,0.3161226889254063,0.7527655,-7.631533599999999,54.343819999999994
28,Doon,0.4327713643333036,0.7527655,-7.60964,54.185930000000006
29,Westmeath,0.5694535928658359,0.7527655,-7.4653217000000005,53.534530000000004
30,Strabane,0.3540349695065355,0.7527655,-7.4633103,54.82739
31,Cavan,0.4792809455380533,0.7527655,-7.3633319,53.98972
32,Mullingar,0.5694535928658359,0.7527655,-7.3401868000000015,53.525819999999996
33,Laois,0.4793043227150529,0.7527655,-7.3323006999999985,52.99429
34,Omagh,0.3691084357230768,0.7527655,-7.309959700000001,54.59771
35,Derry,0.5395906243768951,0.7527655,-7.308574799999999,54.99661
36,Kilkenny,0.23239457924519225,0.7676054207548088,-7.2447879,52.65415
37,Tyrone,0.5067566917169163,0.7527655,-7.1312320000000025,54.491209999999995
38,Waterford,0.3536299942932184,0.7527655,-7.110070200000001,52.25932
39,Monaghan,0.568717211790348,0.7527655,-6.9683132,54.2492
40,Carlow,0.34026581225376623,0.7527655,-6.934135899999999,52.83651
41,Kildare,0.5803961743937406,0.7527655,-6.8194707999999995,53.21204
42,Dungannon,0.525218473470342,0.7527655,-6.7669352,54.508269999999996
43,Cookstown,0.4990594124077806,0.7527655,-6.7443895000000005,54.641819999999996
44,Coleraine,0.5163729622321079,0.7527655,-6.6646103000000005,55.132580000000004
45,Meath,0.5214100563114942,0.7527655,-6.656416900000001,53.60555
46,Armagh,0.5411947112574859,0.7527655,-6.652792,54.35028000000001
47,Magherafelt,0.4969754058346685,0.7527655,-6.607980499999999,54.75536999999999
48,Louth,0.4665809503510016,0.7527655,-6.4889423,53.925230000000006
49,Wexford,0.3297055163262081,0.7527655,-6.4633381,52.33692
50,Craigavon,0.5322983202810763,0.7527655,-6.4175653,54.442930000000004
51,Drogheda,0.436044856677278,0.7527655,-6.3560985,53.717859999999995
52,Rosslare,0.3297055163262081,0.7527655,-6.3414908,52.25131
53,Newry,0.568717211790348,0.7527655,-6.34023,54.1751
54,Ballymena,0.4881745862583454,0.7527655,-6.2802213,54.86529
55,Banbridge,0.5322983202810763,0.7527655,-6.2704803,54.34873
56,Dublin,0.5444200741194023,0.7527655,-6.2603097000000005,53.34981
57,Antrim,0.4925584945098013,0.7527655,-6.2072498,54.719530000000006
58,Wicklow,0.4382491869555352,0.7527655,-6.044589,52.980819999999994
59,Kilkeel,0.4895359630365579,0.7527655,-6.007004,54.06312
60,Belfast,0.5104234706857076,0.7527655,-5.93012,54.59728000000001
61,Down,0.5569419902228396,0.7527655,-5.7156921999999994,54.32875
62,Balivanich,0.16276909537200668,0.8372309046279934,-7.3743509000000005,57.472269999999995
63,Western Isles,0.20486382794397745,0.7951361720560225,-7.0194034,57.75989000000001
64,Dunvegan,0.14478998356721975,0.8552100164327802,-6.5813982000000015,57.4366
65,Stornoway,0.18038517336927007,0.8196148266307292,-6.3848692000000025,58.20943000000001
66,Scilly Isles,0.2474948604588804,0.7527655,-6.327496599999999,49.92773
67,Portree,0.16958698028753913,0.8304130197124601,-6.1960231,57.41246999999999
68,Islay,0.2973508157947209,0.7527655,-6.177067,55.73625
69,Mull,0.15428661794129592,0.8457133820587043,-6.0008870000000005,56.4392
70,Broadford,0.16958698028753913,0.8304130197124601,-5.9096592,57.24139
71,Kyle of Lochalsh,0.17024222880755768,0.8297577711924423,-5.7143293,57.28261
72,Campbeltown,0.29378167091810425,0.7527655,-5.605373999999999,55.424119999999995
73,Penzance,0.2727814027681329,0.7527655,-5.537592,50.1188
74,Oban,0.2248244992814957,0.7751755007185055,-5.471047,56.41516
75,Lochgilphead,0.2478104523483749,0.7527655,-5.4323449,56.03829
76,Helston,0.2816083497775732,0.7527655,-5.274996,50.10159
77,Redruth,0.2727814027681329,0.7527655,-5.226666000000002,50.23302
78,Ullapool,0.17847924587977254,0.8215207541202272,-5.161313,57.895419999999994
79,Ballachulish,0.1432271505283931,0.8567728494716071,-5.133719999999999,56.67393000000001
80,Fort William,0.16748509704966286,0.8325149029503371,-5.1052179,56.81981999999999
81,Achnasheen,0.17847924587977254,0.8215207541202272,-5.078765799999998,57.57859000000001
82,Newquay,0.2781732798866895,0.7527655,-5.0737190000000005,50.4155
83,Falmouth,0.2816083497775732,0.7527655,-5.066269999999999,50.152570000000004
84,Rothesay,0.2777744927496373,0.7527655,-5.055793,55.83596
85,Truro,0.2816083497775732,0.7527655,-5.0510410000000014,50.2632
86,Milford Haven,0.2693697100542488,0.7527655,-5.0426971,51.71431
87,Stranraer,0.22300933024387914,0.7769906697561216,-5.0240550000000015,54.903369999999995
88,Fishguard,0.27840223870847985,0.7527655,-4.975989,51.99393
89,Inchnadamph,0.17658156915862794,0.8234184308413722,-4.974295,58.15221
90,Haverfordwest,0.2785507525388304,0.7527655,-4.971319,51.80048
91,Dunoon,0.24606060189355144,0.7539393981064482,-4.926214,55.95097
92,Pembroke,0.28769191630970664,0.7527655,-4.9086370000000015,51.67404000000001
93,Girvan,0.2954882048390759,0.7527655,-4.8542179,55.240159999999996
94,Wadebridge,0.2781732798866895,0.7527655,-4.836456,50.51665
95,Invergarry,0.17452369001863302,0.8254763099813665,-4.800261,57.07095
96,St Austell,0.2816083497775732,0.7527655,-4.7834252,50.340379999999996
97,Greenock,0.26788113393059715,0.7527655,-4.7719830000000005,55.956480000000006
98,Helensburgh,0.2333633569626173,0.7666366430373822,-4.734014,56.00232
99,Bodmin,0.2781732798866895,0.7527655,-4.7188629,50.4715
100,Tenby,0.3239107266864227,0.7527655,-4.703579,51.67274000000001
101,Camelford,0.2781732798866895,0.7527655,-4.682364,50.62206
102,Irvine,0.29378167091810425,0.7527655,-4.6696364,55.61156999999999
103,Cardigan,0.27279859186886785,0.7527655,-4.660864,52.0837
104,Holyhead,0.1017935,0.9964377307636776,-4.633038,53.30944
105,Ayr,0.2761002743380477,0.7527655,-4.629179,55.45856
106,Dumbarton,0.2714550917554199,0.7527655,-4.564554,55.94529
107,Bude,0.28119031084769786,0.7527655,-4.543678,50.82664000000001
108,Isle of Man,0.1017935,0.9632194498112632,-4.5126330999999995,54.27697
109,Kilmarnock,0.3168790093577465,0.7527655,-4.498792,55.61472
110,Newton Stewart,0.2404947710755564,0.759505228924444,-4.483164,54.9603
111,Liskeard,0.2969444654533453,0.7527655,-4.4647190000000005,50.45552
112,Altnaharra,0.22028726425148332,0.7797127357485164,-4.442655,58.28023
113,Pwllheli,0.14817348615589834,0.8518265138441016,-4.417633900000001,52.888819999999996
114,Lairg,0.2326386644756293,0.7673613355243704,-4.402414,58.022059999999996
115,Launceston,0.2781732798866895,0.7527655,-4.360451599999998,50.636829999999996
116,Carmarthen,0.2993956312181572,0.7527655,-4.312131,51.857620000000004
117,Llangefni,0.1017935,0.9573950949182148,-4.311401999999998,53.25578
118,Caernarfon,0.1017935,0.9405855295274376,-4.273911,53.13955
119,Cumnock,0.2984969850317312,0.7527655,-4.265828900000002,55.45355
120,Aberaeron,0.2745181895063979,0.7527655,-4.2581619,52.24279
121,Alness,0.2632524528846751,0.7527655,-4.256825,57.69595
122,Glasgow,0.2759606988400796,0.7527655,-4.251806,55.86424
123,Dalwhinnie,0.2014383839495052,0.7985616160504946,-4.242783,56.9366
124,Inverness,0.2632524528846751,0.7527655,-4.224721,57.47776999999999
125,Saltash,0.282704326840437,0.7527655,-4.21643,50.409209999999995
126,Bideford,0.28119031084769786,0.7527655,-4.206666,51.01668
127,Invergordon,0.2632524528846751,0.7527655,-4.1728819999999995,57.688109999999995
128,Llanelli,0.30280182341980605,0.7527655,-4.160248,51.68089000000001
129,Plymouth,0.282704326840437,0.7527655,-4.1426565,50.37546
130,Tavistock,0.2969444654533453,0.7527655,-4.141654,50.551120000000004
131,Porthmadog,0.1017935,0.9329858843104759,-4.1333839999999995,52.92784
132,Bangor,0.1017935,0.940144800984592,-4.129263,53.22739
133,Tywyn,0.16840299502891226,0.8315970049710885,-4.087249,52.58701
134,Aberystwyth,0.27912349337532066,0.7527655,-4.08292,52.4153
135,Lampeter,0.25737034261315594,0.7527655,-4.0785089999999995,52.1129
136,Barnstaple,0.28119031084769786,0.7527655,-4.058338,51.07816
137,Tain,0.2382718765685056,0.7617281234314952,-4.05523,57.8115
138,Okehampton,0.3014115689523588,0.7527655,-4.004263,50.73831
139,Llandeilo,0.32068742651659443,0.7527655,-3.9914300000000003,51.88469
140,Motherwell,0.26231186529245537,0.7527655,-3.9810968,55.78321
141,Golspie,0.2729526062114536,0.7527655,-3.976086,57.97341
142,Airdrie,0.26231186529245537,0.7527655,-3.9625660000000003,55.86626999999999
143,Swansea,0.3096857144821613,0.7527655,-3.9436459999999998,51.62144
144,Stirling,0.30209294490549443,0.7527655,-3.9369029,56.116519999999994
145,Tregaron,0.24308276208221904,0.7569172379177819,-3.934385,52.22
146,Castle Douglas,0.24080692514490426,0.7591930748550965,-3.9314139999999997,54.940419999999996
147,Dolgellau,0.2032989322130624,0.7967010677869375,-3.8844,52.74215
148,Aberfeldy,0.3070681582222343,0.7527655,-3.866969,56.62175
149,Machynlleth,0.17610233703013592,0.8238976629698647,-3.853485,52.59027
150,Brora,0.2738533150899678,0.7527655,-3.852548000000001,58.012159999999994
151,Llandudno,0.1017935,0.9597651281275555,-3.827609,53.324059999999996
152,Aviemore,0.31146581775427834,0.7527655,-3.823812,57.19449
153,Dalbeattie,0.2351248960059405,0.7648751039940593,-3.8225269999999996,54.934219999999996
154,Falkirk,0.2899409382498746,0.7527655,-3.7839131,56.00188000000001
155,Kingsbridge,0.26305099662406073,0.7527655,-3.777493,50.28395
156,Pitlochry,0.3120392461547981,0.7527655,-3.729711,56.70436
157,Colwyn Bay,0.1017935,0.9352294057384092,-3.72764,53.29318000000001
158,Totnes,0.26305099662406073,0.7527655,-3.685797,50.43374
159,Grantown-on-Spey,0.3345109013276862,0.7527655,-3.609628,57.33041
160,Dumfries,0.3081634477210691,0.7527655,-3.60512,55.070859999999996
161,Whitehaven,0.1017935,0.958864419249042,-3.589233,54.5497
162,Dartmouth,0.278335544997628,0.7527655,-3.578807,50.35252
163,Bridgend,0.3731210593986565,0.7527655,-3.576945,51.50429000000001
164,Paignton,0.26305099662406073,0.7527655,-3.564235,50.43508
165,Workington,0.1017935,0.9940312566607764,-3.5427519999999997,54.64357
166,Llanidloes,0.2464800159514854,0.753519984048515,-3.5401949999999998,52.44779000000001
167,Exeter,0.278335544997628,0.7527655,-3.533899,50.71841
168,Torquay,0.278335544997628,0.7527655,-3.525315,50.46192
169,Thurso,0.2839405669652987,0.7527655,-3.5220800000000003,58.59356999999999
170,Livingston,0.2917836098486672,0.7527655,-3.518068,55.90071
171,Rhyl,0.1017935,0.935935533996604,-3.4916339999999995,53.319140000000004
172,Tiverton,0.320707365873447,0.7527655,-3.491207,50.90205
173,Minehead,0.28309967615734205,0.7527655,-3.481152,51.20428
174,Dunfermline,0.3064521008518919,0.7527655,-3.452151,56.07174000000001
175,Perth,0.3211755969774687,0.7527655,-3.4308381000000003,56.39499
176,Prestatyn,0.1017935,0.9230237690884968,-3.4076129999999996,53.33651
177,Builth Wells,0.32648909179667346,0.7527655,-3.4045919999999996,52.15002
178,Braemar,0.3250067037492867,0.7527655,-3.3979439,57.00646999999999
179,Brecon,0.2603743098576055,0.7527655,-3.391463,51.94895
180,Merthyr Tydfil,0.4292187209933925,0.7527655,-3.381646,51.74873
181,Llandrindod Wells,0.31915553385909073,0.7527655,-3.377742,52.2417
182,Corwen,0.1017935,0.9114830068550138,-3.369242,52.98005
183,Cockermouth,0.1017935,0.9386025948666468,-3.367985,54.66326
184,Lockerbie,0.2853459478413927,0.7527655,-3.349008,55.12224000000001
185,Blairgowrie,0.3339567247199897,0.7527655,-3.3378318,56.58941
186,Elgin,0.29859668181599425,0.7527655,-3.318485,57.64945
187,Newtown,0.2271924697987501,0.7728075302012501,-3.313106,52.51211
188,Ruthin,0.1017935,0.9321752463198132,-3.3103108,53.114869999999996
189,Sidmouth,0.2867093873116933,0.7527655,-3.2375599999999998,50.67865
190,Barrow-in-Furness,0.1017935,0.9031566064589764,-3.2188939999999997,54.10896999999999
191,Peebles,0.32854009529637457,0.7527655,-3.1936419999999996,55.65306999999999
192,Edinburgh,0.3048727662763596,0.7527655,-3.1882669999999997,55.95325
193,Cardiff,0.443440295377507,0.7527655,-3.17909,51.48158
194,Llangollen,0.1017935,0.9070482188653816,-3.1716599999999997,52.96921
195,Kirkcaldy,0.3086763704870017,0.7527655,-3.158137,56.11682
196,Welshpool,0.17821659642054175,0.821783403579458,-3.146407,52.66035
197,Mold,0.1017935,0.903857921768965,-3.1419029999999997,53.1672
198,Taunton,0.3139389855680311,0.7527655,-3.106849,51.01534
199,Wick,0.2815258420940451,0.7527655,-3.093716,58.43894
200,John o' Groats,0.2815258420940451,0.7527655,-3.0688997000000002,58.63734
201,Dalkeith,0.30453448477389444,0.7527655,-3.066606,55.893119999999996
202,Oswestry,0.14396009378373356,0.856039906216266,-3.056412,52.85715
203,Blackpool,0.1017935,0.9440474144154668,-3.0356748,53.81751
204,Birkenhead,0.11194780013888794,0.8880521998611113,-3.023009,53.389990000000004
205,Cupar,0.3347041068199479,0.7527655,-3.010137,56.32023
206,Southport,0.1175631355669998,0.8824368644330003,-3.010113,53.64571
207,Bridgwater,0.28687371511472026,0.7527655,-3.003632,51.12789
208,Langholm,0.19269325705956386,0.8073067429404361,-2.998913,55.153059999999996
209,Newport,0.4505558955177701,0.7527655,-2.997664,51.58415
210,Axminster,0.28561272268480004,0.7527655,-2.9949369999999997,50.78273
211,Wrexham,0.1135415735590378,0.8864584264409622,-2.9924939999999998,53.04304000000001
212,Liverpool,0.12266348553709068,0.8773365144629092,-2.9915726,53.40837
213,Weston-super-Mare,0.4151435977475403,0.7527655,-2.977255,51.347409999999996
214,Dundee,0.3648414133566187,0.7527655,-2.9707209999999997,56.462019999999995
215,Kirkwall,0.2790959908141446,0.7527655,-2.9622491,58.984669999999994
216,Ambleside,0.1017935,0.9594907900798266,-2.961333,54.42874000000001
217,Orkney Islands,0.2790959908141446,0.7527655,-2.9605206,58.980940000000004
218,Lyme Regis,0.272645952654341,0.7527655,-2.936639,50.725159999999995
219,Carlisle,0.17577574411617095,0.8242242558838296,-2.932931,54.892469999999996
220,Chester,0.10219264168975747,0.8978073583102422,-2.893075,53.19339
221,Forfar,0.37270439559684,0.7527655,-2.889062,56.64356
222,Morecambe,0.1017935,0.9120392461547979,-2.864968,54.074169999999995
223,Selkirk,0.3684834400203521,0.7527655,-2.838524,55.55066
224,Galashiels,0.3914418905260554,0.7527655,-2.814449,55.62373
225,Lancaster,0.1017935,0.9124325327796148,-2.8007399,54.046569999999996
226,St Andrews,0.368758465632112,0.7527655,-2.7967214,56.33978000000001
227,Hawick,0.25446057164073405,0.7527655,-2.780914,55.42706
228,Bridport,0.2426736614847257,0.7573263385152742,-2.758301,50.733579999999996
229,Shrewsbury,0.16911599892740015,0.8308840010726002,-2.7553267999999997,52.7073
230,Penrith,0.1017935,0.9397583900000692,-2.752708,54.6641
231,Kendal,0.1017935,0.9335606878390544,-2.74629,54.32801
232,Street,0.3756382313102909,0.7527655,-2.7429189999999997,51.12468
233,Glastonbury,0.3756382313102909,0.7527655,-2.718454,51.14743
234,Hereford,0.3035890842334692,0.7527655,-2.715974,52.0564
235,Ludlow,0.2022476468121095,0.7977523531878913,-2.7139129,52.36775
236,Preston,0.1017935,0.9127708142820804,-2.70309,53.7632
237,Whitchurch,0.1225493499082103,0.8774506500917906,-2.682045,52.96872
238,Wells,0.3552375189939564,0.7527655,-2.6445979,51.20935
239,Yeovil,0.2865986895029601,0.7527655,-2.633308,50.94206
240,Wigan,0.1017935,0.9188674445307724,-2.6325074,53.54506
241,Warrington,0.11567714743435482,0.8843228525656455,-2.5969501,53.39004
242,Arbroath,0.3707276490123144,0.7527655,-2.591543,56.55911
243,Bristol,0.40485832743174216,0.7527655,-2.58791,51.45451
244,Guernsey,0.18720855879703807,0.8127914412029619,-2.5852779999999997,49.46569
245,Ross-on-Wye,0.4052859922580292,0.7527655,-2.582446,51.91445
246,Jedburgh,0.2436190620251512,0.7563809379748488,-2.5549369,55.47772
247,Sedbergh,0.1017935,0.9017230354576764,-2.5281740000000004,54.32363
248,Nantwich,0.1017935,0.901056785913188,-2.524102,53.06718000000001
249,Banff,0.31719803906738825,0.7527655,-2.524038,57.666509999999995
250,Dunbar,0.328829559752752,0.7527655,-2.516737,56.00209
251,Cinderford,0.42911421126092375,0.7527655,-2.5009579,51.8253
252,Banchory,0.2521159783004792,0.7527655,-2.4909599,57.05386
253,Blackburn,0.11730873687612164,0.8826912631238788,-2.487529,53.748580000000004
254,Market Drayton,0.12741730323636388,0.8725826967636359,-2.483485,52.90355
255,Telford,0.1017935,0.9316829504747628,-2.4672611,52.67759
256,Montrose,0.289127550003094,0.7527655,-2.4661150000000003,56.70692
257,Turriff,0.27412971582978685,0.7527655,-2.4623,57.53893000000001
258,Weymouth,0.2802847890209775,0.7527655,-2.457621,50.61443
259,Crewe,0.1017935,0.9133029888408356,-2.4438209,53.1004
260,Fortuneswell,0.27631891969939715,0.7527655,-2.4422189999999997,50.55919
261,Dorchester,0.29169010114066873,0.7527655,-2.4411810000000003,50.71116
262,Alston,0.1017935,0.9111605393252246,-2.438685,54.812169999999995
263,Kelso,0.2935334603034907,0.7527655,-2.432207,55.600030000000004
264,Wincanton,0.24239863587296576,0.7576013641270346,-2.416007,51.05569000000001
265,Clitheroe,0.14399997249743876,0.8560000275025604,-2.3930830000000003,53.8711
266,Sark,0.20829958539889012,0.7917004146011088,-2.3666256000000003,49.43007
267,Bath,0.3864446751603743,0.7527655,-2.3590167,51.38106
268,Kidderminster,0.173034426330952,0.8269655736690481,-2.2496839,52.3886
269,Manchester,0.1017935,0.9136722107246238,-2.2426305,53.48076
270,Burnley,0.1393651033752518,0.8606348966247475,-2.2405035,53.78929
271,Gloucester,0.3464896418478969,0.7527655,-2.238156,51.86424
272,Newcastle-under-Lyme,0.1017935,0.9267819940731976,-2.2273002,53.01321
273,Worcester,0.2596867458282054,0.7527655,-2.221575,52.19364
274,Trowbridge,0.3088950158483509,0.7527655,-2.208853,51.31966
275,Shaftesbury,0.25703687405889697,0.7527655,-2.198083,51.0046
276,Alderney,0.2020283138867308,0.7979716861132691,-2.1973557,49.715
277,Stoke-on-Trent,0.1017935,0.9134061234452454,-2.179404,53.002669999999995
278,Colne,0.12114053121196915,0.8788594687880313,-2.176991,53.85564
279,Blandford Forum,0.2586794645251341,0.7527655,-2.165353,50.85691
280,Rochdale,0.14181558157603427,0.8581844184239649,-2.1561,53.60971
281,Jersey,0.20114616923701006,0.7988538307629893,-2.13125,49.21444
282,Wolverhampton,0.19189293252934184,0.8081070674706581,-2.12882,52.586969999999994
283,Stafford,0.1714922202130074,0.8285077797869925,-2.12066,52.80669
284,Macclesfield,0.15797058601082226,0.8420294139891772,-2.119287,53.25866
285,Hexham,0.12637564373182264,0.8736243562681778,-2.1121439,54.97266
286,Aberdeen,0.23965113001148244,0.7603488699885184,-2.094278,57.149719999999995
287,Dudley,0.18854449570616252,0.8114555042938382,-2.081112,52.51225
288,Cheltenham,0.31871755557236275,0.7527655,-2.0782533,51.899390000000004
289,Bromsgrove,0.17255725689454826,0.8274427431054512,-2.061906,52.33559
290,Skipton,0.1017935,0.9154681279694159,-2.0162787,53.96285
291,Fraserburgh,0.27412971582978685,0.7527655,-2.007631,57.69335
292,Berwick,0.24012348649968024,0.7598765135003194,-2.005395,55.77024
293,Poole,0.1899581273506095,0.8100418726493911,-1.987248,50.71505
294,Walsall,0.1639544557586926,0.8360455442413077,-1.9829189999999999,52.586209999999994
295,Cirencester,0.333455490542557,0.7527655,-1.968243,51.71849
296,Evesham,0.2668642267311144,0.7527655,-1.9467700000000001,52.09215
297,Buxton,0.16853775757867456,0.8314622424213245,-1.91483,53.259080000000004
298,Keighley,0.16559704622492968,0.8344029537750709,-1.9123580000000002,53.8678
299,Birmingham,0.2204289024415399,0.7795710975584597,-1.8904009999999998,52.48624
300,Bournemouth,0.20879188124394096,0.7912081187560593,-1.880769,50.719159999999995
301,Halifax,0.24751204955961525,0.7527655,-1.8575400000000002,53.727019999999996
302,Salisbury,0.1840732668229729,0.8159267331770271,-1.794472,51.06878
303,Ringwood,0.2036791551213208,0.7963208448786793,-1.7888169999999999,50.84495
304,Huddersfield,0.2649287339883528,0.7527655,-1.7850351000000002,53.64579000000001
305,Peterhead,0.2765781313384809,0.7527655,-1.784066,57.50812
306,Swindon,0.2582545499549645,0.7527655,-1.7797176,51.55577
307,Bradford,0.2345219023521567,0.7654780976478435,-1.759398,53.79598000000001
308,Ashbourne,0.2920304453352221,0.7527655,-1.7321790000000001,53.016630000000006
309,Marlborough,0.2883897937995477,0.7527655,-1.7270619999999999,51.42007
310,Stratford-upon-Avon,0.26190482738705056,0.7527655,-1.7082979999999999,52.19173
311,Alnwick,0.2008766441374853,0.7991233558625158,-1.7062990000000002,55.41274
312,Otley,0.21890663568044788,0.7810933643195521,-1.691786,53.90583
313,Bishop Auckland,0.1017935,0.9264829037204086,-1.6787880000000002,54.663819999999994
314,Burton upon Trent,0.1979462462441816,0.8020537537558184,-1.6371358999999999,52.81403
315,Newcastle,0.12410668243480168,0.8758933175651982,-1.61778,54.97825
316,Durham,0.1017935,0.9194594371600852,-1.5848520000000001,54.77525
317,Ashington,0.2380250410819509,0.7619749589180497,-1.5659829,55.18298000000001
318,Darlington,0.1017935,0.9444998315468124,-1.559458,54.52361
319,Leeds,0.25527395988751445,0.7527655,-1.5490774,53.80076
320,Harrogate,0.25380326042862744,0.7527655,-1.5418120000000002,53.99211999999999
321,Leamington Spa,0.2456886297536459,0.7543113702463541,-1.5200789,52.28519
322,Coventry,0.19951251710315526,0.8004874828968447,-1.519693,52.40682
323,Blyth,0.11331811524948272,0.8866818847505179,-1.510277,55.12696
324,Wakefield,0.23109920861380195,0.768900791386197,-1.505924,53.6833
325,Andover,0.20719742025976176,0.7928025797402383,-1.4919233,51.2112
326,Witney,0.2988008883327261,0.7527655,-1.4850543999999999,51.785940000000004
327,Barnsley,0.2409815664083718,0.7590184335916277,-1.479726,53.55263000000001
328,Derby,0.30924498593931565,0.7527655,-1.4746186000000001,52.92253
329,Sheffield,0.2557992588059765,0.7527655,-1.470085,53.38113000000001
330,Nuneaton,0.2082081393829802,0.7917918606170206,-1.465382,52.52049
331,Northallerton,0.1017935,0.9288701260304872,-1.429959,54.337959999999995
332,South Shields,0.12139080451867088,0.8786091954813293,-1.427406,54.99941999999999
333,Chesterfield,0.2360441691132487,0.7639558308867511,-1.421629,53.23505
334,Southampton,0.11652560144663478,0.8834743985533648,-1.4043508999999998,50.9097
335,Wetherby,0.25260896170955943,0.7527655,-1.384816,53.92706
336,Sunderland,0.10559677119931804,0.8944032288006826,-1.383801,54.90687
337,Rotherham,0.2327445493361569,0.7672554506638435,-1.3635008999999998,53.4326
338,Castleford,0.2662000398787137,0.7527655,-1.345968,53.72346999999999
339,Thirsk,0.14011454816729813,0.8598854518327009,-1.341377,54.23385
340,Banbury,0.3236061358213986,0.7527655,-1.339775,52.0629
341,Stockton,0.1017935,0.9169869569103618,-1.3289821000000002,54.57046
342,Newbury,0.2395686223279543,0.7604313776720457,-1.3231138999999998,51.40141
343,Isle of Wight,0.11345425292730385,0.8865457470726966,-1.304734,50.69385
344,Abingdon,0.36031792960719466,0.7527655,-1.2879528999999998,51.67078
345,Shetland Islands,0.3220041116328958,0.7527655,-1.2659409,60.52965
346,Rugby,0.2557648806045064,0.7527655,-1.265032,52.37088
347,Oxford,0.3330477650731224,0.7527655,-1.2577263,51.75202
348,Middlesbrough,0.1017935,0.9147613121471938,-1.234956,54.57423000000001
349,Hartlepool,0.1017935,0.9161034371325828,-1.212926,54.69174
350,Loughborough,0.2338962190854024,0.7661037809145974,-1.206166,52.7721
351,Mansfield,0.2896721007143792,0.7527655,-1.198674,53.1472
352,Nottingham,0.3193061103815295,0.7527655,-1.1581086,52.95478000000001
353,Bicester,0.2623764963112189,0.7527655,-1.1535898999999998,51.8996
354,Leicester,0.1956181544406322,0.8043818455593681,-1.1397591999999999,52.63688000000001
355,Doncaster,0.277207252425382,0.7527655,-1.128462,53.522819999999996
356,Worksop,0.27060732530716924,0.7527655,-1.122745,53.3093
357,Basingstoke,0.25423505063909096,0.7527655,-1.0923964,51.26654
358,Portsmouth,0.16036537152522345,0.8396346284747779,-1.0879769,50.81977
359,York,0.2801163358337745,0.7527655,-1.0872979,53.95997
360,Selby,0.24248939432484656,0.7575106056751535,-1.067189,53.783519999999996
361,Helmsley,0.1510124380332918,0.8489875619667084,-1.0562636,54.24651
362,Towcester,0.24426055926458154,0.7557394407354179,-0.9896879999999999,52.13511
363,Reading,0.4056820291389637,0.7527655,-0.9781303,51.45426
364,Retford,0.23605585770174864,0.7639441422982514,-0.9455030000000001,53.32136
365,Petersfield,0.2320150439009635,0.7679849560990369,-0.93899,51.00759
366,Northampton,0.3026808121506317,0.7527655,-0.9026559999999999,52.24048
367,Melton Mowbray,0.20901121416931948,0.7909887858306801,-0.887126,52.7664
368,Aylesbury,0.4173101120041805,0.7527655,-0.8084,51.81561
369,Newark-on-Trent,0.41411706465164577,0.7527655,-0.80657,53.07004000000001
370,Malton,0.22698620058993,0.7730137994100708,-0.7978970000000001,54.13684
371,Chichester,0.2648812920703241,0.7527655,-0.774936,50.83761
372,Gainsborough,0.2440962314615549,0.7559037685384459,-0.774465,53.400569999999995
373,Milton Keynes,0.3458921487063483,0.7527655,-0.7594171,52.040620000000004
374,Aldershot,0.4365742809799161,0.7527655,-0.7557509,51.24837
375,High Wycombe,0.4552120791248687,0.7527655,-0.748229,51.628609999999995
376,Midhurst,0.31625607634710995,0.7527655,-0.737274,50.9869
377,Kettering,0.33498875832811936,0.7527655,-0.7302489999999999,52.39632
378,Wellingborough,0.3876891660535888,0.7527655,-0.693964,52.30242
379,Corby,0.3222770745525677,0.7527655,-0.6842333,52.4923
380,Bognor Regis,0.29848529644323146,0.7527655,-0.673061,50.783
381,Scunthorpe,0.2438198307217359,0.7561801692782635,-0.654413,53.58865
382,Grantham,0.38659181386266606,0.7527655,-0.643582,52.912519999999994
383,Whitby,0.10584360668587267,0.8941563933141273,-0.613347,54.48634000000001
384,Slough,0.6402720003300307,0.7527655,-0.5950406,51.51054
385,Guildford,0.4709146664283111,0.7527655,-0.570409,51.23622
386,Woking,0.5114170007081911,0.7527655,-0.5600349,51.31677
387,Lincoln,0.2895586526495281,0.7527655,-0.540579,53.23069
388,Bedford,0.4520822876630386,0.7527655,-0.46677820000000003,52.13864
389,Heathrow,1.0,0.7527655,-0.4542955,51.47002
390,Driffield,0.21992285531590128,0.780077144684099,-0.443377,54.006
391,Beverley,0.2651068130719674,0.7527655,-0.435093,53.84196
392,Luton,0.8180011138537275,0.7527655,-0.4200255,51.87867
393,Scarborough,0.13859709435441178,0.8614029056455886,-0.399752,54.28311
394,Worthing,0.3723661140943749,0.7527655,-0.372882,50.81787
395,Dorking,0.7882887218872259,0.7527655,-0.332378,51.2322
396,Hull,0.2978314230512717,0.7527655,-0.3274198,53.767619999999994
397,Horsham,0.4254020530661918,0.7527655,-0.325858,51.06288
398,Biggleswade,0.6904504231956601,0.7527655,-0.26421999999999995,52.08694000000001
399,Peterborough,0.3993729416051872,0.7527655,-0.2405299,52.5695
400,Welwyn Garden City,0.6589022352706596,0.7527655,-0.208661,51.80317
401,Bridlington,0.18919561884200484,0.8108043811579946,-0.198802,54.08535
402,Stevenage,0.7218597231867219,0.7527655,-0.19661199999999998,51.90376
403,Crawley,0.5069450842609718,0.7527655,-0.18722750000000002,51.109140000000004
404,Huntingdon,0.44440013476254986,0.7527655,-0.182552,52.33146
405,Hove,0.3170598386974787,0.7527655,-0.168749,50.82793
406,Spalding,0.3073638107548765,0.7527655,-0.1537024,52.7901
407,Brighton,0.3034721983484713,0.7527655,-0.137163,50.82253
408,London,0.7498332657228706,0.7527655,-0.12775830000000002,51.50735
409,Grimsby,0.2972421806780757,0.7527655,-0.08078400000000001,53.56746999999999
410,Boston,0.3294243026381831,0.7527655,-0.026576999999999996,52.97894
411,Royston,0.6481975508969275,0.7527655,-0.024066,52.048140000000004
412,Louth_Lincs,0.2916330333262286,0.7527655,-0.007711,53.36596
413,Lewes,0.4166899292496614,0.7527655,0.00878,50.873870000000004
414,Chatteris,0.4313467316643864,0.7527655,0.054012,52.4561
415,Uckfield,0.4252095351379599,0.7527655,0.095913,50.966409999999996
416,Cambridge,0.5087905061158821,0.7527655,0.12181700000000001,52.20534
417,Bishop's Stortford,0.61214031806712,0.7527655,0.15365020000000001,51.87216
418,Wisbech,0.3848536519963424,0.7527655,0.158797,52.66631999999999
419,Sevenoaks,0.6025384863965457,0.7527655,0.190898,51.27241
420,Tunbridge Wells,0.5064830412332151,0.7527655,0.26369499999999996,51.13238
421,Eastbourne,0.4278188406295336,0.7527655,0.29047199999999995,50.768029999999996
422,Brentwood,0.5605888298347784,0.7527655,0.30717490000000003,51.62047000000001
423,Skegness,0.3475993701913492,0.7527655,0.337881,53.1464
424,Downham Market,0.3137808458412691,0.7527655,0.385472,52.606609999999996
425,King's Lynn,0.33495850551082584,0.7527655,0.4022963,52.75168000000001
426,Bexhill,0.456300492983409,0.7527655,0.4662071,50.849909999999994
427,Chelmsford,0.6809861043309658,0.7527655,0.4685497,51.73559
428,Mildenhall,0.4287470520692239,0.7527655,0.5156095,52.34757000000001
429,Medway,0.5452375877503592,0.7527655,0.5417860999999999,51.404740000000004
430,Braintree,0.5925440556651841,0.7527655,0.5509269,51.88009
431,Gillingham,0.5217442124297827,0.7527655,0.551438,51.38632
432,Hastings,0.470220226758617,0.7527655,0.573453,50.85426
433,Maldon,0.5140964377307637,0.7527655,0.6714479999999999,51.7318
434,Southend,0.6752325685329448,0.7527655,0.7077123000000001,51.54593
435,Bury St Edmunds,0.4528131682262912,0.7527655,0.7104931999999999,52.24292
436,Thetford,0.4433529747457733,0.7527655,0.751657,52.412859999999995
437,Ashford,0.4996046506830951,0.7527655,0.8750190000000001,51.14647
438,Faversham,0.5661787253938024,0.7527655,0.889358,51.31599
439,Colchester,0.4716132314821818,0.7527655,0.891874,51.89593
440,New Romney,0.417613327741146,0.7527655,0.939473,50.98512
441,Canterbury,0.5108394469234949,0.7527655,1.0789089,51.280229999999996
442,Ipswich,0.3490968846473828,0.7527655,1.14822,52.05674000000001
443,Clacton,0.3729986730014232,0.7527655,1.153035,51.78953
444,Folkestone,0.4751232458522701,0.7527655,1.169456,51.0814
445,Sheringham,0.3176202033814399,0.7527655,1.2109589,52.944419999999994
446,Harwich,0.2749114761312149,0.7527655,1.260297,51.93473
447,Norwich,0.3909509698090634,0.7527655,1.297355,52.63089
448,Cromer,0.3524982639008259,0.7527655,1.301866,52.93145
449,Dover,0.4202721378428366,0.7527655,1.3134027,51.12788
450,Felixstowe,0.28280677388081793,0.7527655,1.3512549999999999,51.961729999999996
451,Margate,0.4633198341595562,0.7527655,1.3868339,51.38965
452,Ramsgate,0.4944121671330644,0.7527655,1.4198950000000001,51.33555
453,Great Yarmouth,0.3658122537661321,0.7527655,1.728047,52.59823000000001
454,Lowestoft,0.3591641971658611,0.7527655,1.7534490000000005,52.48114
455,Swaffham,0.32687550278119665,0.7527655,0.687481,52.64747
456,Dereham,0.3371071431027015,0.7527655,0.9378270000000001,52.681619999999995
457,Ely,0.4245219711085596,0.7527655,0.262363,52.39954
458,March,0.3833953286899843,0.7527655,0.088622,52.551719999999996
459,St Neots,0.4930391017663521,0.7527655,-0.26510300000000003,52.23008
460,Banham,0.4243432044609155,0.7527655,1.0402849,52.45125
461,Holt,0.3161605049470234,0.7527655,1.086747,52.90936
462,Hunstanton,0.3565844569275515,0.7527655,0.49103199999999997,52.93891
463,Horncastle,0.3852923178470996,0.7527655,-0.11245,53.20731
464,Market Weighton,0.2259631053141824,0.7740368946858165,-0.6677465,53.86484
465,Hawes,0.1017935,0.9653068942045228,-2.1968695,54.30383000000001
466,Reeth,0.1017935,0.9290839584436308,-1.9428115000000001,54.38946
467,Aysgarth,0.1017935,0.9512145818579352,-1.9967433999999997,54.29159
468,Stanhope,0.11838821240227995,0.8816117875977192,-2.011302,54.74946
469,Keswick,0.1017935,1.0,-3.134706,54.60128
470,Oxenholme,0.1017935,0.9202061316960132,-2.7243327999999996,54.30134
