,Unnamed:_0,placename,past_participle,present_participle,longitude,latitude
0,0,Dingle,0.18944520000000004,0.8105548,-10.2640135,52.14094
1,1,Tralee,0.18944520000000004,0.8105548,-9.6999325,52.27131
2,2,Killarney,0.18662519,0.8133748000000001,-9.5044265,52.05994000000001
3,3,Bantry,0.18662519,0.8133748000000001,-9.4539805,51.68035
4,4,Mayo,0.15800416,0.8419958000000001,-9.4289369,54.01526
5,5,Ballycastle,0.16344086,0.8365591,-9.3724643,54.27967
6,6,Abbeyfeale,0.20027064,0.7997294,-9.2970823,52.38618
7,7,Ennistymon,0.17721519,0.8227848,-9.2934951,52.94037
8,8,Galway,0.18064516,0.8193548,-9.0567905,53.27067
9,9,Claremorris,0.13605442,0.8639456,-9.0017356,53.72388
10,10,Clare,0.16593886,0.8340610999999999,-8.9811351,52.90453
11,11,Adare,0.20027064,0.7997294,-8.7925892,52.56363
12,12,Charleville,0.18662519,0.8133748000000001,-8.681017599999999,52.36206
13,13,Mallow,0.18662519,0.8133748000000001,-8.6539164,52.13898
14,14,Limerick,0.18040435,0.8195956,-8.6267343,52.66384
15,15,Loughrea,0.15704388,0.8429561,-8.5660931,53.19891
16,16,Sligo,0.16363636,0.8363636000000001,-8.476088800000001,54.27661
17,17,Cork,0.18808777,0.8119122,-8.4756035,51.89851
18,18,Nenagh,0.12474012,0.8752599,-8.19834,52.8635
19,19,Roscommon,0.19338422,0.8066158,-8.1890955,53.62759000000001
20,20,Tipperary,0.13745704,0.8625430000000001,-8.161851400000002,52.47379
21,21,Donegal,0.14545455,0.8545455,-8.1096143,54.653830000000006
22,22,Leitrim,0.19565217,0.8043478000000001,-8.0020132,54.12469
23,23,Athlone,0.21834061,0.7816594,-7.9406898,53.42393000000001
24,24,Longford,0.17728532,0.8227146999999999,-7.7932573,53.72763000000001
25,25,Offaly,0.20304569,0.7969543,-7.7122229,53.23569000000001
26,26,Fermanagh,0.14285714,0.8571429,-7.6318728,54.34383
27,27,Enniskillen,0.14285714,0.8571429,-7.631533599999999,54.34382
28,28,Doon,0.18,0.82,-7.60964,54.185930000000006
29,29,Westmeath,0.22598870000000001,0.7740113000000001,-7.4653217,53.53453
30,30,Strabane,0.12962963,0.8703704,-7.4633103,54.82739
31,31,Cavan,0.19484241,0.8051576,-7.3633319,53.98972
32,32,Mullingar,0.22598870000000001,0.7740113000000001,-7.3401868000000015,53.52582
33,33,Laois,0.22099448,0.7790055,-7.3323006999999985,52.99429
34,34,Omagh,0.1509434,0.8490565999999999,-7.309959700000001,54.59771
35,35,Derry,0.14814815,0.8518519,-7.308574799999999,54.99661
36,36,Kilkenny,0.1258427,0.8741573,-7.2447879,52.65415
37,37,Tyrone,0.1627907,0.8372093,-7.131232000000002,54.49121
38,38,Waterford,0.11204482,0.8879552,-7.110070200000001,52.25932
39,39,Monaghan,0.18181818,0.8181818000000001,-6.9683132,54.2492
40,40,Carlow,0.15964523,0.8403548000000001,-6.9341358999999985,52.83651
41,41,Kildare,0.16526138,0.8347386,-6.8194708,53.21204
42,42,Dungannon,0.18181818,0.8181818000000001,-6.7669352,54.50827
43,43,Cookstown,0.20779221,0.7922078,-6.7443895000000005,54.64182
44,44,Coleraine,0.15730337,0.8426966,-6.6646103000000005,55.13258
45,45,Meath,0.1787234,0.8212765999999999,-6.656416900000001,53.60555
46,46,Armagh,0.20454545,0.7954545,-6.652792,54.35028000000001
47,47,Magherafelt,0.18181818,0.8181818000000001,-6.607980499999999,54.75536999999999
48,48,Louth,0.159601,0.840399,-6.4889423,53.925230000000006
49,49,Wexford,0.19251337,0.8074865999999999,-6.4633381,52.33692
50,50,Craigavon,0.19902913,0.8009708999999999,-6.4175653,54.44293
51,51,Drogheda,0.17207334,0.8279267,-6.3560985,53.71786
52,52,Rosslare,0.17112299,0.8288770000000001,-6.3414908,52.25131
53,53,Newry,0.1375,0.8625,-6.34023,54.1751
54,54,Ballymena,0.19402985,0.8059701,-6.2802213,54.86529
55,55,Banbridge,0.17741935,0.8225806,-6.2704803,54.34873
56,56,Dublin,0.15951843,0.8404815999999999,-6.2603097000000005,53.34981
57,57,Antrim,0.19125683,0.8087432,-6.2072498,54.719530000000006
58,58,Wicklow,0.18604651,0.8139535,-6.044589,52.98082
59,59,Kilkeel,0.21,0.79,-6.007004,54.06312
60,60,Belfast,0.16939891,0.8306011000000001,-5.93012,54.59728000000001
61,61,Down,0.18131868,0.8186813000000001,-5.7156922,54.32875
62,62,Balivanich,0.11587983,0.8841201999999999,-7.3743509,57.47227
63,63,Western Isles,0.12233719,0.8776628000000001,-7.0194034,57.75989000000001
64,64,Dunvegan,0.12233719,0.8776628000000001,-6.5813982000000015,57.4366
65,65,Stornoway,0.10049628,0.8995037,-6.384869200000002,58.20943000000001
66,66,Scilly Isles,0.13275862,0.8672414,-6.327496599999999,49.92773
67,67,Portree,0.12211422,0.8778858,-6.1960231,57.41246999999999
68,68,Islay,0.1359116,0.8640884,-6.177067,55.73625
69,69,Mull,0.13093923,0.8690608,-6.0008870000000005,56.4392
70,70,Broadford,0.12211422,0.8778858,-5.9096592,57.24139
71,71,Kyle of Lochalsh,0.08896797,0.911032,-5.7143293,57.28261
72,72,Campbeltown,0.13415316,0.8658468,-5.6053739999999985,55.42412
73,73,Penzance,0.12758621,0.8724138000000001,-5.537592,50.1188
74,74,Oban,0.14030023,0.8596998,-5.471047,56.41516
75,75,Lochgilphead,0.13492504,0.865075,-5.4323449,56.03829
76,76,Helston,0.12251656,0.8774834,-5.274996,50.10159
77,77,Redruth,0.12531753,0.8746825,-5.226666000000002,50.23302
78,78,Ullapool,0.11854103,0.881459,-5.161313,57.89542
79,79,Ballachulish,0.15380184,0.8461982,-5.1337199999999985,56.67393000000001
80,80,Fort William,0.14718499,0.852815,-5.1052179,56.81981999999999
81,81,Achnasheen,0.11224489999999998,0.8877550999999999,-5.078765799999998,57.57859000000001
82,82,Newquay,0.13039797,0.8696020000000001,-5.0737190000000005,50.4155
83,83,Falmouth,0.12251656,0.8774834,-5.0662699999999985,50.15257
84,84,Rothesay,0.13370474,0.8662953000000001,-5.055793,55.83596
85,85,Truro,0.12251656,0.8774834,-5.0510410000000014,50.2632
86,86,Milford Haven,0.15346535,0.8465347,-5.0426971,51.71431
87,87,Stranraer,0.13376835,0.8662315999999999,-5.0240550000000015,54.90337
88,88,Fishguard,0.14851485,0.8514851000000001,-4.975989,51.99393
89,89,Inchnadamph,0.12462006,0.8753799000000001,-4.974295,58.15221
90,90,Haverfordwest,0.15346535,0.8465347,-4.971319,51.80048
91,91,Dunoon,0.13225446,0.8677455,-4.926214,55.95097
92,92,Pembroke,0.15841584,0.8415841999999999,-4.9086370000000015,51.67404000000001
93,93,Girvan,0.13215859,0.8678414000000001,-4.8542179,55.24016
94,94,Wadebridge,0.13039797,0.8696020000000001,-4.836456,50.51665
95,95,Invergarry,0.13143483,0.8685652,-4.800261,57.07095
96,96,St Austell,0.12251656,0.8774834,-4.7834252,50.34038
97,97,Greenock,0.13542857,0.8645714,-4.7719830000000005,55.956480000000006
98,98,Helensburgh,0.13683603,0.8631639999999999,-4.734014,56.00232
99,99,Bodmin,0.1281198,0.8718802,-4.7188629,50.4715
100,100,Tenby,0.15841584,0.8415841999999999,-4.703579,51.67274000000001
101,101,Camelford,0.13039797,0.8696020000000001,-4.682364,50.62206
102,102,Irvine,0.12723214,0.8727679,-4.6696364,55.61156999999999
103,103,Cardigan,0.14130435,0.8586957000000001,-4.660864,52.0837
104,104,Holyhead,0.12244898,0.877551,-4.633038,53.30944
105,105,Ayr,0.13101904,0.868981,-4.629179,55.45856
106,106,Dumbarton,0.13683603,0.8631639999999999,-4.564554,55.94529
107,107,Bude,0.13547841,0.8645216,-4.543678,50.82664000000001
108,108,Isle of Man,0.11052632,0.8894736999999999,-4.5126331,54.27697
109,109,Kilmarnock,0.12723214,0.8727679,-4.498792,55.61472
110,110,Newton Stewart,0.14098361,0.8590164,-4.483164,54.9603
111,111,Liskeard,0.12561175,0.8743883,-4.4647190000000005,50.45552
112,112,Altnaharra,0.11849711,0.8815029000000001,-4.442655,58.28023
113,113,Pwllheli,0.10756041,0.8924396000000001,-4.417633900000001,52.88882
114,114,Lairg,0.12462006,0.8753799000000001,-4.402414,58.02206
115,115,Launceston,0.13584398,0.8641559999999999,-4.360451599999998,50.63683
116,116,Carmarthen,0.15920398,0.8407959999999999,-4.312131,51.85762
117,117,Llangefni,0.11881188,0.8811880999999999,-4.311401999999998,53.25578
118,118,Caernarfon,0.11352488,0.8864751000000001,-4.273911,53.13955
119,119,Cumnock,0.13058036,0.8694196,-4.265828900000002,55.45355
120,120,Aberaeron,0.15860215,0.8413978000000001,-4.2581619,52.24279
121,121,Alness,0.11849711,0.8815029000000001,-4.256825,57.69595
122,122,Glasgow,0.13977273,0.8602273000000001,-4.251806,55.86424
123,123,Dalwhinnie,0.1280683,0.8719316999999999,-4.242783,56.9366
124,124,Inverness,0.11714286,0.8828571,-4.224721,57.47776999999999
125,125,Saltash,0.12148029,0.8785197,-4.21643,50.40921
126,126,Bideford,0.14557823,0.8544218000000001,-4.206666,51.01668
127,127,Invergordon,0.11849711,0.8815029000000001,-4.172882,57.68811
128,128,Llanelli,0.16097561,0.8390244000000001,-4.160248,51.68089000000001
129,129,Plymouth,0.12407283,0.8759271999999999,-4.1426565,50.37546
130,130,Tavistock,0.13101604,0.868984,-4.141654,50.55112
131,131,Porthmadog,0.10415094,0.8958491,-4.133384,52.92784
132,132,Bangor,0.12209302,0.877907,-4.129263,53.22739
133,133,Tywyn,0.11460674,0.8853933,-4.087249,52.58701
134,134,Aberystwyth,0.14354067,0.8564593,-4.08292,52.4153
135,135,Lampeter,0.15706806,0.8429319,-4.078509,52.1129
136,136,Barnstaple,0.13838989,0.8616101,-4.058338,51.07816
137,137,Tain,0.10451977,0.8954802,-4.05523,57.8115
138,138,Okehampton,0.13860104,0.861399,-4.004263,50.73831
139,139,Llandeilo,0.15508021,0.8449198,-3.99143,51.88469
140,140,Motherwell,0.13824885,0.8617511999999998,-3.9810968,55.78321
141,141,Golspie,0.11174785,0.8882521000000001,-3.976086,57.97341
142,142,Airdrie,0.13969732,0.8603027,-3.962566,55.86626999999999
143,143,Swansea,0.15979381,0.8402062,-3.943646,51.62144
144,144,Stirling,0.14945322,0.8505468,-3.9369029,56.11652
145,145,Tregaron,0.16711589999999998,0.8328841,-3.934385,52.22
146,146,Castle Douglas,0.09952607,0.9004738999999999,-3.931414,54.94042
147,147,Dolgellau,0.10169492,0.8983051,-3.8844,52.74215
148,148,Aberfeldy,0.11915888,0.8808411,-3.866969,56.62175
149,149,Machynlleth,0.12471132,0.8752886999999999,-3.853485,52.59027
150,150,Brora,0.11174785,0.8882521000000001,-3.852548000000001,58.01216
151,151,Llandudno,0.12423313,0.8757669,-3.827609,53.32406
152,152,Aviemore,0.11747851,0.8825215000000001,-3.823812,57.19449
153,153,Dalbeattie,0.10023866,0.8997613000000001,-3.822527,54.93422
154,154,Falkirk,0.15288788,0.8471120999999999,-3.7839131,56.00188000000001
155,155,Kingsbridge,0.1267507,0.8732493,-3.777493,50.28395
156,156,Pitlochry,0.12085308,0.8791469000000001,-3.729711,56.70436
157,157,Colwyn Bay,0.12116679,0.8788332,-3.72764,53.29318000000001
158,158,Totnes,0.13252197,0.8674780000000001,-3.685797,50.43374
159,159,Grantown-on-Spey,0.10924369999999999,0.8907563000000001,-3.609628,57.33041
160,160,Dumfries,0.09689441,0.9031056,-3.60512,55.07086
161,161,Whitehaven,0.12104689,0.8789530999999999,-3.589233,54.5497
162,162,Dartmouth,0.12519936,0.8748005999999999,-3.578807,50.35252
163,163,Bridgend,0.14689266,0.8531073,-3.576945,51.50429000000001
164,164,Paignton,0.134278,0.8657219999999999,-3.564235,50.43508
165,165,Workington,0.10552764,0.8944724000000001,-3.542752,54.64357
166,166,Llanidloes,0.13705584,0.8629441999999999,-3.540195,52.44779000000001
167,167,Exeter,0.13314646,0.8668534999999999,-3.533899,50.71841
168,168,Torquay,0.134278,0.8657219999999999,-3.525315,50.46192
169,169,Thurso,0.10888252,0.8911174999999999,-3.5220800000000003,58.59356999999999
170,170,Livingston,0.16210375,0.8378962999999999,-3.518068,55.90071
171,171,Rhyl,0.12226415,0.8777358000000001,-3.4916339999999995,53.31914
172,172,Tiverton,0.14057063,0.8594294,-3.491207,50.90205
173,173,Minehead,0.13987022,0.8601298,-3.481152,51.20428
174,174,Dunfermline,0.15506547,0.8449344999999999,-3.452151,56.07174000000001
175,175,Perth,0.15187377,0.8481261999999998,-3.4308381000000003,56.39499
176,176,Prestatyn,0.12143928,0.8785607,-3.407613,53.33651
177,177,Builth Wells,0.15584416,0.8441558000000001,-3.404592,52.15002
178,178,Braemar,0.10924369999999999,0.8907563000000001,-3.3979439,57.00646999999999
179,179,Brecon,0.15104167,0.8489583,-3.391463,51.94895
180,180,Merthyr Tydfil,0.14871795,0.8512821,-3.381646,51.74873
181,181,Llandrindod Wells,0.13937282,0.8606271999999999,-3.377742,52.2417
182,182,Corwen,0.11746988,0.8825301,-3.369242,52.98005
183,183,Cockermouth,0.10796074,0.8920393,-3.367985,54.66326
184,184,Lockerbie,0.12038015,0.8796199,-3.349008,55.12224000000001
185,185,Blairgowrie,0.1503006,0.8496994000000001,-3.3378318,56.58941
186,186,Elgin,0.10924369999999999,0.8907563000000001,-3.318485,57.64945
187,187,Newtown,0.14489572,0.8551042999999999,-3.313106,52.51211
188,188,Ruthin,0.11773585,0.8822641999999999,-3.3103108,53.11487
189,189,Sidmouth,0.12827225,0.8717277,-3.23756,50.67865
190,190,Barrow-in-Furness,0.06468172,0.9353183,-3.218894,54.10896999999999
191,191,Peebles,0.15917465,0.8408254000000001,-3.193642,55.65306999999999
192,192,Edinburgh,0.15032212,0.8496779000000001,-3.188267,55.95325
193,193,Cardiff,0.14315938,0.8568406,-3.17909,51.48158
194,194,Llangollen,0.12689257,0.8731074000000001,-3.17166,52.96921
195,195,Kirkcaldy,0.15551181,0.8444881999999999,-3.158137,56.11682
196,196,Welshpool,0.12385787,0.8761421,-3.146407,52.66035
197,197,Mold,0.12509308,0.8749068999999999,-3.141903,53.1672
198,198,Taunton,0.13746479,0.8625352,-3.106849,51.01534
199,199,Wick,0.10112360000000001,0.8988764000000001,-3.093716,58.43894
200,200,John o' Groats,0.11235955,0.8876404,-3.0688997,58.63734
201,201,Dalkeith,0.15428571,0.8457143,-3.066606,55.89312
202,202,Oswestry,0.12353401,0.876466,-3.056412,52.85715
203,203,Blackpool,0.10360029,0.8963996999999999,-3.0356748,53.81751
204,204,Birkenhead,0.11247296,0.8875270000000001,-3.023009,53.38999
205,205,Cupar,0.15009747,0.8499025,-3.010137,56.32023
206,206,Southport,0.11522048,0.8847795,-3.010113,53.64571
207,207,Bridgwater,0.1369697,0.8630303,-3.003632,51.12789
208,208,Langholm,0.16167665,0.8383234,-2.998913,55.15306
209,209,Newport,0.158978,0.8410219999999999,-2.997664,51.58415
210,210,Axminster,0.14123989,0.8587601,-2.994937,50.78273
211,211,Wrexham,0.12981455,0.8701853999999999,-2.992494,53.04304000000001
212,212,Liverpool,0.10749834,0.8925017,-2.9915726,53.40837
213,213,Weston-super-Mare,0.14485050000000002,0.8551495000000001,-2.977255,51.34741
214,214,Dundee,0.15009747,0.8499025,-2.970721,56.46202
215,215,Kirkwall,0.10795455,0.8920455,-2.9622491,58.98467
216,216,Ambleside,0.1065662,0.8934338,-2.961333,54.42874000000001
217,217,Orkney Islands,0.10795455,0.8920455,-2.9605206,58.98094
218,218,Lyme Regis,0.13157895,0.8684211,-2.936639,50.72516
219,219,Carlisle,0.10493274,0.8950673000000001,-2.932931,54.89247
220,220,Chester,0.11908397,0.880916,-2.893075,53.19339
221,221,Forfar,0.15721332,0.8427867,-2.889062,56.64356
222,222,Morecambe,0.075,0.925,-2.864968,54.07417
223,223,Selkirk,0.15980114,0.8401989,-2.838524,55.55066
224,224,Galashiels,0.14757554,0.8524245,-2.814449,55.62373
225,225,Lancaster,0.08152174,0.9184783,-2.8007399,54.04657
226,226,St Andrews,0.15354331,0.8464567,-2.7967214,56.33978000000001
227,227,Hawick,0.17112676,0.8288732,-2.780914,55.42706
228,228,Bridport,0.11401099,0.8859889999999999,-2.758301,50.73358
229,229,Shrewsbury,0.12663755,0.8733624,-2.7553268,52.7073
230,230,Penrith,0.10135135,0.8986485999999999,-2.752708,54.6641
231,231,Kendal,0.09,0.91,-2.74629,54.32801
232,232,Street,0.1437866,0.8562134,-2.742919,51.12468
233,233,Glastonbury,0.1443501,0.8556499,-2.718454,51.14743
234,234,Hereford,0.14603175,0.8539683000000001,-2.715974,52.0564
235,235,Ludlow,0.14141414,0.8585859,-2.7139129,52.36775
236,236,Preston,0.07684631,0.9231537,-2.70309,53.7632
237,237,Whitchurch,0.12553495,0.8744649999999999,-2.682045,52.96872
238,238,Wells,0.14826911,0.8517309000000001,-2.6445979,51.20935
239,239,Yeovil,0.13093623,0.8690638,-2.633308,50.94206
240,240,Wigan,0.11681034,0.8831896999999999,-2.6325074,53.54506
241,241,Warrington,0.11742264,0.8825774,-2.5969501,53.39004
242,242,Arbroath,0.15663391,0.8433661,-2.591543,56.55911
243,243,Bristol,0.15815385,0.8418462,-2.58791,51.45451
244,244,Guernsey,0.11544462,0.8845554,-2.585278,49.46569
245,245,Ross-on-Wye,0.16116035,0.8388396,-2.582446,51.91445
246,246,Jedburgh,0.16310006,0.8368999,-2.5549369,55.47772
247,247,Sedbergh,0.10882353,0.8911764999999999,-2.5281740000000004,54.32363
248,248,Nantwich,0.11674641,0.8832536,-2.524102,53.06718000000001
249,249,Banff,0.10674157,0.8932584000000001,-2.524038,57.66651
250,250,Dunbar,0.15079365,0.8492063,-2.516737,56.00209
251,251,Cinderford,0.18264151,0.8173585,-2.5009579,51.8253
252,252,Banchory,0.13903394,0.8609661,-2.4909599,57.05386
253,253,Blackburn,0.10727763,0.8927224,-2.487529,53.74858
254,254,Market Drayton,0.12127237,0.8787275999999999,-2.483485,52.90355
255,255,Telford,0.12157414,0.8784259,-2.4672611,52.67759
256,256,Montrose,0.15663391,0.8433661,-2.4661150000000003,56.70692
257,257,Turriff,0.11428571,0.8857143,-2.4623,57.53893000000001
258,258,Weymouth,0.12299916,0.8770008,-2.457621,50.61443
259,259,Crewe,0.1342155,0.8657845,-2.4438209,53.1004
260,260,Fortuneswell,0.12238055,0.8776193999999999,-2.442219,50.55919
261,261,Dorchester,0.12268908,0.8773109,-2.4411810000000003,50.71116
262,262,Alston,0.1032,0.8968,-2.438685,54.81217
263,263,Kelso,0.1563981,0.8436019,-2.432207,55.60003
264,264,Wincanton,0.13106061,0.8689394,-2.416007,51.05569000000001
265,265,Clitheroe,0.09686888,0.9031311,-2.3930830000000003,53.8711
266,266,Sark,0.11047929,0.8895207,-2.3666256000000003,49.43007
267,267,Bath,0.16604893,0.8339511000000001,-2.3590167,51.38106
268,268,Kidderminster,0.11242604,0.887574,-2.2496839,52.3886
269,269,Manchester,0.11660398,0.883396,-2.2426305,53.48076
270,270,Burnley,0.11791269,0.8820872999999999,-2.2405035,53.78929
271,271,Gloucester,0.18659558,0.8134044,-2.238156,51.86424
272,272,Newcastle-under-Lyme,0.11902439,0.8809756,-2.2273002,53.01321
273,273,Worcester,0.13443831,0.8655617,-2.221575,52.19364
274,274,Trowbridge,0.15442279,0.8455771999999999,-2.208853,51.31966
275,275,Shaftesbury,0.13265993,0.8673401,-2.198083,51.0046
276,276,Alderney,0.1102107,0.8897893,-2.1973557,49.715
277,277,Stoke-on-Trent,0.10956175,0.8904382,-2.179404,53.00267
278,278,Colne,0.11629996,0.8837,-2.176991,53.85564
279,279,Blandford Forum,0.12358049,0.8764195,-2.165353,50.85691
280,280,Rochdale,0.11410550000000001,0.8858944999999999,-2.1561,53.60971
281,281,Jersey,0.11129296,0.888707,-2.13125,49.21444
282,282,Wolverhampton,0.12370466,0.8762953000000001,-2.12882,52.58697
283,283,Stafford,0.11299053,0.8870094999999999,-2.12066,52.80669
284,284,Macclesfield,0.12268266,0.8773173000000001,-2.119287,53.25866
285,285,Hexham,0.10336538,0.8966346,-2.1121439,54.97266
286,286,Aberdeen,0.11267606,0.8873238999999999,-2.094278,57.14972
287,287,Dudley,0.11224489999999998,0.8877550999999999,-2.081112,52.51225
288,288,Cheltenham,0.16700337,0.8329966000000001,-2.0782533,51.89939
289,289,Bromsgrove,0.114,0.8859999999999999,-2.061906,52.33559
290,290,Skipton,0.12142359,0.8785764000000001,-2.0162787,53.96285
291,291,Fraserburgh,0.10888252,0.8911174999999999,-2.007631,57.69335
292,292,Berwick,0.15123095,0.8487690999999999,-2.005395,55.77024
293,293,Poole,0.11900826,0.8809916999999999,-1.987248,50.71505
294,294,Walsall,0.11846459,0.8815354,-1.982919,52.58621
295,295,Cirencester,0.17773167,0.8222683000000001,-1.968243,51.71849
296,296,Evesham,0.12637363,0.8736264000000001,-1.94677,52.09215
297,297,Buxton,0.13307618,0.8669238000000001,-1.91483,53.25908
298,298,Keighley,0.14351852,0.8564815,-1.912358,53.8678
299,299,Birmingham,0.10882957,0.8911703999999999,-1.890401,52.48624
300,300,Bournemouth,0.11292962,0.8870703999999999,-1.880769,50.71916
301,301,Halifax,0.14155251,0.8584475,-1.85754,53.72702
302,302,Salisbury,0.143446,0.856554,-1.794472,51.06878
303,303,Ringwood,0.12,0.88,-1.788817,50.84495
304,304,Huddersfield,0.13250715,0.8674929,-1.7850351000000002,53.64579000000001
305,305,Peterhead,0.11331445,0.8866856,-1.784066,57.50812
306,306,Swindon,0.17227235,0.8277276,-1.7797176,51.55577
307,307,Bradford,0.14955357,0.8504464,-1.759398,53.79598000000001
308,308,Ashbourne,0.14531138,0.8546886,-1.732179,53.016630000000006
309,309,Marlborough,0.16041276,0.8395872,-1.727062,51.42007
310,310,Stratford-upon-Avon,0.12016293,0.8798370999999999,-1.708298,52.19173
311,311,Alnwick,0.10594315,0.8940568000000001,-1.7062990000000002,55.41274
312,312,Otley,0.12473573,0.8752643,-1.691786,53.90583
313,313,Bishop Auckland,0.10194175,0.8980583000000001,-1.6787880000000002,54.66382
314,314,Burton upon Trent,0.13703284,0.8629671999999998,-1.6371359,52.81403
315,315,Newcastle,0.10679612,0.8932039,-1.61778,54.97825
316,316,Durham,0.10194175,0.8980583000000001,-1.584852,54.77525
317,317,Ashington,0.11165049,0.8883495000000001,-1.5659829,55.18298000000001
318,318,Darlington,0.1076555,0.8923445,-1.559458,54.52361
319,319,Leeds,0.13978495,0.8602151,-1.5490774,53.80076
320,320,Harrogate,0.13333333,0.8666666999999999,-1.5418120000000002,53.99211999999999
321,321,Leamington Spa,0.12,0.88,-1.5200789,52.28519
322,322,Coventry,0.12363636,0.8763636,-1.519693,52.40682
323,323,Blyth,0.10731707,0.8926829,-1.510277,55.12696
324,324,Wakefield,0.1732852,0.8267148000000001,-1.505924,53.6833
325,325,Andover,0.13091922,0.8690808000000001,-1.4919233,51.2112
326,326,Witney,0.15121512,0.8487849000000001,-1.4850544,51.78594
327,327,Barnsley,0.16091954,0.8390805,-1.479726,53.55263000000001
328,328,Derby,0.13068182,0.8693181999999999,-1.4746186,52.92253
329,329,Sheffield,0.15345269,0.8465473,-1.470085,53.38113000000001
330,330,Nuneaton,0.12865497,0.871345,-1.465382,52.52049
331,331,Northallerton,0.11646586,0.8835341,-1.429959,54.33796
332,332,South Shields,0.10679612,0.8932039,-1.427406,54.99941999999999
333,333,Chesterfield,0.14847162,0.8515284,-1.421629,53.23505
334,334,Southampton,0.10694698,0.8930530000000001,-1.4043508999999998,50.9097
335,335,Wetherby,0.13646055,0.8635394000000001,-1.384816,53.92706
336,336,Sunderland,0.10679612,0.8932039,-1.383801,54.90687
337,337,Rotherham,0.15506958,0.8449304,-1.3635008999999998,53.4326
338,338,Castleford,0.15699659,0.8430034,-1.345968,53.72346999999999
339,339,Thirsk,0.11889597,0.8811040000000001,-1.341377,54.23385
340,340,Banbury,0.11990008,0.8800998999999999,-1.339775,52.0629
341,341,Stockton,0.11136364,0.8886364,-1.3289821000000002,54.57046
342,342,Newbury,0.16270219,0.8372978000000001,-1.3231138999999998,51.40141
343,343,Isle of Wight,0.08923885,0.9107612,-1.304734,50.69385
344,344,Abingdon,0.14848485,0.8515152,-1.2879528999999998,51.67078
345,345,Shetland Islands,0.11235955,0.8876404,-1.2659409,60.52965
346,346,Rugby,0.13099631,0.8690037,-1.265032,52.37088
347,347,Oxford,0.14697406,0.8530259,-1.2577263,51.75202
348,348,Middlesbrough,0.10067114,0.8993289000000001,-1.234956,54.57423000000001
349,349,Hartlepool,0.10539216,0.8946078000000002,-1.212926,54.69174
350,350,Loughborough,0.13729977,0.8627002,-1.206166,52.7721
351,351,Mansfield,0.15694165,0.8430584000000001,-1.198674,53.1472
352,352,Nottingham,0.15769231,0.8423076999999999,-1.1581086,52.95478000000001
353,353,Bicester,0.12376682,0.8762332,-1.1535898999999998,51.8996
354,354,Leicester,0.1460177,0.8539823000000001,-1.1397592,52.63688000000001
355,355,Doncaster,0.14953271,0.8504673,-1.128462,53.52282
356,356,Worksop,0.1504065,0.8495935,-1.122745,53.3093
357,357,Basingstoke,0.08857143,0.9114286,-1.0923964,51.26654
358,358,Portsmouth,0.09642857,0.9035714,-1.0879769,50.81977
359,359,York,0.1399177,0.8600823000000001,-1.0872979,53.95997
360,360,Selby,0.140625,0.859375,-1.067189,53.78352
361,361,Helmsley,0.12658228,0.8734177,-1.0562636,54.24651
362,362,Towcester,0.1383855,0.8616145000000001,-0.989688,52.13511
363,363,Reading,0.13089623,0.8691038000000001,-0.9781303,51.45426
364,364,Retford,0.15384615,0.8461538000000001,-0.945503,53.32136
365,365,Petersfield,0.10212766,0.8978723,-0.93899,51.00759
366,366,Northampton,0.14602904,0.8539709999999999,-0.902656,52.24048
367,367,Melton Mowbray,0.16594641,0.8340536,-0.887126,52.7664
368,368,Aylesbury,0.13864307,0.8613569,-0.8084,51.81561
369,369,Newark-on-Trent,0.16146789,0.8385321,-0.80657,53.07004000000001
370,370,Malton,0.13778706,0.8622129000000001,-0.7978970000000001,54.13684
371,371,Chichester,0.10935024,0.8906497999999999,-0.774936,50.83761
372,372,Gainsborough,0.15885947,0.8411405000000001,-0.774465,53.40057
373,373,Milton Keynes,0.15357458,0.8464254000000001,-0.7594171,52.04062
374,374,Aldershot,0.13087248,0.8691274999999999,-0.7557509,51.24837
375,375,High Wycombe,0.1803681,0.8196319,-0.748229,51.62861
376,376,Midhurst,0.10834049999999999,0.8916594999999999,-0.737274,50.9869
377,377,Kettering,0.18489583,0.8151042,-0.7302489999999999,52.39632
378,378,Wellingborough,0.17151163,0.8284884,-0.693964,52.30242
379,379,Corby,0.19940476,0.8005952,-0.6842333,52.4923
380,380,Bognor Regis,0.10935024,0.8906497999999999,-0.673061,50.783
381,381,Scunthorpe,0.13606911,0.8639309000000001,-0.654413,53.58865
382,382,Grantham,0.14915798,0.850842,-0.643582,52.91252
383,383,Whitby,0.10152284,0.8984771999999999,-0.613347,54.48634000000001
384,384,Slough,0.18296893,0.8170311,-0.5950406,51.51054
385,385,Guildford,0.16878981,0.8312101999999999,-0.570409,51.23622
386,386,Woking,0.16940452,0.8305955,-0.5600349,51.31677
387,387,Lincoln,0.14322251,0.8567775,-0.540579,53.23069
388,388,Bedford,0.1537054,0.8462946,-0.4667782,52.13864
389,389,Heathrow,0.23404255,0.7659574,-0.4542955,51.47002
390,390,Driffield,0.12474012,0.8752599,-0.443377,54.006
391,391,Beverley,0.136,0.8640000000000001,-0.435093,53.84196
392,392,Luton,0.16863905,0.8313609000000001,-0.4200255,51.87867
393,393,Scarborough,0.10786517,0.8921348,-0.399752,54.28311
394,394,Worthing,0.13291139,0.8670886,-0.372882,50.81787
395,395,Dorking,0.16381156,0.8361884,-0.332378,51.2322
396,396,Hull,0.12605042,0.8739495999999999,-0.3274198,53.76762
397,397,Horsham,0.15693112,0.8430689,-0.325858,51.06288
398,398,Biggleswade,0.16924477,0.8307551999999999,-0.26421999999999995,52.08694000000001
399,399,Peterborough,0.18933333,0.8106667,-0.2405299,52.5695
400,400,Welwyn Garden City,0.1986755,0.8013245,-0.208661,51.80317
401,401,Bridlington,0.13080169,0.8691983,-0.198802,54.08535
402,402,Stevenage,0.18574766,0.8142523,-0.196612,51.90376
403,403,Crawley,0.16434783,0.8356522,-0.1872275,51.10914
404,404,Huntingdon,0.17582418,0.8241758,-0.182552,52.33146
405,405,Hove,0.15103653,0.8489635,-0.168749,50.82793
406,406,Spalding,0.16472546,0.8352745,-0.1537024,52.7901
407,407,Brighton,0.15854922,0.8414507999999999,-0.137163,50.82253
408,408,London,0.20714866,0.7928513,-0.12775830000000002,51.50735
409,409,Grimsby,0.11931818,0.8806818000000001,-0.08078400000000001,53.56746999999999
410,410,Boston,0.14901593,0.8509841,-0.026577,52.97894
411,411,Royston,0.16304348,0.8369565000000001,-0.024066,52.04814
412,412,Louth_Lincs,0.13953488,0.8604651,-0.007711,53.36596
413,413,Lewes,0.16476684,0.8352332,0.00878,50.87387
414,414,Chatteris,0.19230769,0.8076923,0.054012,52.4561
415,415,Uckfield,0.18034351,0.8196565,0.095913,50.96641
416,416,Cambridge,0.16093117,0.8390688000000001,0.121817,52.20534
417,417,Bishop's Stortford,0.17080745,0.8291924999999999,0.1536502,51.87216
418,418,Wisbech,0.19056785,0.8094321,0.158797,52.66631999999999
419,419,Sevenoaks,0.17987152,0.8201285,0.190898,51.27241
420,420,Tunbridge Wells,0.17978848,0.8202115,0.263695,51.13238
421,421,Eastbourne,0.18391960000000002,0.8160804,0.29047199999999995,50.76803
422,422,Brentwood,0.17978848,0.8202115,0.30717490000000003,51.62047000000001
423,423,Skegness,0.12861137,0.8713886000000001,0.337881,53.1464
424,424,Downham Market,0.16696589,0.8330341,0.385472,52.60661
425,425,King's Lynn,0.15614334,0.8438566999999999,0.4022963,52.75168000000001
426,426,Bexhill,0.18061224,0.8193878000000001,0.4662071,50.84991
427,427,Chelmsford,0.15736607,0.8426339,0.4685497,51.73559
428,428,Mildenhall,0.15638575,0.8436142,0.5156095,52.34757000000001
429,429,Medway,0.13664596,0.8633540000000001,0.5417860999999999,51.40474
430,430,Braintree,0.15709459,0.8429054,0.5509269,51.88009
431,431,Gillingham,0.1375,0.8625,0.551438,51.38632
432,432,Hastings,0.17395727,0.8260427,0.573453,50.85426
433,433,Maldon,0.13968254,0.8603175,0.6714479999999999,51.7318
434,434,Southend,0.153125,0.846875,0.7077123000000001,51.54593
435,435,Bury St Edmunds,0.14210526,0.8578947,0.7104931999999999,52.24292
436,436,Thetford,0.15499124,0.8450088,0.751657,52.41286
437,437,Ashford,0.15243902,0.847561,0.8750190000000001,51.14647
438,438,Faversham,0.15820896,0.841791,0.889358,51.31599
439,439,Colchester,0.15028902,0.8497110000000001,0.891874,51.89593
440,440,New Romney,0.16049383,0.8395062,0.939473,50.98512
441,441,Canterbury,0.16320475,0.8367953000000001,1.0789089,51.28023
442,442,Ipswich,0.13544018,0.8645598,1.14822,52.05674000000001
443,443,Clacton,0.14555256,0.8544474,1.153035,51.78953
444,444,Folkestone,0.16099071,0.8390093000000001,1.169456,51.0814
445,445,Sheringham,0.13865546,0.8613445,1.2109589,52.94442
446,446,Harwich,0.13684211,0.8631578999999999,1.260297,51.93473
447,447,Norwich,0.15534805,0.8446520000000001,1.297355,52.63089
448,448,Cromer,0.13865546,0.8613445,1.301866,52.93145
449,449,Dover,0.1625,0.8375,1.3134027,51.12788
450,450,Felixstowe,0.12690355,0.8730964,1.351255,51.96173
451,451,Margate,0.15976331,0.8402367000000001,1.3868339,51.38965
452,452,Ramsgate,0.17159763,0.8284024,1.419895,51.33555
453,453,Great Yarmouth,0.14360313,0.8563969000000001,1.728047,52.59823000000001
454,454,Lowestoft,0.14393939,0.8560606,1.7534490000000005,52.48114
455,455,Swaffham,0.15534805,0.8446520000000001,0.687481,52.64747
456,456,Dereham,0.15025467,0.8497453000000001,0.937827,52.68162
457,457,Ely,0.17554859,0.8244514000000001,0.262363,52.39954
458,458,March,0.18518519,0.8148148000000001,0.088622,52.55172
459,459,St Neots,0.16981132,0.8301886999999999,-0.26510300000000003,52.23008
460,460,Banham,0.15052817,0.8494718000000001,1.0402849,52.45125
461,461,Holt,0.13865546,0.8613445,1.086747,52.90936
462,462,Hunstanton,0.13872832,0.8612716999999999,0.491032,52.93891
463,463,Horncastle,0.14185639,0.8581436,-0.11245,53.20731
464,464,Market Weighton,0.13580247,0.8641975000000001,-0.6677465,53.86484
465,465,Hawes,0.09593023,0.9040698,-2.1968695,54.30383000000001
466,466,Reeth,0.11285266,0.8871473,-1.9428115,54.38946
467,467,Aysgarth,0.11804009,0.8819599,-1.9967434,54.29159
468,468,Stanhope,0.10321101,0.896789,-2.011302,54.74946
469,469,Keswick,0.09728033,0.9027197,-3.134706,54.60128
470,470,Oxenholme,0.08910891,0.9108911,-2.7243328,54.30134
