index,placename,longitude,latitude,aint,arent,ent,innit,int,isnt
0,Dingle,-10.264013499999999,52.14094,0.04447110893102437,0.05787165881043221,0.01,0.06972782854530982,0.020760980132550438,0.7931660881824838
1,Tralee,-9.6999325,52.27131,0.06401774668679663,0.0574581542918037,0.01,0.0580942389308453,0.02061264056046055,0.8401566518701895
2,Killarney,-9.5044265,52.059940000000005,0.08788399866877458,0.051471900474427915,0.01,0.058152734045564154,0.018465120410068845,0.8856600129037209
3,Bantry,-9.4539805,51.68035,0.07884643143111003,0.05108900353626689,0.01,0.0393781674730506,0.018327757528887916,0.7919273837091279
4,Mayo,-9.4289369,54.01526,0.05370802470716585,0.01,0.01,0.16887581335240284,0.01138099090131398,0.7843444054788443
5,Ballycastle,-9.3724643,54.279669999999996,0.05723335835745786,0.01,0.01,0.10847363824502416,0.010974680788756271,0.6483820762722587
6,Abbeyfeale,-9.2970823,52.386179999999996,0.049163976683490734,0.05216495031995704,0.01,0.040504470818381356,0.01871374633469801,0.6886364508948324
7,Ennistymon,-9.2934951,52.940369999999994,0.043674896502421755,0.05953484484424337,0.01,0.0820695235056715,0.014238423534796813,0.6712842144656396
8,Galway,-9.0567905,53.270669999999996,0.07765485325197742,0.01,0.01,0.2005308955789515,0.030073998502144043,0.8565513426911614
9,Claremorris,-9.0017356,53.72388,0.05014162501085028,0.18487966167119382,0.01,0.16342406461721065,0.011054009348354477,0.843187256975874
10,Clare,-8.9811351,52.90453,0.052334027093351006,0.06308707218198971,0.01,0.10350567133587625,0.02263196670152696,0.8703145014828744
11,Adare,-8.7925892,52.56363,0.05838020901614096,0.051571383129702913,0.01,0.05743140926957578,0.01850080986766859,0.780658924119161
12,Charleville,-8.681017599999999,52.36206,0.07745174405558933,0.048746533956390115,0.01,0.038454755108766295,0.017487420151010288,0.6679694106448495
13,Mallow,-8.6539164,52.13898,0.08783082542399262,0.052375309593698786,0.01,0.04526267098864738,0.01878921187782351,0.8077287455955144
14,Limerick,-8.6267343,52.66384,0.060593787089961285,0.05538961152259985,0.01,0.08661907327985381,0.019870564229730853,0.9262866105162958
15,Loughrea,-8.5660931,53.19891,0.0517680958546322,0.01,0.01,0.16336316602317383,0.027351844121351457,0.6159921561527861
16,Sligo,-8.476088800000001,54.27661,0.08450987227552186,0.2052859944880938,0.01,0.1377840499007548,0.01,0.840442207839814
17,Cork,-8.4756035,51.898509999999995,0.0968407538264163,0.053636820116142785,0.01,0.07653050366164293,0.01924176657439399,0.9405471106915637
18,Nenagh,-8.19834,52.8635,0.0530207600228338,0.01,0.01,0.08165514352116408,0.02215181144045859,0.8498189301762258
19,Roscommon,-8.1890955,53.627590000000005,0.059959190390296103,0.19268709415319638,0.01,0.18676441095422017,0.011520818032785067,0.7923156157299615
20,Tipperary,-8.161851400000002,52.47379,0.08969586123424636,0.05372255338357895,0.01,0.05569718336589897,0.019272526324940586,0.8749787606297342
21,Donegal,-8.1096143,54.653830000000006,0.1293425199832414,0.3224448189870047,0.01,0.07921418240949632,0.01,0.8477281506393743
22,Leitrim,-8.0020132,54.12469,0.12754917831386567,0.4458473937946031,0.049374335442481085,0.149019606937441,0.01,0.7352446719522787
23,Athlone,-7.9406898,53.423930000000006,0.07682755533051193,0.1739606075781899,0.01,0.18729119087646579,0.020802312679056974,0.7627422644416805
24,Longford,-7.7932573000000005,53.727630000000005,0.09316143180634251,0.3803021173259727,0.04211567583815193,0.19580625279912955,0.011369187724923527,0.7489596259946071
25,Offaly,-7.7122229,53.235690000000005,0.12312869477917723,0.16048789564863383,0.01,0.16623397899333014,0.028786855451188052,0.7763474115240037
26,Fermanagh,-7.6318728,54.343830000000004,0.1408289546743259,0.2681629998971242,0.01,0.09131435821130357,0.01,0.7387075349792993
27,Enniskillen,-7.631533599999999,54.343819999999994,0.1439134386759514,0.2709039545414139,0.01,0.0950809962820263,0.01,0.7677285365638921
28,Doon,-7.60964,54.185930000000006,0.10831792196742537,0.7003107384341951,0.05170285778199676,0.1528483192125778,0.01,0.6783610782113925
29,Westmeath,-7.4653217000000005,53.534530000000004,0.13959603878670426,0.22529414034209275,0.01,0.19423363453666034,0.01,0.7174240458249513
30,Strabane,-7.4633103,54.82739,0.09552101460153514,0.35749200781659796,0.01,0.025395545812533383,0.01,0.8491202123653089
31,Balivanich,-7.3743509000000005,57.472269999999995,0.12222972284867031,0.01,0.01,0.1383082939666838,0.06565241218174417,0.5819272244068254
32,Cavan,-7.3633319,53.98972,0.10708568360734406,0.8166097289795656,0.06028903237887937,0.17547402922924685,0.01,0.7567877594597578
33,Mullingar,-7.340186800000001,53.525819999999996,0.13889544398301518,0.20728286223983258,0.01,0.21434037295998054,0.01,0.7040067377913553
34,Laois,-7.332300699999999,52.9943,0.16743939607828187,0.01,0.01,0.1675937696289449,0.03944151121450984,0.7357153226008543
35,Omagh,-7.309959700000001,54.59771,0.11432483168000102,0.36922374541967723,0.01,0.06841626293915747,0.01,0.8187545635559239
36,Derry,-7.308574799999999,54.99661,0.10075047206804034,0.3958267440341783,0.01,0.02236838275096475,0.01,0.916955335271968
37,Derry,-7.308574799999999,54.99661,0.10075047206804034,0.3958267440341783,0.01,0.02236838275096475,0.01,0.916955335271968
38,Kilkenny,-7.2447879,52.65415,0.15594922862063915,0.01,0.01,0.08395641569945744,0.028557292975311142,0.8159033854944766
39,Tyrone,-7.131232000000001,54.491209999999995,0.08572168606168333,0.39853315274153805,0.01,0.02441665219574397,0.01,0.8217284161495783
40,Waterford,-7.110070200000001,52.25932,0.12451615481255163,0.01,0.01,0.064888131357311,0.022127890764673076,0.8703898163052908
41,Western Isles,-7.0194034,57.759890000000006,0.14217024120325417,0.01,0.01,0.2028787450643536,0.06551109071395428,0.6464866509883653
42,Monaghan,-6.9683132,54.2492,0.09225623248804418,1.0,0.07382845360644825,0.10784637632997163,0.01,0.7954505173322967
43,Carlow,-6.934135899999999,52.83651,0.1582055913380744,0.01,0.01,0.08999283203760479,0.010695476621711688,0.8036860086846895
44,Kildare,-6.8194707999999995,53.21204,0.06314848542532532,0.07213913698301837,0.01,0.1055467208883698,0.01,0.9053421168704481
45,Dungannon,-6.7669352,54.508269999999996,0.03033054017080191,0.4532564190928424,0.01,0.04326402732409098,0.01,0.8579058233542708
46,Cookstown,-6.7443895000000005,54.641819999999996,0.043695475761118874,0.5016486271215472,0.01,0.01753317717845145,0.01,0.8895288870064227
47,Coleraine,-6.6646103000000005,55.132580000000004,0.08052296293750474,0.01,0.01,0.01,0.01,0.9328112770247704
48,Meath,-6.656416900000001,53.60555,0.05797064172133018,0.21432850719418728,0.01582354224992537,0.1254718987071872,0.01,0.8742119384190755
49,Armagh,-6.652792,54.350280000000005,0.05017377750093972,0.4168986814399779,0.01,0.07567922116427721,0.01,0.8660766692156976
50,Armagh,-6.652792,54.350280000000005,0.05017377750093972,0.4168986814399779,0.01,0.07567922116427721,0.01,0.8660766692156976
51,Magherafelt,-6.607980499999999,54.75536999999999,0.02196571970252744,0.52012154158048,0.01,0.01,0.01,0.9216266882631572
52,Dunvegan,-6.581398200000001,57.4366,0.11310171879855313,0.01,0.01,0.15473019739117802,0.06593371284653457,0.5580275274453407
53,Louth,-6.4889423,53.925230000000006,0.10392764909880642,0.97958096507855,0.07232094671107794,0.23004664892346663,0.01,0.7580829554650631
54,Wexford,-6.4633381,52.33692,0.16092273474887572,0.01,0.01,0.11615179001815648,0.02107459081268653,0.8051149945401794
55,Craigavon,-6.4175653,54.442930000000004,0.0400013557460773,0.4699076726614684,0.01,0.03663135033772448,0.01,0.914210269549807
56,Stornoway,-6.384869200000001,58.209430000000005,0.14767451003616305,0.01,0.01,0.1925260971639231,0.0655890283748693,0.6937654222949027
57,Drogheda,-6.3560985,53.717859999999995,0.049715438943949884,0.2161698789524798,0.015959486770258907,0.11601562613996036,0.01,0.8453317685745774
58,Rosslare,-6.3414908,52.25131,0.15305752419142443,0.01,0.01,0.06778754986255475,0.01922681193673037,0.5923281312640726
59,Newry,-6.34023,54.1751,0.07350788402367908,0.9259542406393604,0.10254265287109675,0.15156413195287197,0.01,0.8030490167783401
60,Scilly Isles,-6.327496599999999,49.92773,0.2161549181166276,0.1973593090022961,0.01,0.3543218922520201,0.01,0.5280779274459317
61,Ballymena,-6.2802213,54.86529,0.03534508545504216,0.2948065732270841,0.01,0.01767668987065459,0.01,0.9272788793511046
62,Banbridge,-6.2704803,54.34873,0.02617022480848011,0.5116129599865948,0.01,0.04410568549426476,0.01,0.893028437495294
63,Dublin,-6.2603097000000005,53.34981,0.06092232390094017,0.07625689371692354,0.01,0.12830524508324848,0.01,0.999966302714742
64,Antrim,-6.2072498,54.719530000000006,0.05038211023483658,0.5144918754188788,0.01,0.05411099230746396,0.01,0.9030148885767045
65,Antrim,-6.2072498,54.719530000000006,0.05038211023483658,0.5144918754188788,0.01,0.05411099230746396,0.01,0.9030148885767045
66,Portree,-6.1960231,57.41246999999999,0.1449673589863817,0.01,0.01,0.15985932248660406,0.0709240329185256,0.7087301073740424
67,Islay,-6.177067,55.73625,0.16839273933915666,0.01,0.01,0.479221400418744,0.5132759579280747,0.3127147951995143
68,Wicklow,-6.044589,52.980819999999994,0.05523105734110486,0.0739432630209404,0.01,0.11011168917295505,0.01,0.88987649065065
69,Kilkeel,-6.007004,54.06312,0.056492118207899615,0.6290852416643294,0.03980947763889964,0.06585582610695676,0.01,0.798271639302138
70,Mull,-6.0008870000000005,56.4392,0.30552867467348793,0.01,0.01,0.47921234354152686,0.4914482970084251,0.21390368877726182
71,Belfast,-5.93012,54.597280000000005,0.04511170560535946,0.30947513954554734,0.01,0.07960224930584094,0.01,1.0
72,Broadford,-5.9096592,57.24139,0.139647654429202,0.01,0.01,0.13719037545781132,0.06724539165778236,0.5463580361736273
73,Down,-5.7156921999999994,54.32875,0.03610525755661456,0.30452650874186415,0.01,0.06378858586788412,0.01,0.9154595436749119
74,Kyle of Lochalsh,-5.7143293,57.28261,0.12833326320358188,0.01,0.01,0.15098746345707864,0.06706749333348813,0.5476638584651335
75,Campbeltown,-5.605373999999999,55.424119999999995,0.13072616705851434,0.01,0.01,0.6823177044549777,0.7171054750649679,0.1639315086268878
76,Penzance,-5.537592,50.1188,0.22814548396663148,0.20363473210815952,0.01,0.3744022549745572,0.01,0.5890369524883702
77,Oban,-5.471047,56.41516,0.3256892966730474,0.01,0.01,0.5691227584182057,0.5048929637952598,0.19039534099728958
78,Lochgilphead,-5.4323449,56.03829,0.2970225380319487,0.01,0.01,0.5753081410951904,0.621072998527846,0.09368917319432984
79,Helston,-5.274996,50.10159,0.23154631998531794,0.20243398224718007,0.01,0.3705600447135802,0.01,0.5416907731686634
80,Redruth,-5.226666000000001,50.23302,0.22486783548202163,0.20191933234406476,0.01,0.37695611946135377,0.01,0.5618934820904941
81,Ullapool,-5.161313,57.895419999999994,0.1472220011186062,0.01,0.01,0.18820149447893303,0.06549286602576623,0.6511313176096696
82,Ballachulish,-5.133719999999999,56.673930000000006,0.343633662714396,0.01,0.01,0.3150810860251704,0.27496217605387846,0.20881553584232287
83,Fort William,-5.1052179,56.81981999999999,0.34719621538981993,0.01,0.01,0.2475083050940958,0.14615509934253992,0.48045452294467095
84,Achnasheen,-5.078765799999999,57.578590000000005,0.12554341385702358,0.01,0.01,0.18786478158126,0.06298512404913792,0.5308125327033174
85,Newquay,-5.0737190000000005,50.4155,0.07825879012287389,0.31106557723130807,0.01,0.3216717274172376,0.01,0.7298568606165858
86,Falmouth,-5.066269999999999,50.152570000000004,0.23858097121206284,0.20606223006119195,0.01,0.3821698249309725,0.01,0.5844695704411277
87,Rothesay,-5.055793,55.83596,0.26416017875389153,0.01,0.01,0.6654375754352589,0.7015957601657226,0.10258112715955606
88,Truro,-5.051041000000001,50.2632,0.2354473969809452,0.20745628280861095,0.01,0.3948940428348914,0.01,0.6349027606035021
89,Milford Haven,-5.0426971,51.71431,0.46222930365845727,0.5141365446544162,0.01,0.2885388317302896,0.01,0.38704131931910996
90,Stranraer,-5.024055000000001,54.903369999999995,0.07120407116665065,0.27814716508679377,0.01,0.1487358808744812,0.09978300485715705,0.7503384314981262
91,Fishguard,-4.975989,51.99393,0.3576298228799844,0.3928821774771107,0.01,0.25683577296602433,0.01,0.45437488573051865
92,Inchnadamph,-4.974295,58.15221,0.1342001259572554,0.01,0.01,0.18246466539301828,0.06272539188723204,0.5270841242750445
93,Haverfordwest,-4.971319,51.800470000000004,0.45426575908676914,0.5165586927066079,0.01,0.2963479893107379,0.01,0.4044998521301473
94,Dunoon,-4.926214,55.95097,0.28348471987353685,0.01,0.01,0.640270291663368,0.6499929332088689,0.10592252506170204
95,Pembroke,-4.908637000000001,51.674040000000005,0.46656896405186765,0.2573650450413244,0.01,0.3045690155841341,0.01,0.4356627143806669
96,Girvan,-4.8542179,55.240159999999996,0.1395846444801462,0.01,0.01,0.8240914854323452,0.9517842377400972,0.01
97,Wadebridge,-4.836456,50.51665,0.26295681174876007,0.01,0.01,0.3496351954942162,0.01,0.5455686893175802
98,Invergarry,-4.800261,57.07095,0.12384130475424678,0.01,0.01,0.2058916847395873,0.06851760154411882,0.5200446806328827
99,St Austell,-4.7834252,50.340379999999996,0.272262529558274,0.01,0.01,0.3671145013936095,0.01,0.541465183487213
100,Greenock,-4.7719830000000005,55.956480000000006,0.28353156137903296,0.01,0.01,0.6779149948289304,0.6074155788176181,0.17255887134992373
101,Helensburgh,-4.734014,56.00232,0.278517286318292,0.01,0.01,0.658314454786678,0.6005631010894031,0.12722153605502276
102,Bodmin,-4.7188629,50.4715,0.275074779154254,0.01,0.01,0.33562629305267655,0.01,0.5319676034002658
103,Tenby,-4.703579,51.672740000000005,0.5018780007231178,0.2462721293461042,0.01,0.29420813666588197,0.01,0.37422782554635886
104,Camelford,-4.682364,50.62206,0.27788225411683815,0.01,0.01,0.29227721846944343,0.01,0.510025592150038
105,Irvine,-4.6696364,55.61156999999999,0.17843469770770665,0.01,0.01,0.7517827522516618,0.914773131662196,0.11178803942428146
106,Cardigan,-4.660864,52.0837,0.24689732776022458,0.2928631814781612,0.01,0.2389946531566699,0.01,0.5794147273614293
107,Holyhead,-4.633038,53.30944,0.08926900500311032,0.2541091093564986,0.01,0.49036469594367965,0.015193258387309271,0.5748493572605116
108,Ayr,-4.629179,55.45856,0.1454500487718041,0.01,0.01,0.7453369317680997,1.0,0.12202948464702926
109,Dumbarton,-4.564554,55.94529,0.19641183527221237,0.12782104872552805,0.01,0.8279501946676863,0.47239944936357087,0.19572745430823524
110,Bude,-4.543678,50.826640000000005,0.30878239960250786,0.01,0.04459919026380869,0.3551052969925283,0.018059423617242065,0.49043932208185004
111,Isle of Man,-4.5126330999999995,54.27697,0.19980385192708663,0.35536591727174244,0.01,0.12739896889214827,0.04249486542867751,0.7624852478755771
112,Kilmarnock,-4.498792,55.61472,0.16568902716513725,0.01,0.01,0.7159140972442575,0.9085064114502516,0.1356444922356148
113,Newton Stewart,-4.483164,54.9603,0.17654914281719844,0.36536639579379554,0.01,0.5790222349761635,0.7281788050550506,0.16042440413799944
114,Liskeard,-4.4647190000000005,50.45552,0.28093137510671057,0.01,0.01,0.32350718647460797,0.01,0.5452881549801724
115,Altnaharra,-4.442655,58.28023,0.0962932373293287,0.01,0.01,0.19412629742543352,0.06431673421958922,0.5499269069097201
116,Pwllheli,-4.417633900000001,52.888819999999996,0.10978683751789353,0.1631038294456752,0.01,0.27719355697442555,0.01,0.6689104515993871
117,Lairg,-4.402414,58.022059999999996,0.1179744420005733,0.01,0.01,0.20232606101511874,0.06351109610623325,0.5285281288196199
118,Launceston,-4.360451599999999,50.636829999999996,0.38670917545497663,0.01,0.01,0.38250181258685845,0.01,0.4162928930125974
119,Carmarthen,-4.312131,51.857620000000004,0.4831123754810332,0.5572334341286624,0.01,0.3008176788925463,0.01,0.41293134525896824
120,Llangefni,-4.311401999999999,53.255790000000005,0.07494388642728309,0.25407972170280274,0.01,0.5003964916800472,0.01519150129085126,0.6197055701725988
121,Caernarfon,-4.273911,53.13955,0.09435445404489348,0.26689943818719913,0.01,0.4439498961852938,0.015957995910004123,0.6264866241751696
122,Cumnock,-4.265828900000001,55.45355,0.19282828262138876,0.01,0.01,0.5809807768203222,0.912248766997246,0.1490232039573597
123,Aberaeron,-4.2581619,52.24279,0.20906772281058636,0.404679133529688,0.01,0.25205038818436293,0.01209794220923261,0.587291781356767
124,Alness,-4.256825,57.69595,0.1609970733710193,0.01,0.01,0.2427161515803644,0.0641441357663509,0.6540590933308259
125,Glasgow,-4.251806,55.86424,0.19726008319877997,0.13314896507957055,0.01,0.8491549444529053,0.4682072223048442,0.31344783640623475
126,Dalwhinnie,-4.242783,56.9366,0.19683684230917506,0.01,0.01,0.21784774982869962,0.01,0.48118531866516034
127,Inverness,-4.224721,57.47776999999999,0.15915930537317904,0.01,0.01,0.30975012361791565,0.0669145991323791,0.6970504855947584
128,Saltash,-4.21643,50.409209999999995,0.336479470129536,0.01,0.01,0.41618474395680255,0.01,0.43931705396641896
129,Bideford,-4.206666,51.01668,0.15490289612965483,0.01,0.043370358235409794,0.28503526744021085,0.017561836584451,0.6641595790472075
130,Invergordon,-4.1728819999999995,57.688109999999995,0.15662893639200776,0.01,0.01,0.24971281290912975,0.06327382006329878,0.6558751758163984
131,Llanelli,-4.160248,51.680890000000005,0.5353060071360708,0.5080903189079944,0.01,0.34260069327897413,0.01,0.36907670933468184
132,Plymouth,-4.1426565,50.37546,0.35843932954014823,0.01,0.01,0.4475525760272558,0.01,0.5223555128378458
133,Tavistock,-4.141654,50.551120000000004,0.3310205491147717,0.01,0.01,0.4079235530479334,0.01,0.4674566387146396
134,Porthmadog,-4.1333839999999995,52.92784,0.11762458631244872,0.29122704166763963,0.01,0.47488116488029314,0.01741255047736436,0.5752272657959638
135,Bangor,-4.129263,53.22739,0.0914928128192776,0.24924620284829666,0.01,0.5253158168729187,0.014902503776899821,0.6288770769935671
136,Tywyn,-4.087249,52.58701,0.18206306215597218,0.01,0.01,0.15660517785601283,0.01,0.6458354123778809
137,Aberystwyth,-4.08292,52.4153,0.19780249989558235,0.41808687064833094,0.01,0.1974211391422969,0.012498768028335073,0.7104091356265393
138,Lampeter,-4.0785089999999995,52.1129,0.17910682363067265,0.3503509836865019,0.01,0.2286792289322198,0.010473794624315547,0.6383941830263897
139,Barnstaple,-4.058338,51.07816,0.1795162558257089,0.01,0.045558208698627055,0.2724314356253052,0.018447756689092116,0.6870795353924302
140,Tain,-4.05523,57.8115,0.14167891662172488,0.01,0.01,0.22981750993797095,0.06431482112059847,0.6295204022257778
141,Okehampton,-4.004263,50.73831,0.17497148720395408,0.01,0.03986776333683901,0.2790634957064636,0.01614353984387294,0.6121980035237705
142,Llandeilo,-3.9914300000000003,51.88469,0.5081138952824457,0.5275050913339729,0.01,0.3347664809231091,0.01,0.3520936064801288
143,Motherwell,-3.9810968,55.78321,0.19263758922244856,0.12840930581384602,0.01,0.8042655036492281,0.49664671022892,0.25087808938546446
144,Golspie,-3.976086,57.97341,0.09347189616111967,0.01,0.01,0.20534830656305936,0.06121089590490833,0.5470495755401253
145,Airdrie,-3.9625660000000003,55.86626999999999,0.24850008002894905,0.29500736760547125,0.01,0.7049703704462438,0.6173502074408307,0.19097985553826508
146,Swansea,-3.9436459999999998,51.62144,0.5881239535169497,0.25997381668671676,0.01,0.3622425768638255,0.01,0.38916293571920735
147,Stirling,-3.9369029,56.116519999999994,0.28209249663288827,0.01,0.01,0.3550334315298642,0.13415397092726547,0.5575021930151781
148,Tregaron,-3.934385,52.22,0.19515493846438783,0.40182668696456625,0.01,0.18696512187763528,0.012012667899685747,0.6442396217968649
149,Tregaron,-3.934385,52.22,0.19515493846438783,0.40182668696456625,0.01,0.18696512187763528,0.012012667899685747,0.6442396217968649
150,Castle Douglas,-3.9314139999999997,54.940419999999996,0.16127302857009695,0.529628061963967,0.01,0.3319553560689331,0.3852771858280626,0.45022773072186395
151,Dolgellau,-3.8844,52.74215,0.16506692899296865,0.01,0.01,0.16265822598476362,0.01,0.6636381285871351
152,Aberfeldy,-3.866969,56.62175,0.1775863044295338,0.01,0.01,0.34225159121742427,0.012622111247683759,0.6044604969675258
153,Machynlleth,-3.853485,52.59027,0.20882356716386355,0.01,0.01,0.21255556958328767,0.01,0.6275620927854796
154,Brora,-3.8525480000000005,58.012159999999994,0.11204599042142603,0.01,0.01,0.2217492632338363,0.06329135907306296,0.6370382646663321
155,Llandudno,-3.827609,53.324059999999996,0.06002256513911624,0.23100742388174153,0.01,0.5310018442208027,0.013812001818077358,0.6276238426486287
156,Llandudno,-3.827609,53.324059999999996,0.06002256513911624,0.23100742388174153,0.01,0.5310018442208027,0.013812001818077358,0.6276238426486287
157,Aviemore,-3.823812,57.19449,0.14672747392063265,0.01,0.01,0.31890207102610085,0.0688292230089714,0.6065698666744742
158,Dalbeattie,-3.8225269999999996,54.934219999999996,0.16169303162036253,0.5493717783622108,0.01,0.25072114674772106,0.284674866732555,0.49445493979830946
159,Falkirk,-3.7839131,56.00188000000001,0.36188454197894127,0.01,0.08915684293702322,0.35614706626340553,0.18051014398691537,0.4679893340841779
160,Kingsbridge,-3.777493,50.28395,0.27908581822494644,0.01,0.01,0.3587802353176424,0.01,0.5222703614621094
161,Pitlochry,-3.729711,56.70436,0.11635590973550274,0.01,0.01,0.2462827521281369,0.012027152742194637,0.6646832624402021
162,Colwyn Bay,-3.72764,53.29318000000001,0.05805206506441686,0.23829217207469044,0.01,0.4995381501026981,0.014247559055132884,0.6351160492054646
163,Totnes,-3.685797,50.43374,0.27889994981228566,0.01,0.01,0.3585116036874851,0.01,0.5278379635714413
164,Grantown-on-Spey,-3.609628,57.33041,0.13759103246982854,0.01,0.01,0.26936578851227294,0.0656338358139221,0.6001399002298204
165,Dumfries,-3.60512,55.070859999999996,0.18731445029898625,0.6430571275005833,0.01,0.2575015150798604,0.33322098393315364,0.5601225500952834
166,Whitehaven,-3.589233,54.5497,0.21057609305250355,0.4037407620475889,0.01,0.1583526192437714,0.0824775791503781,0.6752570247179911
167,Dartmouth,-3.578807,50.35252,0.275376834313919,0.01,0.01,0.35638718579989376,0.01,0.5067843512335157
168,Bridgend,-3.576945,51.504290000000005,0.8073677478768112,0.01,0.01,0.3777592202278823,0.01,0.17366233271108866
169,Paignton,-3.564235,50.43508,0.28068414449280793,0.01,0.01,0.3675658589269515,0.01,0.5673945497064987
170,Workington,-3.5427519999999997,54.64357,0.18229096991020688,0.4363740215843948,0.01,0.1609662469609673,0.11523494598064472,0.6814532140227512
171,Llanidloes,-3.5401949999999998,52.447790000000005,0.2359517248589346,0.01,0.01,0.2760953918488338,0.01,0.5559188633343036
172,Exeter,-3.533899,50.71841,0.17323129615836996,0.01,0.01,0.33144868752887596,0.013790386200699542,0.7399481289220825
173,Torquay,-3.525315,50.46192,0.19139695152079794,0.01,0.01,0.3307830962997698,0.013371632679117548,0.6603196386778739
174,Thurso,-3.5220800000000003,58.59356999999999,0.12428582031063695,0.01,0.01,0.19748887160342624,0.08507838377146365,0.6910372609787077
175,Livingston,-3.518068,55.90071,0.31401104544041797,0.01,0.07453515174767746,0.45781372625759315,0.10060436022159898,0.4779545464701504
176,Rhyl,-3.4916339999999995,53.319140000000004,0.01,0.01,0.01,0.37004844262659525,0.025471442103025474,0.7523183586213548
177,Tiverton,-3.491207,50.90205,0.1608283601111797,0.18647935707448487,0.04130244768700172,0.3238406465203838,0.022299312112148036,0.6310921102695636
178,Tiverton,-3.491207,50.90205,0.1608283601111797,0.18647935707448487,0.04130244768700172,0.3238406465203838,0.022299312112148036,0.6310921102695636
179,Minehead,-3.481152,51.20428,0.46731216666757397,0.3484741940470271,0.01,0.3663932351776116,0.01,0.3430321557240331
180,Dunfermline,-3.452151,56.071740000000005,0.159595567529297,0.08033075979241593,0.05337626534282857,0.2571597719650818,0.045628501333067,0.7253158652444298
181,Perth,-3.4308381000000003,56.39499,0.13109319531918223,0.01,0.01,0.26958464656322495,0.010174605090067552,0.7038414223316998
182,Prestatyn,-3.4076129999999996,53.33651,0.01,0.01,0.01,0.32033911901146533,0.021725117600517454,0.7540921403533634
183,Builth Wells,-3.4045919999999996,52.15002,0.8820760523946821,0.6337469764159989,0.01,0.15194179026852545,0.01,0.13845368961217056
184,Braemar,-3.3979439,57.00646999999999,0.16572646137203303,0.01,0.01,0.26488492250528606,0.01,0.47951739606049737
185,Brecon,-3.391463,51.94895,0.9699253761080147,0.4701381151843584,0.01,0.28460027365827173,0.01,0.02007071729732464
186,Merthyr Tydfil,-3.381646,51.74873,0.9933393755947579,0.01,0.01,0.2595493700629431,0.01,0.1115682076275194
187,Llandrindod Wells,-3.377742,52.2417,0.31461720014398686,0.3841780768526201,0.01,0.2622199804877918,0.01,0.513725344303329
188,Corwen,-3.369242,52.98005,0.4263425391478186,0.01,0.01,0.3344225839323275,0.01,0.36388204609784525
189,Cockermouth,-3.367985,54.66326,0.16533340328453103,0.44251314509691064,0.01,0.13628467360130794,0.11685612534268484,0.6714285668243084
190,Lockerbie,-3.349008,55.122240000000005,0.14616579474438438,0.595430138500509,0.01,0.20505312020994154,0.1928384441765682,0.6590956477337896
191,Blairgowrie,-3.3378318,56.58941,0.09978423657983468,0.01,0.01,0.24206990786183138,0.01,0.7165068285569673
192,Elgin,-3.318485,57.64945,0.17979910963903553,0.01,0.01,0.2655421695517742,0.06034692761730951,0.6928335463707529
193,Newtown,-3.313106,52.51211,0.27686794975707446,0.01,0.01,0.3345506026895977,0.01,0.49813947735555975
194,Ruthin,-3.3103108,53.114869999999996,0.35108478461838993,0.01,0.01,0.4264279353224436,0.01,0.42895909525670733
195,Ruthin,-3.3103108,53.114869999999996,0.35108478461838993,0.01,0.01,0.4264279353224436,0.01,0.42895909525670733
196,Sidmouth,-3.2375599999999998,50.67865,0.1399005978019564,0.01,0.01,0.26756443702429744,0.013460396340144756,0.6794806430614153
197,Barrow-in-Furness,-3.2188939999999997,54.10896999999999,0.26764299591175633,0.01,0.038783192133239566,0.3135681415557916,0.03926092117537121,0.5923524348670073
198,Peebles,-3.1936419999999996,55.65306999999999,0.14584332856080334,0.06909032739926146,0.0459074915911716,0.27687459904765055,0.03511291525514399,0.6512656940243976
199,Edinburgh,-3.1882669999999997,55.95325,0.13553285877733062,0.07430037914225199,0.016456446283335802,0.2772231617931598,0.02887586989452277,0.8312640294679369
200,Cardiff,-3.17909,51.48158,0.3966571897884651,0.01,0.025809872155940206,0.4590484025494059,0.01,0.5224177388535596
201,Llangollen,-3.1716599999999997,52.96921,0.27577834754923763,0.01,0.01,0.35750278355104,0.014045038994572979,0.49053224783133864
202,Kirkcaldy,-3.158137,56.11682,0.11822115649595798,0.067579499479075,0.01496786982611365,0.26565580706832514,0.02626389073563737,0.7797946125259246
203,Welshpool,-3.146407,52.66035,0.506774280985647,0.01,0.01,0.2791284238138941,0.01,0.38741555590867477
204,Mold,-3.1419029999999997,53.1672,0.23104012207647343,0.01,0.01,0.34155070617562944,0.014179797455997874,0.6146395884075846
205,Mold,-3.1419029999999997,53.1672,0.23104012207647343,0.01,0.01,0.34155070617562944,0.014179797455997874,0.6146395884075846
206,Taunton,-3.106849,51.01534,0.2604551459796075,0.4048281602129976,0.01,0.4108092286581907,0.024204794767692217,0.5545490326588812
207,Wick,-3.093716,58.43894,0.15720496156972613,0.01,0.01,0.2263310563763241,0.06829746841702838,0.6482632913249877
208,John o' Groats,-3.0688997000000002,58.63734,0.14484197593110912,0.01,0.01,0.18781405802789794,0.06564348196992448,0.5146106635309275
209,Dalkeith,-3.066606,55.893119999999996,0.11760741583588988,0.07343220644259855,0.016264158739699556,0.2717199525699295,0.02853846548171052,0.7480560042018495
210,Oswestry,-3.056412,52.85715,0.4240789255181377,0.01,0.01,0.344905020340698,0.01,0.44763805253788247
211,Blackpool,-3.0356748,53.81751,0.2839732039479781,0.1504957212116574,0.016666301266933643,0.4243659963184735,0.04274137154812858,0.5663496664764475
212,Birkenhead,-3.023009,53.389990000000004,0.05245318914377981,0.09866922631970076,0.016390343602944262,0.3892995073503308,0.01,0.7788357722195648
213,Cupar,-3.010137,56.32023,0.1392279068584983,0.01,0.01,0.24696069909746066,0.018226832589067897,0.6800378738240869
214,Southport,-3.010113,53.64571,0.23466158588727612,0.01,0.01,0.42236747072902675,0.027383004424411096,0.588275010203842
215,Bridgwater,-3.003632,51.12789,0.40973868596635155,0.3390239821261711,0.01,0.4520205769343488,0.01,0.44688872900380894
216,Langholm,-2.998913,55.153059999999996,0.13056755803539247,0.2750914632154454,0.01,0.224106989517869,0.17818449263521982,0.5823344902853886
217,Newport,-2.997664,51.58415,0.6430456258056154,0.01,0.056346357805216546,0.34938282327104947,0.015210780944488519,0.3292088189423899
218,Axminster,-2.9949369999999997,50.78273,0.259438936739755,0.3408939854536856,0.01,0.3949395103534112,0.020382151654434726,0.5127009055906722
219,Wrexham,-2.9924939999999998,53.043040000000005,0.30396429771793787,0.01,0.01,0.36886062079228155,0.014619657117956495,0.5666589414422565
220,Liverpool,-2.9915726,53.40837,0.0591776241641463,0.10211051683937697,0.01696198762845185,0.40441032894603746,0.01,0.831991902390764
221,Weston-super-Mare,-2.977255,51.347409999999996,0.3406072465568469,0.01,0.027341472704482422,0.45192822236211494,0.01,0.48743260551596596
222,Dundee,-2.9707209999999997,56.462019999999995,0.15773184953867223,0.01,0.01,0.26025142769958204,0.01991955093433543,0.7704758297175305
223,Kirkwall,-2.9622491,58.984669999999994,0.16820117141589203,0.01,0.01,0.2134250665649934,0.06925887065303053,0.6534974327304419
224,Ambleside,-2.961333,54.428740000000005,0.18660388102188868,0.01,0.05312893518878862,0.11215875865053025,0.028684465188242997,0.7550101267320826
225,Orkney Islands,-2.9605206,58.980940000000004,0.16858047022271214,0.01,0.01,0.21399044833593198,0.06933868300611788,0.656671169360436
226,Lyme Regis,-2.936639,50.725159999999995,0.34861468636162674,0.4179756319313818,0.01,0.3332603656729551,0.04998177283121068,0.45038549341797546
227,Carlisle,-2.932931,54.892469999999996,0.12464094516322094,0.506500575993897,0.01,0.14983982078099733,0.14889543967806196,0.7904289707481803
228,Chester,-2.893075,53.19339,0.24546968533993968,0.01,0.01,0.3232343823554997,0.013655801959650249,0.6695119808087912
229,Forfar,-2.889062,56.64356,0.15013431678813371,0.01,0.01,0.1930584602288076,0.01,0.7351474785716189
230,Morecambe,-2.864968,54.074169999999995,0.266669401612397,0.01,0.039761491048643065,0.30463428619282273,0.04025127048525651,0.5751822896202488
231,Selkirk,-2.838524,55.55066,0.19320633970941256,0.01,0.01,0.32768728310593015,0.047787734040996135,0.6122000551643304
232,Galashiels,-2.814449,55.62373,0.1243267702223311,0.07174491755349631,0.015890448951290274,0.25910724581517086,0.03646202263893001,0.6982778654225101
233,Lancaster,-2.8007399,54.046569999999996,0.1894017620277144,0.01,0.05590878737163797,0.27916160156288816,0.015092658171833775,0.7031544092831897
234,St Andrews,-2.7967214,56.339780000000005,0.1352826287197027,0.01,0.01,0.19092886257440325,0.019077408797536662,0.757806570680824
235,Hawick,-2.780914,55.42706,0.1476507882198281,0.3242069957808175,0.01,0.23828035920390678,0.1453832399379945,0.6315137870212875
236,Bridport,-2.758301,50.733579999999996,0.29971912467365786,0.2893834851857442,0.01,0.3567739609873991,0.034604648281560735,0.49023617790854923
237,Shrewsbury,-2.7553267999999997,52.7073,0.35622769305802504,0.28137066141813366,0.01,0.2751497737729178,0.01,0.5998096396260376
238,Penrith,-2.752708,54.6641,0.17500657883042828,0.2668461855415366,0.01,0.15593624693938787,0.07179665271868314,0.7613297614053519
239,Kendal,-2.74629,54.32801,0.18654787628762856,0.01,0.04604262338540825,0.17339126011580203,0.02485854581217285,0.7434344907511683
240,Street,-2.7429189999999997,51.12468,0.3884579480438555,0.33287232834783215,0.01,0.48298539701881044,0.01,0.3340961380111669
241,Glastonbury,-2.718454,51.14743,0.3905014028783189,0.01,0.01,0.4931817906910864,0.01,0.35783903313060533
242,Hereford,-2.715974,52.0564,0.32512173581428977,0.01,0.5849657618419217,0.17100153072762256,0.01,0.6069140019186776
243,Ludlow,-2.7139129,52.36775,0.3248054431952013,0.4666480346886681,0.2067114133406488,0.22002019556162858,0.01,0.5547493881304836
244,Preston,-2.70309,53.7632,0.46408996245059037,0.41142323455997454,0.022781055888994473,0.4964456770308089,0.043048452426306734,0.39675837650837914
245,Whitchurch,-2.682045,52.96872,0.40628711903349035,0.01,0.01,0.33369243979983826,0.01,0.4334122934343898
246,Wells,-2.6445979,51.20935,0.30765885840627366,0.01,0.01,0.5422194651958615,0.01,0.4149917270156794
247,Yeovil,-2.633308,50.94206,0.28402663496692737,0.01,0.01,0.3609583322612966,0.01,0.5700147178690359
248,Wigan,-2.6325074,53.54506,0.3896372113737256,0.01,0.01,0.5321411767351374,0.03890678304152656,0.45724071734343813
249,Warrington,-2.5969501,53.39004,0.3206714382619251,0.08573806488860035,0.01,0.365415646291792,0.02050521553616572,0.6151620988250666
250,Arbroath,-2.591543,56.55911,0.1319420588382977,0.01,0.01,0.1857494928851878,0.01976047381801048,0.7585630831003237
251,Bristol,-2.58791,51.45451,0.348613999827026,0.17476736301692575,0.01,0.6087925854559724,0.031348175174556785,0.47373636663047175
252,Guernsey,-2.5852779999999997,49.46569,0.1642163649040429,0.01,0.01,0.2594654964626568,0.023693002276743827,0.47492817500571644
253,Ross-on-Wye,-2.582446,51.91445,0.2895575135914901,0.01,0.48779336244220983,0.15137658905423673,0.01,0.6210379487452939
254,Jedburgh,-2.5549369,55.47772,0.14762994470170526,0.01,0.01,0.23796750842762987,0.03278977946633781,0.6503729908123956
255,Sedbergh,-2.5281740000000004,54.32363,0.13537573428880795,0.01,0.051365190498628636,0.20700460033040546,0.013866107611559412,0.6857200302803937
256,Sedbergh,-2.5281740000000004,54.32363,0.13537573428880795,0.01,0.051365190498628636,0.20700460033040546,0.013866107611559412,0.6857200302803937
257,Nantwich,-2.524102,53.067190000000004,0.2926677961599463,0.01,0.01,0.3400620872501228,0.09332080882669332,0.5194069199748854
258,Banff,-2.524038,57.666509999999995,0.18675258705959533,0.01,0.01,0.20906104288185534,0.0677927558756335,0.635507941165818
259,Dunbar,-2.516737,56.00209,0.13146591495144885,0.0693684787041482,0.015364102535277297,0.2385798611443283,0.035254274827939025,0.7332477944247585
260,Cinderford,-2.5009579,51.8253,0.22114441608201116,0.43460283250608067,0.5053553587868524,0.14043405317267926,0.01,0.6588948538396434
261,Banchory,-2.4909599,57.05386,0.23293087466616783,0.01,0.01,0.2401296434451902,0.0315879779944301,0.6190029829863983
262,Blackburn,-2.487529,53.748580000000004,0.44499838088198956,0.34438229244857077,0.019068909075691205,0.4995542591591078,0.04118143619156937,0.38065786438730764
263,Market Drayton,-2.483485,52.90355,0.43492487108210687,0.01,0.01,0.22546539394460974,0.10225907930525462,0.4106771129631772
264,Telford,-2.4672611,52.67759,0.5259891934926152,0.36046283851817174,0.059877931388371844,0.17830999232296396,0.01,0.49284560332534216
265,Montrose,-2.4661150000000003,56.70692,0.17750260994836006,0.01,0.01,0.2198997486937441,0.013444532960320676,0.6916099386080697
266,Turriff,-2.4623,57.53893000000001,0.17918737374217852,0.01,0.01,0.2301159568190425,0.06819462845884466,0.6365211017157603
267,Weymouth,-2.457621,50.61443,0.2718294183642045,0.23190361615988153,0.01,0.2708769901410246,0.020798378126964785,0.6090080047077554
268,Crewe,-2.4438209,53.10041,0.29325088793179566,0.01,0.01,0.3724678601802186,0.09248158214230075,0.5391141350322421
269,Fortuneswell,-2.4422189999999997,50.55919,0.25605102271220537,0.22514577118830006,0.01,0.2728417818159691,0.02019229781924998,0.5375529556082868
270,Dorchester,-2.4411810000000003,50.71116,0.2799190824201918,0.2513982066071358,0.01,0.2468539444560724,0.022546758613811228,0.6496500982627094
271,Alston,-2.438685,54.812169999999995,0.10317838386841625,0.2619970500630135,0.01,0.200244796381195,0.07049196263111518,0.6525620913271659
272,Kelso,-2.432207,55.600030000000004,0.14255730164260272,0.01,0.01,0.1332951151292187,0.06292829363833143,0.7262479003888543
273,Wincanton,-2.416007,51.055690000000006,0.3827775039802818,0.01,0.01,0.5355881484901202,0.01,0.326258557901754
274,Clitheroe,-2.3930830000000003,53.8711,0.471707874970807,0.2828633045755097,0.01,0.5659526167650282,0.0676499225155392,0.25912142373559294
275,Sark,-2.3666256000000003,49.43007,0.1859854047192601,0.1820163787853713,0.01,0.25568464949234626,0.016324219233688285,0.45853756143765745
276,Bath,-2.3590167,51.38106,0.33376596930795766,0.13666694451023753,0.01,0.5962188999135662,0.029961640708878943,0.4405169457006018
277,Kidderminster,-2.2496839,52.3886,0.707532475851266,0.2612414796422341,0.34716698027723847,0.14423752113676852,0.01,0.3142305703118469
278,Manchester,-2.2426305,53.48076,0.28623431930030047,0.064385172536697,0.014260373170706102,1.0,0.091962876360666,0.3205892105874953
279,Burnley,-2.2405035,53.78929,0.47117143379772825,0.2745649577183966,0.01,0.553065032329135,0.08208159605389556,0.30632021082059924
280,Gloucester,-2.238156,51.86424,0.2846133575382315,0.22814903857387647,0.4042533804552307,0.13932028268709387,0.03410274529952075,0.6901872705052733
281,Newcastle-under-Lyme,-2.2273002,53.01321,0.40336848459827873,0.01,0.01,0.2935800812525779,0.1079669600480504,0.4741725640827303
282,Worcester,-2.221575,52.19364,0.32200108145501805,0.01,1.0,0.13681119760764882,0.01,0.6186044795312036
283,Trowbridge,-2.208853,51.31966,0.20444323046149987,0.11700624973419291,0.01,0.35975193812032996,0.01,0.6804466772966715
284,Shaftesbury,-2.198083,51.0046,0.2078370048064585,0.01,0.01,0.2762627216369207,0.01,0.6242452427090353
285,Alderney,-2.1973557,49.715,0.19521262775010237,0.17830409719520568,0.01,0.2519185523233464,0.015991282044008247,0.45355703336622955
286,Stoke-on-Trent,-2.179404,53.002669999999995,0.4085584569461771,0.01,0.01,0.2882924509953677,0.10895992993564255,0.5252835508795899
287,Colne,-2.176991,53.85564,0.24096173235286805,0.01,0.01,0.5693310475443226,0.11669588224066364,0.42092567879435316
288,Blandford Forum,-2.165353,50.85691,0.17761280940252827,0.25741187693618023,0.01,0.235465461262878,0.01,0.6434648063891749
289,Rochdale,-2.1561,53.60971,0.2503195610911137,0.1079985174783592,0.014352054366989223,0.9221750547840577,0.07748716303892841,0.30598217268922473
290,Jersey,-2.13125,49.21444,0.20246755616286977,0.17456038254117157,0.01,0.2547153285802599,0.01565552407602662,0.44647456479527164
291,Wolverhampton,-2.12882,52.586969999999994,1.0,0.16292199254953618,0.19846659797344984,0.11055190089810325,0.01,0.16443129206436877
292,Stafford,-2.12066,52.80669,0.611627343468647,0.01,0.020227856508285406,0.11265293080958629,0.09646952301987594,0.4556981867097129
293,Macclesfield,-2.119287,53.25866,0.04917805048412267,0.01,0.01,0.6097850737688345,0.07442677980847551,0.6228679094304996
294,Hexham,-2.1121439,54.97266,0.14677224168185565,0.06093467825767571,0.01,0.3287826851021747,0.025503118171029262,0.6978706413752448
295,Aberdeen,-2.094278,57.149719999999995,0.24304701495161632,0.01,0.01,0.27095369943963926,0.03066359868274848,0.7075042435486781
296,Dudley,-2.081112,52.51226,0.9503549614187177,0.1720916403994031,0.20963677636113104,0.16150807818221438,0.01,0.167953084912815
297,Cheltenham,-2.0782533,51.899390000000004,0.25192576982522863,0.21930955319490847,0.3400169988841087,0.1450214705437317,0.03278145810502886,0.7111978118193185
298,Bromsgrove,-2.061906,52.33559,0.5898323354405024,0.01,0.8098309722954782,0.17287270567607582,0.01,0.367238953932249
299,Skipton,-2.0162787,53.96285,0.1461317045080773,0.01,0.01,0.46263820490520835,0.1850893764197076,0.5297868664100296
300,Fraserburgh,-2.007631,57.69335,0.20303724506769785,0.01,0.01,0.25596527114558465,0.07297641165906565,0.6078648737811917
301,Berwick,-2.005395,55.77024,0.1690217614992138,0.01,0.01,0.08836156587910926,0.04754295552301699,0.7551141018399893
302,Poole,-1.987248,50.71505,0.21986409178890048,0.2438888109908545,0.01,0.23767663361401936,0.02187327515515043,0.7011742897608295
303,Walsall,-1.9829189999999999,52.586209999999994,0.8407785467322935,0.15230303987235735,0.269863149920097,0.23037066402893286,0.01,0.2128034965109643
304,Cirencester,-1.968243,51.71849,0.3345844133424924,0.3439590783849156,0.2666366503405009,0.13952968452257847,0.010282706772070908,0.6495661750307382
305,Evesham,-1.9467700000000001,52.09215,0.2569813785852583,0.01,0.684101388966088,0.15194071791194896,0.03297752848497103,0.610361532801786
306,Buxton,-1.91483,53.259080000000004,0.08494980209394522,0.01,0.01,0.5369242928988617,0.07235787287200211,0.6059231948520472
307,Keighley,-1.9123580000000002,53.8678,0.1636204520593063,0.01,0.050020187764352485,0.55490194938255,0.1654120259620982,0.4975928286077842
308,Birmingham,-1.8904009999999998,52.48624,0.5385794334621176,0.07389546005438306,0.4746360674502292,0.2881828412618943,0.017672923277373142,0.48046092130156554
309,Bournemouth,-1.880769,50.719159999999995,0.20354914730878726,0.26713224854654605,0.01,0.22822348707043374,0.01,0.7545049585070432
310,Halifax,-1.8575400000000002,53.727019999999996,0.20652560036758472,0.08555706330563206,0.037899274073782886,0.6849711358705822,0.24810087872174014,0.35753405001190147
311,Salisbury,-1.794472,51.06878,0.17693015258039618,0.01,0.01,0.1724734519035446,0.028722634014728257,0.7637024040787708
312,Ringwood,-1.7888169999999999,50.84495,0.25865381697953654,0.318178390321066,0.01,0.2646039406585503,0.023779975105384106,0.6193009163570655
313,Huddersfield,-1.7850351000000002,53.645790000000005,0.1259301526326634,0.1381075538125002,0.01,0.8074385684627825,0.2724971996696096,0.3948455997587761
314,Peterhead,-1.784066,57.50812,0.24456688144744018,0.01,0.01,0.2540430914092634,0.02971761481707634,0.6181126823385796
315,Swindon,-1.7797176,51.55577,0.41455584442539406,0.27427254569772574,0.12149470749340205,0.1670799963834349,0.01,0.5992331434147222
316,Bradford,-1.759398,53.79598000000001,0.20947054703076898,0.01,0.037790443539511345,0.6595540210435464,0.2167836872295286,0.44367733532029996
317,Ashbourne,-1.7321790000000001,53.016630000000006,0.5834763102169052,0.01,0.015483757152535029,0.231690359139551,0.17137437362084254,0.3696896637976634
318,Marlborough,-1.7270619999999999,51.42007,0.424207129159788,0.31835533788672554,0.07051104688060583,0.1750832104009228,0.01,0.5238420232878495
319,Stratford-upon-Avon,-1.7082979999999999,52.19173,0.15003185345696118,0.01,0.5558119030152399,0.28684937377812614,0.01,0.6715375519879048
320,Alnwick,-1.7062990000000002,55.41274,0.1887341364442292,0.01,0.01,0.35607478210200855,0.01,0.6063322890931988
321,Otley,-1.691786,53.90583,0.1751990591201751,0.01,0.04713006452949094,0.6409080562537404,0.1516137174104186,0.40926838859903103
322,Bishop Auckland,-1.6787880000000002,54.663819999999994,0.24526554277850116,0.5118603004125485,0.01,0.3837288640105447,0.015302138955324132,0.5584796553395707
323,Burton upon Trent,-1.6371358999999999,52.81403,0.7046063660620508,0.01,0.3028544141173198,0.19159566083930168,0.1187408398100054,0.2798155279590746
324,Newcastle,-1.61778,54.97825,0.12204463118657681,0.06120991888971281,0.01,0.47211794620552056,0.02561831337486863,0.7288721972284771
325,Durham,-1.5848520000000001,54.77525,0.17129520880124852,0.32804012892817264,0.01,0.5590602651360677,0.01,0.5866726567530165
326,Ashington,-1.5659829,55.18298000000001,0.160771102620184,0.05502180063133602,0.01,0.38613714835020885,0.02302838930587511,0.6215267641944406
327,Darlington,-1.559458,54.52361,0.20770757652750688,0.5354530473637954,0.01,0.2619326362754496,0.010671631729997038,0.6864947269123604
328,Leeds,-1.5490774,53.80076,0.20977506599632484,0.02346926397484843,0.04158480109706683,0.7303937356876501,0.1641784534487465,0.4650714487477593
329,Harrogate,-1.5418120000000002,53.99211999999999,0.1682928106474525,0.01,0.03966307772274304,0.6729826588137331,0.14186914604174616,0.4787303872845701
330,Leamington Spa,-1.5200789,52.28519,0.576787117058944,0.01,0.20570457476102175,0.2881182761668256,0.010411921049966957,0.39972130970463077
331,Coventry,-1.519693,52.40682,0.6509026280023366,0.01,0.16962048394581133,0.28244617708591413,0.010566760131810893,0.368181895378155
332,Blyth,-1.510277,55.12696,0.168802377793908,0.05438904385765512,0.01,0.4016171827165354,0.02276355669452443,0.613989548886879
333,Wakefield,-1.505924,53.6833,0.16254120187345353,0.15263209233686273,0.01,0.7826891672798001,0.3194071073059528,0.34809236640002494
334,Andover,-1.4919233,51.2112,0.16219435208890298,0.01,0.05079475842134329,0.1666099703128665,0.01371211864564805,0.7607718027672378
335,Witney,-1.4850543999999999,51.785940000000004,0.18647007180553696,0.01,0.21913157757440221,0.14024402548139048,0.01,0.7435038611154721
336,Barnsley,-1.479726,53.55263000000001,0.18824812505346086,0.10608579257321055,0.01,0.7259645156890238,0.4799461388449283,0.29791748290832615
337,Derby,-1.4746186000000001,52.92253,0.6571534122035144,0.01,0.06505697769567836,0.30414129603936285,0.2129419835228015,0.28290479538099256
338,Sheffield,-1.470085,53.381130000000006,0.2005459151719428,0.01,0.010732500900788044,0.8306391653301921,0.3167664744656608,0.35488424897822507
339,Nuneaton,-1.465382,52.52049,0.9264723119382882,0.01,0.2694369809652953,0.2703527210049992,0.014546981061524283,0.11865338832085812
340,Northallerton,-1.429959,54.337959999999995,0.19187587949605553,0.5255826407832277,0.01,0.231059436951577,0.010474913559147607,0.662368549644006
341,South Shields,-1.427406,54.99941999999999,0.11954951361755277,0.04648084850444107,0.020589655004390868,0.44547730547821823,0.0268646675519987,0.6685637517374585
342,Chesterfield,-1.421629,53.23505,0.2472179286332309,0.01,0.010512551511793167,0.7699977393342976,0.26486868098187905,0.30473856950582195
343,Southampton,-1.4043508999999998,50.9097,0.4377219887142263,0.12420000747653073,0.013754243463760658,0.36222138052615,0.02970382177440896,0.5237096500989377
344,Wetherby,-1.384816,53.92706,0.15856490014387467,0.01,0.036578728113181996,0.6445932728542878,0.14564858820185447,0.41347398135993957
345,Sunderland,-1.383801,54.90687,0.11487005726592733,0.046908176757167706,0.020778948908877784,0.43343682311079634,0.027111652595460115,0.6959332357633758
346,Rotherham,-1.3635008999999998,53.4326,0.19895329126327552,0.01,0.010149359552206508,0.8464987063296346,0.3616581761010154,0.26966471042135465
347,Castleford,-1.345968,53.72346999999999,0.14633528391023348,0.18995206704940626,0.01,0.7442379593171817,0.27825359894855867,0.36997712085965484
348,Thirsk,-1.341377,54.23385,0.03743766922691219,0.41479240053613625,0.01,0.394010990247346,0.024800559627307314,0.6755858146531581
349,Banbury,-1.339775,52.0629,0.13295389872500654,0.01,0.21691585175677877,0.18117394646495535,0.01463918758674963,0.7647176870212027
350,Stockton,-1.3289821000000002,54.57046,0.19297246752112174,0.44883917775103616,0.01,0.23133834730682767,0.013418113682468962,0.7182593347448223
351,Newbury,-1.3231138999999998,51.40141,0.32689384561555146,0.01,0.12231218221419407,0.30718213073229045,0.013207340702781156,0.5830403782498661
352,Isle of Wight,-1.304734,50.69385,0.5256078415012836,0.12992109130443708,0.014387808196959968,0.4343691662209975,0.03884010039262778,0.34411808136120664
353,Isle of Wight,-1.304734,50.69385,0.5256078415012836,0.12992109130443708,0.014387808196959968,0.4343691662209975,0.03884010039262778,0.34411808136120664
354,Abingdon,-1.2879528999999998,51.67078,0.19644836996483897,0.01,0.22542539003359738,0.13421555166641322,0.01,0.7498056756260842
355,Shetland Islands,-1.2659409,60.52965,0.1670794525111816,0.01,0.01,0.20806853376015388,0.06703179252490282,0.5998134137427855
356,Rugby,-1.265032,52.37088,0.6871776585468538,0.01,0.1330479869021826,0.28629418598278145,0.010774948970051289,0.3030319121122606
357,Oxford,-1.2577263,51.75202,0.1908961237246242,0.01,0.22192330027519255,0.15886581452958537,0.01,0.8168442358349981
358,Middlesbrough,-1.234956,54.57423000000001,0.19751849446744607,0.4546044971160727,0.01,0.2408884429102578,0.013590468295702296,0.739315098653194
359,Hartlepool,-1.212926,54.69174,0.14801508658538626,0.35489250408870743,0.01,0.2890325179530144,0.012967244653892812,0.7163947041914434
360,Loughborough,-1.206166,52.7721,0.6803252081699556,0.01,0.08880088134253862,0.45941972676107456,0.011985962842155959,0.23315796294636126
361,Mansfield,-1.198674,53.1472,0.4308096967224724,0.01,0.01,0.5458997517499826,0.25422660402027253,0.27692764377141493
362,Nottingham,-1.1581086,52.95478000000001,0.40163428114219013,0.01,0.01,0.48991278689768675,0.15525533506228886,0.4463500477833062
363,Bicester,-1.1535898999999998,51.8996,0.15245128029579622,0.01,0.346418072254121,0.2018212474728314,0.01,0.7013539264740666
364,Leicester,-1.1397591999999999,52.636880000000005,0.772538573449721,0.01,0.11665135159469277,0.504257994591342,0.01049673411321376,0.16685113179321232
365,Doncaster,-1.128462,53.522819999999996,0.282760074428945,0.01,0.01,0.5869662975242733,0.3732632719209989,0.35097022705746633
366,Worksop,-1.122745,53.3093,0.3413497361659693,0.01,0.01,0.5452078294711555,0.3604540619598824,0.27745108517299316
367,Basingstoke,-1.0923964,51.26654,0.24612345677015202,0.01,0.10851197628321177,0.3297153466531683,0.011717186465616767,0.6246236572066287
368,Portsmouth,-1.0879769,50.81977,0.5974025439915465,0.01,0.021815736612682626,0.4721640645500851,0.04711351492053895,0.3120204846528414
369,York,-1.0872979,53.95997,0.057055388357715384,0.23188380852781873,0.05135886899994779,0.5679348299167236,0.14557621308650395,0.6384034312616562
370,Selby,-1.067189,53.783519999999996,0.0753294685322975,0.21172276746761692,0.01,0.5935471114039694,0.2120376832080429,0.49945070757300464
371,Helmsley,-1.0562636,54.24651,0.0662372274127172,0.4881704483155537,0.054061305565996004,0.4754804614037379,0.0948605283868531,0.5045645261952283
372,Towcester,-0.9896879999999999,52.13511,0.3092291198046916,0.01,0.3446626581595435,0.25483543280348603,0.01,0.5565047450015255
373,Reading,-0.9781303,51.45426,0.2778849070707428,0.01,0.14158890401728258,0.40692083931388934,0.015288851744507646,0.5954704953037127
374,Retford,-0.9455030000000001,53.32136,0.25539901661476805,0.01,0.01,0.5817475057938994,0.20684380206146383,0.3498792654032987
375,Petersfield,-0.93899,51.00759,0.4578782456054526,0.01,0.02093899002586695,0.385563048703534,0.02261004280584081,0.3796139031163488
376,Northampton,-0.9026559999999999,52.24048,0.4017628506521493,0.01,0.22582963439233064,0.22302413211092129,0.01,0.593220287733369
377,Melton Mowbray,-0.887126,52.7664,0.6298550502287851,0.01,0.09804297067403525,0.43543423341097054,0.01764456134236709,0.21825980326467376
378,Aylesbury,-0.8084,51.81561,0.21300093545589327,0.01,0.08411304222512367,0.2572884439813602,0.022706437642051467,0.7045226515854508
379,Newark-on-Trent,-0.80657,53.070040000000006,0.3895262978265102,0.12712387663657645,0.01,0.44099137322659193,0.10261045093512428,0.4228329316255453
380,Malton,-0.7978970000000001,54.13684,0.07018023599283967,0.20326531061659026,0.04502029066397169,0.5000649880595294,0.1519161597274362,0.5525416858179811
381,Chichester,-0.774936,50.83761,0.513680435080666,0.01,0.017703732763823133,0.3797375913377942,0.028674888980540242,0.37115933833971876
382,Gainsborough,-0.774465,53.400580000000005,0.2717552977857879,0.20259459331093768,0.01,0.5923199518373676,0.13728281975772802,0.3490890629974833
383,Milton Keynes,-0.7594171,52.040620000000004,0.24373858152820377,0.01,0.19420854514237756,0.38225037691392594,0.01,0.6285266350575164
384,Aldershot,-0.7557509,51.24837,0.07024156004255751,0.01,0.01,0.4642898478775255,0.01390545016085604,0.7147705329028842
385,High Wycombe,-0.748229,51.628609999999995,0.12335741791391774,0.01,0.01,0.2556801278411828,0.02580258035564306,0.772968279310473
386,Midhurst,-0.737274,50.9869,0.21356310873721554,0.01,0.01,0.2257335835801439,0.020495794571714326,0.6605680843120164
387,Kettering,-0.7302489999999999,52.39632,0.47992554966666506,0.01,0.282390507536081,0.18833488105908222,0.01,0.4954290577157161
388,Wellingborough,-0.693964,52.30242,0.4494804634426745,0.01,0.24986265053129242,0.2320716191315958,0.01,0.4821661375783781
389,Corby,-0.6842333,52.4923,0.5386591849307143,0.01,0.01,0.1457397653702712,0.01,0.49469150209213625
390,Bognor Regis,-0.673061,50.783,0.5137575837893226,0.01,0.01,0.407688559980194,0.030187545457104184,0.3488486926913225
391,Scunthorpe,-0.654413,53.58865,0.2472081704322851,0.01,0.01,0.45417581210181773,0.135535031344669,0.5068861667344854
392,Grantham,-0.643582,52.912519999999994,0.346886187495653,0.01,0.07995993215150408,0.1470144105928352,0.02158529955915079,0.6188301231971501
393,Whitby,-0.613347,54.48633,0.15314610412014107,0.30310409061580634,0.01,0.25805108438803015,0.03171469454777035,0.6781806123001878
394,Slough,-0.5950406,51.51054,0.21336145774971554,0.01,0.01,0.36155489509088756,0.010536310880245954,0.665184447887618
395,Guildford,-0.570409,51.23622,0.08697213301416097,0.01,0.01,0.41424029409448043,0.014112926595655908,0.7270559837838213
396,Woking,-0.5600349,51.31677,0.1266152481073629,0.01,0.01,0.4440907422546088,0.01,0.7121523833659238
397,Lincoln,-0.540579,53.23069,0.28211683793085107,0.2730972404365166,0.01,0.4072123458583777,0.04082140990065412,0.5760328391977018
398,Bedford,-0.46677820000000003,52.13864,0.3478416699165376,0.2793019315066333,0.0927919336159299,0.34673995961363197,0.01,0.5515107035655848
399,Heathrow,-0.4542955,51.47002,0.2925167735350031,0.01,0.08924904100148705,0.2738738287398002,0.03613936146714106,0.6661362446806554
400,Driffield,-0.443377,54.006,0.1904204721920531,0.01,0.03293079760285828,0.3910355115611931,0.17483109423575935,0.5005586560195426
401,Beverley,-0.435093,53.84196,0.21403837814655555,0.01,0.01,0.43360270497106884,0.17223032069308522,0.5323803934321476
402,Luton,-0.4200255,51.87867,0.35126724900668044,0.01,0.03865003691179431,0.3211551977158741,0.010433633474482912,0.5800694112378493
403,Scarborough,-0.399752,54.28311,0.14542453109433728,0.01,0.0782253088739857,0.38517567311262674,0.08446814014554965,0.6324286395067985
404,Worthing,-0.372882,50.81787,0.170334110146983,0.12330139117930783,0.027309453114876172,0.6068460132804337,0.01,0.5579191609925507
405,Dorking,-0.332378,51.2322,0.2295811179213563,0.01,0.01,0.4504879036098507,0.01,0.59445020298913
406,Hull,-0.3274198,53.767619999999994,0.2157436070907958,0.01,0.01,0.39310121444413687,0.15710533216722888,0.6158866615346515
407,Horsham,-0.325858,51.06288,0.17399292085296764,0.01,0.01,0.24548089550022914,0.018773367850320244,0.7125423268546154
408,Biggleswade,-0.26421999999999995,52.086940000000006,0.33794611668865443,0.01,0.11495455200531868,0.26031408367198206,0.01,0.5442390681149644
409,Peterborough,-0.2405299,52.5695,0.5799816137390351,0.01,0.4022820336354093,0.12553280172960438,0.032578985293269316,0.4628470670623389
410,Welwyn Garden City,-0.208661,51.80317,0.3231736383857232,0.01,0.01,0.3950210940979051,0.013998229216666958,0.5980800115915433
411,Bridlington,-0.198802,54.08535,0.19195250553301885,0.01,0.03307438669955309,0.3880010078475759,0.17559340415505853,0.5251727172450827
412,Stevenage,-0.19661199999999998,51.90376,0.40478816262449147,0.01,0.04667781861033383,0.27054870605397635,0.012600744777555526,0.54446756521437
413,Crawley,-0.18722750000000002,51.109140000000004,0.21471431000309305,0.01,0.01,0.299219361835435,0.01,0.6834412136578936
414,Huntingdon,-0.182552,52.33146,0.2261295886455368,0.6197538992214919,0.21962626491237527,0.13094624310125247,0.01,0.6853022386880243
415,Hove,-0.168749,50.82793,0.15290445254319612,0.12060264215436006,0.026711719713324762,0.6163198165614833,0.01,0.5354626294969711
416,Spalding,-0.1537024,52.7901,0.5391641659878857,0.01,0.30009503650570524,0.11857779633576969,0.04860665453786775,0.44292404609030334
417,Brighton,-0.137163,50.82253,0.1630189572184527,0.13560664677807957,0.030034887091144394,0.6824685155002421,0.01,0.5703747055449169
418,London,-0.12775830000000002,51.50735,0.23062413391794218,0.12085549284544071,0.01,0.751828793398142,0.01,0.5850954321116074
419,Grimsby,-0.08078400000000001,53.56746999999999,0.21620865074490705,0.01,0.01,0.3864696690086005,0.15491998327653522,0.5735945794760274
420,Boston,-0.026576999999999996,52.97894,0.46621607368448065,0.01,0.07724818152273691,0.1384162507659989,0.052133145910321206,0.5459790387287831
421,Royston,-0.024066,52.048140000000004,0.2620333046018777,0.28308081264804275,0.1253965118607702,0.2302093020055026,0.01,0.5964782389279017
422,Louth_Lincs,-0.007711,53.36596,0.2898815631441786,0.21389906323476052,0.01,0.33766616270980127,0.057550896463705675,0.518650847991097
423,Lewes,0.00878,50.873870000000004,0.1380362170445724,0.1343804235527336,0.029763296597633583,0.6880644894973401,0.01,0.4964566266443271
424,Chatteris,0.054012,52.4561,0.49901655213717117,0.3804052243877941,0.33701674694552985,0.11676357097676102,0.034116809933106625,0.40352455271289217
425,Uckfield,0.095913,50.966409999999996,0.12326026523660806,0.13728706274789082,0.030407074628544625,0.6850185829176435,0.01,0.5164050223612178
426,Cambridge,0.12181700000000001,52.20534,0.19089390345053248,0.36249514660423504,0.16057473668180056,0.21212239650872883,0.01,0.7856905018744725
427,Bishop's Stortford,0.15365020000000001,51.87216,0.3511148861212961,0.01,0.01,0.40565886875116447,0.01,0.5083763966058773
428,Wisbech,0.158797,52.66631999999999,0.5586968195245621,0.33842991778699805,0.29982908317249307,0.11935039294200132,0.07082188378932991,0.3766248729034245
429,Sevenoaks,0.190898,51.27241,0.2571992133694267,0.01,0.01,0.3904508889219332,0.01,0.6153022325759612
430,Tunbridge Wells,0.26369499999999996,51.13238,0.20468458223529548,0.2087754667505435,0.046240709583471255,0.2567569763249555,0.01,0.7056073695814289
431,Eastbourne,0.29047199999999995,50.768029999999996,0.15252506849926228,0.12111151227795572,0.026824426996259528,0.6301401036677788,0.01,0.531335389374443
432,Brentwood,0.30717490000000003,51.620470000000005,0.9544248986739485,0.01,0.01,0.368712097322568,0.010746217641465855,0.12711322190205215
433,Skegness,0.337881,53.1464,0.35236636453294584,0.01,0.01,0.14257882647186132,0.07066634682555122,0.572136617836001
434,Downham Market,0.385472,52.606609999999996,0.4391264713472795,0.8074268417216658,0.08941661268697358,0.05647844140280097,0.07241443252187334,0.49266690011739894
435,King's Lynn,0.4022963,52.75168000000001,0.4134044774089601,0.37574052111017003,0.08322102489253465,0.11816870092573686,0.06739690971893747,0.5564965602941001
436,Bexhill,0.4662071,50.849909999999994,0.14744158071216545,0.2181406390279021,0.01,0.4219050169776398,0.01304269296727169,0.6022981429914027
437,Chelmsford,0.4685497,51.73559,0.8500435225989007,0.01,0.01615263251430801,0.2781230459812989,0.02180213186132273,0.1771511449137172
438,Mildenhall,0.5156095,52.347570000000005,0.27199934225136935,0.5875792763653299,0.14873166345046668,0.15968702878004928,0.01003758247406619,0.6483548847455104
439,Medway,0.5417860999999999,51.404740000000004,0.47884477214661025,0.29705635043415546,0.043862424225734345,0.21647580982480555,0.01,0.4954544428251765
440,Braintree,0.5509269,51.88009,0.31706015854064634,0.01,0.01,0.48918430316047146,0.042475699051977386,0.4487732533914162
441,Gillingham,0.551438,51.38632,0.48100193132061925,0.3203774130810511,0.04730593795641658,0.22971007448611488,0.01,0.5473930984567814
442,Hastings,0.573453,50.85426,0.15692150531045604,0.01,0.01,0.3107914286267011,0.015529711788273282,0.6990246488425935
443,Maldon,0.6714479999999999,51.731809999999996,0.4047827285827641,0.01,0.0351615742498306,0.3498815358079456,0.01898383493902019,0.4668750374951802
444,Southend,0.7077123000000001,51.54593,0.9075530131436503,0.06697388531334837,0.01483373515410038,0.21944151315452473,0.02002194334584941,0.18562457513844222
445,Bury St Edmunds,0.7104931999999999,52.24292,0.38354511224324783,0.28672416994830585,0.06350520623662766,0.18153922147889826,0.01,0.6198642769089568
446,Thetford,0.751657,52.412859999999995,0.29428960478717836,0.6552602991148019,0.04837685459334457,0.12010876917614531,0.013059402003346746,0.6346783883466446
447,Ashford,0.8750190000000001,51.14647,0.3375516954394929,0.18049959565884893,0.039978018072246,0.29558028443411205,0.026980308873976358,0.5464375152858173
448,Faversham,0.889358,51.31599,0.35404589871638326,0.26701454132325847,0.03942654023275161,0.2427726848734361,0.01,0.5613436109662423
449,Colchester,0.891874,51.89593,0.424797368184303,0.01,0.01,0.3690326743949271,0.071303807872121,0.4692718654805951
450,New Romney,0.939473,50.98512,0.2732242181282249,0.01,0.01,0.31179568251461365,0.05977100082944186,0.5198151199327729
451,Canterbury,1.0789089,51.280229999999996,0.32965905547863206,0.01,0.01,0.3202409581023901,0.048621123211684034,0.5728771460483701
452,Ipswich,1.14822,52.056740000000005,0.4105884602662435,0.01,0.01,0.2589763943013623,0.059251131895094046,0.5500546570990541
453,Clacton,1.153035,51.78953,0.49352610026049015,0.01,0.01,0.29888096398960023,0.0787308345386676,0.37718301290299255
454,Folkestone,1.169456,51.0814,0.2826028681072594,0.01,0.01,0.31332568873900835,0.04820352862800871,0.5747960352083852
455,Sheringham,1.2109589,52.944419999999994,0.2082729098689862,0.4536629046766002,0.01,0.2739482216046747,0.09687370919088842,0.5498643758807918
456,Harwich,1.260297,51.93473,0.39237741091368183,0.01,0.01,0.2657764572165842,0.057363179076320096,0.4522723254574435
457,Norwich,1.297355,52.63089,0.30204601139909737,0.42666274279779,0.01,0.26178290956834366,0.09110818331613192,0.6433546172518682
458,Cromer,1.301866,52.93145,0.22657787314075292,0.44128740584115655,0.01,0.2614245143925641,0.09423108392854133,0.5840221738444157
459,Cromer,1.301866,52.93145,0.22657787314075292,0.44128740584115655,0.01,0.2614245143925641,0.09423108392854133,0.5840221738444157
460,Dover,1.3134027,51.12788,0.3005519767633054,0.01,0.01,0.31314100586321075,0.04733050164098533,0.5468629484685812
461,Felixstowe,1.3512549999999999,51.961729999999996,0.39875113394643913,0.01,0.01,0.27830760831591206,0.05767228602576077,0.47406602026726696
462,Margate,1.3868339,51.38965,0.36858725790295016,0.01,0.01,0.29098211195846707,0.04541913144430424,0.5205957516059366
463,Ramsgate,1.4198950000000001,51.33555,0.3588209666757569,0.01,0.01,0.2755758276615779,0.045814117128306284,0.5348777113187645
464,Great Yarmouth,1.728047,52.59823000000001,0.29976858334813217,0.4935727848719566,0.01,0.2767945262008781,0.10539593589414334,0.5503676744391106
465,Lowestoft,1.7534490000000003,52.48114,0.30199446753567866,0.49595743776108575,0.01,0.28370431178839545,0.11861376430139103,0.546645112482114
466,Swaffham,0.687481,52.64747,0.33726868879439537,0.989943161828008,0.01,0.1675025803322462,0.03945932853933241,0.5268057933625708
467,Dereham,0.9378270000000001,52.681619999999995,0.24496754608825913,0.48093777633298507,0.01,0.26603370965750117,0.10269789823254818,0.640513733535881
468,Ely,0.262363,52.39954,0.23028188994068888,0.6226625674958272,0.15761216296525005,0.16923793660482622,0.010636907498170343,0.662272703144455
469,March,0.088622,52.551719999999996,0.516115819592023,0.34257817793205925,0.3035042053924634,0.12648531622533565,0.07168997506325707,0.39683954517216147
470,St Neots,-0.26510300000000003,52.23008,0.3258815388923496,0.5379552206948777,0.01,0.31564079628503217,0.01,0.5152361409650693
471,Banham,1.0402849,52.45125,0.2696273079934135,0.3839880489841162,0.01,0.2346405884795085,0.07215609740381299,0.5892229214450397
472,Holt,1.086747,52.90936,0.21984533578024512,0.44016789085325975,0.01,0.2556749108545666,0.09399202657646026,0.592580961179225
473,Hunstanton,0.49103199999999997,52.93891,0.3595104178873459,0.30410247592343675,0.01,0.08215626940610674,0.08182069238815408,0.5302280747336271
474,Horncastle,-0.11245,53.20731,0.28866504364038614,0.2171872807019513,0.01,0.3269325505075189,0.0584356103752695,0.4929610020220404
475,Market Weighton,-0.6677465,53.86484,0.18423210048088223,0.01,0.03506409715978935,0.39964170270207844,0.17195847335408668,0.49024468317299763
476,Hawes,-2.1968695,54.303830000000005,0.11442914679600912,0.01,0.08285079645748449,0.32376736787030047,0.01,0.4788735923814234
477,Reeth,-1.9428115000000001,54.38946,0.21930434025105355,0.7098082911008264,0.01,0.330675441631921,0.021219822799211675,0.5668715079196052
478,Aysgarth,-1.9967433999999997,54.29159,0.21284889728168468,0.42744690538987135,0.01,0.3527686127847271,0.025557176194470687,0.4860278580243382
479,Stanhope,-2.011302,54.74946,0.17055653530949147,0.35527204166227033,0.01,0.39616537098702037,0.021241819864037607,0.6222645624264329
480,Keswick,-3.134706,54.60128,0.1590857926289332,0.4832054170550908,0.01,0.12298174418125095,0.0650047374058723,0.6990701415614773
481,Oxenholme,-2.7243327999999996,54.30134,0.18220382545957947,0.01,0.04664460026064707,0.1666995714938466,0.025183554871837665,0.6449114670184747
