,Unnamed:_0,Unnamed:_0,Unnamed:_0.1,Unnamed:_0.1.1,placename,aint,arent,ent,innit,int,isnt,longitude,latitude
0,0,0,0,0,Dingle,0.05151747004424186,0.059304570346966436,0.01,0.08710967702174822,0.021704814081524595,0.9349814752392048,-10.264013499999999,52.14094
1,1,1,1,1,Tralee,0.06811780504271382,0.05788820228975845,0.01,0.06819071905337824,0.02118644091490113,0.9320461526108754,-9.6999325,52.27131
2,2,2,2,2,Killarney,0.08799952528116874,0.050882973614919016,0.01,0.061475010008322464,0.018622603998448117,0.9202179087611596,-9.5044265,52.05994000000001
3,3,3,3,3,Bantry,0.08712594699233883,0.05222693783870919,0.01,0.053052228291785485,0.019114478165073792,0.9256049454617568,-9.4539805,51.68035
4,4,4,4,4,Mayo,0.05789891705853429,0.01,0.01,0.1883894892603763,0.011722080332356492,0.8764211782806104,-9.4289369,54.01526
5,5,5,5,5,Ballycastle,0.0736040679752155,0.01,0.01,0.14537735691039666,0.011904761915674605,0.8878745977483153,-9.3724643,54.279669999999996
6,6,6,6,6,Abbeyfeale,0.06478177497023226,0.05546533378693178,0.01,0.06819193373320592,0.020299696998308355,0.9353022775483892,-9.2970823,52.386179999999996
7,7,7,7,7,Ennistymon,0.0587805377451464,0.06330150840718507,0.01,0.11539298536464238,0.015445099998712906,0.9148578830969738,-9.2934951,52.940369999999994
8,8,8,8,8,Galway,0.07438470222913529,0.01,0.01,0.2051078309641323,0.029928172080839317,0.8453644066322823,-9.0567905,53.270669999999996
9,9,9,9,9,Claremorris,0.05048617381403976,0.1834893472140709,0.01,0.17446625370109745,0.01119251099906729,0.8864848244227131,-9.0017356,53.72388
10,10,10,10,10,Clare,0.052915847392676366,0.06266796735089039,0.01,0.11130980715870917,0.02293578008142201,0.9192048098885554,-8.9811351,52.90453
11,11,11,11,11,Adare,0.06683941157470583,0.05300055281183397,0.01,0.07470677309307729,0.0193976154150502,0.9302049619643904,-8.7925892,52.56363
12,12,12,12,12,Charleville,0.09570892432277574,0.05183064031046908,0.01,0.06586428753082567,0.01896944224841921,0.9109523832429448,-8.681017599999999,52.36206
13,13,13,13,13,Mallow,0.09447491619604148,0.0531129455619651,0.01,0.05665643906251777,0.01943874991504677,0.9171108995452156,-8.6539164,52.13898
14,14,14,14,14,Limerick,0.05791339337454227,0.054185402924327414,0.01,0.08752803832660076,0.0198312537483474,0.93017758091378,-8.6267343,52.66384
15,15,15,15,15,Loughrea,0.06762887072997582,0.01,0.01,0.20770961122445986,0.02966985541419418,0.8497128134806529,-8.5660931,53.19891
16,16,16,16,16,Sligo,0.0850808739173737,0.2033528835705784,0.01,0.14644748983856395,0.01,0.8772851614316444,-8.476088800000001,54.27661
17,17,17,17,17,Cork,0.09159425972771484,0.05190822872722626,0.01,0.07302559228108048,0.01899783508175017,0.9102963480708756,-8.4756035,51.898509999999995
18,18,18,18,18,Nenagh,0.05583197735608563,0.01,0.01,0.09198604115514256,0.02267667233144361,0.92955484701948,-8.19834,52.8635
19,19,19,19,19,Roscommon,0.06251634019603453,0.19294416378065707,0.01,0.2035942759683523,0.011769237332352562,0.8589213568124605,-8.1890955,53.62759000000001
20,20,20,20,20,Tipperary,0.09061821694389753,0.053269835562148135,0.01,0.059954294794611035,0.01949617174837532,0.918457751223914,-8.161851400000002,52.47379
21,21,21,21,21,Donegal,0.12964258280083238,0.3182165760656971,0.01,0.08307553352254207,0.01,0.8732064949332103,-8.1096143,54.653830000000006
22,22,22,22,22,Leitrim,0.1337605947722675,0.44892540719041296,0.05114202209713825,0.16576352024954374,0.01,0.8130987986009025,-8.0020132,54.12469
23,23,23,23,23,Athlone,0.08083679192664985,0.17487037564845986,0.01,0.20609018729212192,0.021333540248222205,0.8384677120061094,-7.9406898,53.42393000000001
24,24,24,24,24,Longford,0.09699666436117928,0.38123828227811135,0.04343103852946414,0.21383364333241145,0.01162741524903105,0.8143749775678891,-7.7932573000000005,53.72763000000001
25,25,25,25,25,Offaly,0.12510671392408584,0.159355742935915,0.01,0.17766527285352968,0.029161217247569895,0.8144615608900915,-7.7122229,53.23569000000001
26,26,26,26,26,Fermanagh,0.1500878794979283,0.27224235092872723,0.01,0.10697755565758864,0.01,0.8431025098433022,-7.6318728,54.343830000000004
27,27,27,27,27,Enniskillen,0.1500878794979283,0.27224235092872723,0.01,0.10697755565758864,0.01,0.8431025098433022,-7.631533599999999,54.343819999999994
28,28,28,28,28,Doon,0.11933974957277475,0.7190324311166489,0.0546085847421247,0.17898863456050518,0.01,0.8106933363033134,-7.60964,54.185930000000006
29,29,29,29,29,Westmeath,0.14557200793458613,0.2263674143196509,0.01,0.2133090934384146,0.01,0.7865336292953563,-7.4653217000000005,53.534530000000004
30,30,30,30,30,Strabane,0.09958735978514187,0.3585868677239069,0.01,0.031577328243952686,0.01,0.927599692000182,-7.4633103,54.82739
31,31,31,31,31,Balivanich,0.14252637363067305,0.01,0.01,0.17599815675532673,0.07072438907743964,0.787746165820382,-7.3743509000000005,57.472269999999995
32,32,32,32,32,Cavan,0.11012933479806407,0.8150045238119498,0.06189740794336215,0.18992446097943344,0.01,0.8090526933518438,-7.3633319,53.98972
33,33,33,33,33,Mullingar,0.14514250042059565,0.2084682038821018,0.01,0.23538698612490405,0.01,0.7745618199370308,-7.3401868000000015,53.525819999999996
34,34,34,34,34,Laois,0.17079522794546298,0.01,0.01,0.1797368773343429,0.040007758996666025,0.7739202153186614,-7.3323006999999985,52.9943
35,35,35,35,35,Omagh,0.1182376802420892,0.3693841307087259,0.01,0.07669501217940282,0.01,0.8853466607513731,-7.309959700000001,54.59771
36,36,36,36,36,Derry,0.0993346546050987,0.3887332061201888,0.01,0.021620853418703567,0.01,0.9328350228798276,-7.308574799999999,54.99661
37,37,37,37,37,Derry,0.0993346546050987,0.3887332061201888,0.01,0.021620853418703567,0.01,0.9328350228798276,-7.308574799999999,54.99661
38,38,38,38,38,Kilkenny,0.15709106906941628,0.01,0.01,0.08860533147269954,0.028792293747600638,0.8428564504020021,-7.2447879,52.65415
39,39,39,39,39,Tyrone,0.09216526997025183,0.4039725149157457,0.01,0.03393866582892114,0.01,0.9314330390857098,-7.1312320000000025,54.491209999999995
40,40,40,40,40,Waterford,0.12372833388905576,0.01,0.01,0.06671021613501404,0.022200694081483282,0.8865862083128125,-7.110070200000001,52.25932
41,41,41,41,41,Western Isles,0.15250507649189735,0.01,0.01,0.2296165537078357,0.06806930716099423,0.7492917003225412,-7.0194034,57.75989000000001
42,42,42,42,42,Monaghan,0.09532649744012647,0.9996304519162356,0.07591925346176481,0.11849495799189635,0.01,0.8569325305011951,-6.9683132,54.2492
43,43,43,43,43,Carlow,0.16070484443611704,0.01,0.01,0.09655521915317378,0.010827410915764382,0.8424309340749405,-6.934135899999999,52.83651
44,44,44,44,44,Kildare,0.06150343279968036,0.07089020558270523,0.01,0.1091137299608195,0.01,0.9222222756687176,-6.8194707999999995,53.21204
45,45,45,45,45,Dungannon,0.034180668771021626,0.4588634419520074,0.01,0.05390544497493984,0.01,0.9678786975056232,-6.7669352,54.508269999999996
46,46,46,46,46,Cookstown,0.04624287432688391,0.5034431494206837,0.01,0.023316418597080564,0.01,0.9742185207646415,-6.7443895000000005,54.641819999999996
47,47,47,47,47,Coleraine,0.08045240878508061,0.01,0.01,0.01,0.01,0.9709916269487262,-6.6646103000000005,55.132580000000004
48,48,48,48,48,Meath,0.05753883499999346,0.2118245829137953,0.016087509307902332,0.13244715407548732,0.01,0.9068833371136452,-6.656416900000001,53.60555
49,49,49,49,49,Armagh,0.052130952841553016,0.41685930023633583,0.01,0.08425607445399179,0.01,0.9360682069371004,-6.652792,54.35028000000001
50,50,50,50,50,Armagh,0.052130952841553016,0.41685930023633583,0.01,0.08425607445399179,0.01,0.9360682069371004,-6.652792,54.35028000000001
51,51,51,51,51,Magherafelt,0.02326261384883509,0.5204425265794052,0.01,0.01184287259760304,0.01,1.0,-6.607980499999999,54.75536999999999
52,52,52,52,52,Dunvegan,0.13468520968269912,0.01,0.01,0.1979060581964613,0.07152145641070654,0.7814189230440776,-6.5813982000000015,57.4366
53,53,53,53,53,Louth,0.1041482687760644,0.9677996499068774,0.07350178822558183,0.2426440587899921,0.01,0.7786145854416431,-6.4889423,53.925230000000006
54,54,54,54,54,Wexford,0.16134175886804772,0.01,0.01,0.12156752258121765,0.02119583033156701,0.8232271972275572,-6.4633381,52.33692
55,55,55,55,55,Craigavon,0.04047312774066439,0.4671363989338813,0.01,0.040610966052767435,0.01,0.9700136794248788,-6.4175653,54.442930000000004
56,56,56,56,56,Stornoway,0.1538090752155471,0.01,0.01,0.21130410455657084,0.06720977632773252,0.7591274177190179,-6.3848692000000025,58.20943000000001
57,57,57,57,57,Drogheda,0.051754742515027305,0.2162442974467295,0.016423173638969456,0.1275164490024346,0.01,0.91451524995014,-6.3560985,53.717859999999995
58,58,58,58,58,Rosslare,0.17836907998012436,0.01,0.01,0.09917445244470934,0.02085624383159532,0.8218318736889934,-6.3414908,52.25131
59,59,59,59,59,Newry,0.07473452479645122,0.9205376944906274,0.1048685540855768,0.16265975756780693,0.01,0.8477169568996356,-6.34023,54.1751
60,60,60,60,60,Scilly Isles,0.22943834936958465,0.200727215206404,0.01,0.3933982279227785,0.01,0.611551325224349,-6.327496599999999,49.92773
61,61,61,61,61,Ballymena,0.03601707422785373,0.293511285064652,0.01,0.02095993973142277,0.01,0.989454965387022,-6.2802213,54.86529
62,62,62,62,62,Banbridge,0.02788555798373173,0.512718444153727,0.01,0.05131191175133686,0.01,0.9734115198000146,-6.2704803,54.34873
63,63,63,63,63,Dublin,0.05249377366258184,0.07267696327923423,0.01,0.12016597385165127,0.01,0.9234499827758388,-6.2603097000000005,53.34981
64,64,64,64,64,Antrim,0.05058724719157296,0.510281073845328,0.01,0.05836031520813665,0.01,0.9500699141826072,-6.2072498,54.719530000000006
65,65,65,65,65,Antrim,0.05058724719157296,0.510281073845328,0.01,0.05836031520813665,0.01,0.9500699141826072,-6.2072498,54.719530000000006
66,66,66,66,66,Portree,0.1513379289478065,0.01,0.01,0.17674301121175048,0.07275132241060406,0.7789971801218012,-6.1960231,57.41246999999999
67,67,67,67,67,Islay,0.17917918853510545,0.01,0.01,0.5283313840918625,0.5321020227889914,0.36639138843757424,-6.177067,55.73625
68,68,68,68,68,Wicklow,0.05474012404420448,0.07307453816858696,0.01,0.11620650119658744,0.01,0.9238199969732837,-6.044589,52.980819999999994
69,69,69,69,69,Kilkeel,0.06268849098099429,0.6404532329694176,0.04169203406061986,0.0804209466549699,0.01,0.91929102319656,-6.007004,54.06312
70,70,70,70,70,Mull,0.3222612701163191,0.01,0.01,0.5279759304159793,0.5092592596242282,0.25403398728409177,-6.0008870000000005,56.4392
71,71,71,71,71,Belfast,0.03900436854353045,0.29787469051418713,0.01,0.07419743866218485,0.01,0.9559923614269076,-5.93012,54.59728000000001
72,72,72,72,72,Broadford,0.16370800618525594,0.01,0.01,0.17798793017406614,0.0729442972439213,0.7676699354954247,-5.9096592,57.24139
73,73,73,73,73,Down,0.035913783756877864,0.3018636337966187,0.01,0.06840769922890845,0.01,0.9618755871662796,-5.7156921999999994,54.32875
74,74,74,74,74,Kyle of Lochalsh,0.1513379289478065,0.01,0.01,0.1936558295489664,0.07275132241060406,0.7692084545284004,-5.7143293,57.28261
75,75,75,75,75,Campbeltown,0.13885112826146398,0.01,0.01,0.7454250362901581,0.7410367661882471,0.1907312183568484,-5.605373999999999,55.424119999999995
76,76,76,76,76,Penzance,0.23208986270974905,0.2020767998190896,0.01,0.3980104311589157,0.01,0.6065916549217989,-5.537592,50.1188
77,77,77,77,77,Oban,0.33606828473913714,0.01,0.01,0.6124173394394647,0.5157289774570225,0.1907978209123883,-5.471047,56.41516
78,78,78,78,78,Lochgilphead,0.3170650986454428,0.01,0.01,0.6393524171041751,0.648543842779288,0.13777219631917256,-5.4323449,56.03829
79,79,79,79,79,Helston,0.24121233277790066,0.2037204329598961,0.01,0.4036275581956302,0.01,0.5955356307021498,-5.274996,50.10159
80,80,80,80,80,Redruth,0.23208986270974905,0.2020767998190896,0.01,0.4066071038823596,0.01,0.6016164440229571,-5.226666000000002,50.23302
81,81,81,81,81,Ullapool,0.15775219763953446,0.01,0.01,0.21358335535739648,0.06804123699432989,0.7541166854572211,-5.161313,57.895419999999994
82,82,82,82,82,Ballachulish,0.3867268701726594,0.01,0.01,0.379999670118531,0.2982646424751446,0.3699775660392088,-5.133719999999999,56.67393000000001
83,83,83,83,83,Fort William,0.35910345088420725,0.01,0.01,0.26945958638745393,0.1495468278208711,0.5174974163758662,-5.1052179,56.81981999999999
84,84,84,84,84,Achnasheen,0.14828777351216724,0.01,0.01,0.23553351487043,0.06832298091097308,0.7493542327219093,-5.078765799999998,57.57859000000001
85,85,85,85,85,Newquay,0.07948162616413705,0.3091075336384032,0.01,0.3429911887125301,0.01,0.7656922096100826,-5.0737190000000005,50.4155
86,86,86,86,86,Falmouth,0.2417636934863968,0.2039969891546632,0.01,0.4045726430320658,0.01,0.5945125414462149,-5.066269999999999,50.152570000000004
87,87,87,87,87,Rothesay,0.27398371262295623,0.01,0.01,0.7183148529387133,0.7187180613567735,0.1004133428599657,-5.055793,55.83596
88,88,88,88,88,Truro,0.23208986270974905,0.2020767998190896,0.01,0.4066071038823596,0.01,0.6016164440229571,-5.0510410000000014,50.2632
89,89,89,89,89,Milford Haven,0.4815608250891511,0.5187209293273966,0.01,0.3170182014018427,0.01,0.4301422445579236,-5.0426971,51.71431
90,90,90,90,90,Stranraer,0.07550815999067949,0.2801657167157489,0.01,0.16561916514160416,0.1025375449914552,0.8310559576170937,-5.0240550000000015,54.903369999999995
91,91,91,91,91,Fishguard,0.3790190361381884,0.4007852735231384,0.01,0.28924416355932386,0.01,0.5371251894935206,-4.975989,51.99393
92,92,92,92,92,Inchnadamph,0.15775219763953446,0.01,0.01,0.22940117179523664,0.06804123699432989,0.7449614241698453,-4.974295,58.15221
93,93,93,93,93,Haverfordwest,0.4703066414120884,0.5187209293273966,0.01,0.3225350214569995,0.01,0.4365283195916229,-4.971319,51.800470000000004
94,94,94,94,94,Dunoon,0.2959612382510349,0.01,0.01,0.6956674032740864,0.6687946493609337,0.11496674127386232,-4.926214,55.95097
95,95,95,95,95,Pembroke,0.4753665703172921,0.2553934769646257,0.01,0.32399135863984496,0.01,0.4379110626474736,-4.9086370000000015,51.67404000000001
96,96,96,96,96,Girvan,0.1471904861477306,0.01,0.01,0.8954214370020371,0.98076020616827,0.01,-4.8542179,55.240159999999996
97,97,97,97,97,Wadebridge,0.2720671005504043,0.01,0.01,0.3786056651899996,0.01,0.5887717711728598,-4.836456,50.51665
98,98,98,98,98,Invergarry,0.1464268496102045,0.01,0.01,0.2560047697280306,0.0743243242438063,0.7366675559341207,-4.800261,57.07095
99,99,99,99,99,St Austell,0.2799243927663631,0.01,0.01,0.3946402700118181,0.01,0.5728038084821309,-4.7834252,50.340379999999996
100,100,100,100,100,Greenock,0.2862193296639712,0.01,0.01,0.7143645223476156,0.6117108276990241,0.13547884832341014,-4.7719830000000005,55.956480000000006
101,101,101,101,101,Helensburgh,0.289564488944746,0.01,0.01,0.7123502635407712,0.6162464989486459,0.1319666735612646,-4.734014,56.00232
102,102,102,102,102,Bodmin,0.2861637284382228,0.01,0.01,0.365947358844934,0.01,0.5840999719159223,-4.7188629,50.4715
103,103,103,103,103,Tenby,0.5194688191890742,0.24730298726074235,0.01,0.3202400437489315,0.01,0.4028437071130421,-4.703579,51.67274000000001
104,104,104,104,104,Camelford,0.2951550856863143,0.01,0.01,0.3275692939679894,0.01,0.5986592905569786,-4.682364,50.62206
105,105,105,105,105,Irvine,0.17836177661348973,0.01,0.01,0.788517273578246,0.9180790959234936,0.060697868977232575,-4.6696364,55.61156999999999
106,106,106,106,106,Cardigan,0.259435449759141,0.2963571554568611,0.01,0.2652935542311709,0.01,0.6541603101310994,-4.660864,52.0837
107,107,107,107,107,Holyhead,0.09442283623634908,0.25615531015995896,0.01,0.5337863833368429,0.015625000415364583,0.6375444525806452,-4.633038,53.30944
108,108,108,108,108,Ayr,0.14388075688961788,0.01,0.01,0.7778762947048525,1.0,0.06313737258098596,-4.629179,55.45856
109,109,109,109,109,Dumbarton,0.19878929309062385,0.12652306903649913,0.01,0.8757484185827601,0.4770486911269126,0.16773113584368235,-4.564554,55.94529
110,110,110,110,110,Bude,0.3199925314381676,0.01,0.046062220396780686,0.38541931578747496,0.018497757665125188,0.5315923671991293,-4.543678,50.82664000000001
111,111,111,111,111,Isle of Man,0.19965600273702355,0.3492801348797157,0.01,0.13212935547426152,0.04261088516311577,0.7672588497220639,-4.5126330999999995,54.27697
112,112,112,112,112,Kilmarnock,0.16630330968578566,0.01,0.01,0.7534659610271895,0.9140917600071592,0.0928576529481434,-4.498792,55.61472
113,113,113,113,113,Newton Stewart,0.18793670763362647,0.3715149042945452,0.01,0.6372623367038779,0.7553907431870507,0.19661259402523287,-4.483164,54.9603
114,114,114,114,114,Liskeard,0.2906872076751427,0.01,0.01,0.35075593361506224,0.01,0.589042251551192,-4.4647190000000005,50.45552
115,115,115,115,115,Altnaharra,0.11630841769518788,0.01,0.01,0.2426440587899921,0.06976744224418605,0.7718747768351867,-4.442655,58.28023
116,116,116,116,116,Pwllheli,0.11676970354852327,0.16504972285922467,0.01,0.30657758076949576,0.010067727999161022,0.7545129706626845,-4.417633900000001,52.888819999999996
117,117,117,117,117,Lairg,0.14001258091847654,0.01,0.01,0.25195566648778905,0.06889352799425888,0.7466627494496964,-4.402414,58.022059999999996
118,118,118,118,118,Launceston,0.4018891809752515,0.01,0.01,0.4166089054443356,0.01,0.4562789374228284,-4.360451599999998,50.636829999999996
119,119,119,119,119,Carmarthen,0.49319726175918105,0.5537642644793916,0.01,0.32090134101931583,0.01,0.4169120169140889,-4.312131,51.857620000000004
120,120,120,120,120,Llangefni,0.0767193885691009,0.2531349372119908,0.01,0.5348112534588008,0.015440763248713268,0.6521681536920572,-4.311401999999998,53.25579000000001
121,121,121,121,121,Caernarfon,0.09729310279618954,0.2666075353665977,0.01,0.4767707826284417,0.016262566831978114,0.6675859052711853,-4.273911,53.13955
122,122,122,122,122,Cumnock,0.1980126148269645,0.01,0.01,0.6218910109984783,0.9285714285059524,0.13617595507139554,-4.265828900000002,55.45355
123,123,123,123,123,Aberaeron,0.22135978253356395,0.41087567492379934,0.01,0.28131530901902324,0.012531328332289057,0.6730654455211448,-4.2581619,52.24279
124,124,124,124,124,Alness,0.16774089915746102,0.01,0.01,0.2654342652996276,0.06576325249451972,0.7165239830252286,-4.256825,57.69595
125,125,125,125,125,Glasgow,0.1862466738164307,0.12695060931477573,0.01,0.8543806660818303,0.4554294258787142,0.19948982442456306,-4.251806,55.86424
126,126,126,126,126,Dalwhinnie,0.22623321475506114,0.01,0.01,0.26958201332797843,0.01,0.6908834791990969,-4.242783,56.9366
127,127,127,127,127,Inverness,0.15806880727763095,0.01,0.01,0.3225775991814847,0.06699147399441736,0.6911876308693966,-4.224721,57.47776999999999
128,128,128,128,128,Saltash,0.3495694274117085,0.01,0.01,0.4523382011307773,0.01,0.4801315326469074,-4.21643,50.409209999999995
129,129,129,129,129,Bideford,0.15988599792462665,0.01,0.04462152487360723,0.30797542152906193,0.017919200748506732,0.7130784108186233,-4.206666,51.01668
130,130,130,130,130,Invergordon,0.1630351400616178,0.01,0.01,0.27261283128953856,0.06483300632793057,0.7167500616998671,-4.1728819999999995,57.688109999999995
131,131,131,131,131,Llanelli,0.5424653818247894,0.5020415686968263,0.01,0.3614893560163922,0.01,0.3530779075993143,-4.160248,51.68089000000001
132,132,132,132,132,Plymouth,0.3538604161440919,0.01,0.01,0.4593362912705053,0.01,0.4724289470987001,-4.1426565,50.37546
133,133,133,133,133,Tavistock,0.3409938838651676,0.01,0.01,0.4392257963217193,0.01,0.4950194238952947,-4.141654,50.551120000000004
134,134,134,134,134,Porthmadog,0.12244472373059445,0.29217973378532075,0.01,0.5132760669332058,0.017822423665181462,0.6237902848332288,-4.1333839999999995,52.92784
135,135,135,135,135,Bangor,0.09092982725364286,0.2456857428977445,0.01,0.5522701662743249,0.0149863761654178,0.6303350959576317,-4.129263,53.22739
136,136,136,136,136,Tywyn,0.1964100909921232,0.01,0.01,0.1820768621265514,0.01,0.7669132564616501,-4.087249,52.58701
137,137,137,137,137,Aberystwyth,0.20025061850386186,0.41389335789954224,0.01,0.20923045429920573,0.01262336441561472,0.7326421714801196,-4.08292,52.4153
138,138,138,138,138,Lampeter,0.1887269058200441,0.3543590729411967,0.01,0.2538801668484211,0.010807624665766031,0.7188069706234631,-4.0785089999999995,52.1129
139,139,139,139,139,Barnstaple,0.1814758365071823,0.01,0.046374153272652416,0.28827037392064503,0.01862302474844808,0.7056333551518368,-4.058338,51.07816
140,140,140,140,140,Tain,0.15225863134039813,0.01,0.01,0.25938586299357713,0.06688285357775976,0.7327505856399709,-4.05523,57.8115
141,141,141,141,141,Okehampton,0.18474744045256525,0.01,0.04151930221071396,0.3088600280961836,0.016673403081943882,0.6922436513889034,-4.004263,50.73831
142,142,142,142,142,Llandeilo,0.5234525883261769,0.5278306329769136,0.01,0.36140611848293897,0.01,0.3685152699309071,-3.9914300000000003,51.88469
143,143,143,143,143,Motherwell,0.18990100895140608,0.1253228605350989,0.01,0.8346761938480686,0.4945011985421249,0.19205290907012085,-3.9810968,55.78321
144,144,144,144,144,Golspie,0.1132238321025566,0.01,0.01,0.25538771237558,0.06639839066113347,0.7684847067581986,-3.976086,57.97341
145,145,145,145,145,Airdrie,0.2486941536984813,0.2898317787548037,0.01,0.7379857616509211,0.6187720989484355,0.14376050609061855,-3.9625660000000003,55.86626999999999
146,146,146,146,146,Swansea,0.5818917371535737,0.2520734350996412,0.01,0.3695940194791171,0.01,0.3240747147468049,-3.9436459999999998,51.62144
147,147,147,147,147,Stirling,0.2810921923967605,0.01,0.01,0.36852331117629467,0.1340010824054999,0.5328359849167413,-3.9369029,56.116519999999994
148,148,148,148,148,Tregaron,0.20575779167059727,0.4067974966968193,0.01,0.20928006438058805,0.012406947665632752,0.7281879405712797,-3.934385,52.22
149,149,149,149,149,Tregaron,0.20575779167059727,0.4067974966968193,0.01,0.20928006438058805,0.012406947665632752,0.7281879405712797,-3.934385,52.22
150,150,150,150,150,Castle Douglas,0.17031824854834715,0.5359088600141159,0.01,0.3657156746504375,0.3977216448001897,0.5090992041364628,-3.9314139999999997,54.940419999999996
151,151,151,151,151,Dolgellau,0.17769025813488534,0.01,0.01,0.18755756143946456,0.01,0.7796743061031253,-3.8844,52.74215
152,152,152,152,152,Aberfeldy,0.1848954640441784,0.01,0.01,0.3722892022251401,0.012941176415588234,0.6613996379041063,-3.866969,56.62175
153,153,153,153,153,Machynlleth,0.220570714630078,0.01,0.01,0.2377531824291832,0.01,0.7141248109689968,-3.853485,52.59027
154,154,154,154,154,Brora,0.12302495012626564,0.01,0.01,0.2540678029165357,0.06623845799448012,0.7609708284506876,-3.852548000000001,58.012159999999994
155,155,155,155,155,Llandudno,0.060613900132547416,0.2293150227675341,0.01,0.5642628280738337,0.01398779249883435,0.6500032006228078,-3.827609,53.324059999999996
156,156,156,156,156,Llandudno,0.060613900132547416,0.2293150227675341,0.01,0.5642628280738337,0.01398779249883435,0.6500032006228078,-3.827609,53.324059999999996
157,157,157,157,157,Aviemore,0.15439095356319518,0.01,0.01,0.35001235776898343,0.07087628899409364,0.6768714115560612,-3.823812,57.19449
158,158,158,158,158,Dalbeattie,0.17463505989847444,0.5623116136560301,0.01,0.2845207851536972,0.29726639614189443,0.5923176172269732,-3.8225269999999996,54.934219999999996
159,159,159,159,159,Falkirk,0.3613754065214717,0.01,0.08978911631775031,0.3696291812636021,0.18028846181830926,0.4354756291998924,-3.7839131,56.00188000000001
160,160,160,160,160,Kingsbridge,0.2894389840669231,0.01,0.01,0.3895156636799607,0.01,0.5676713415493752,-3.777493,50.28395
161,161,161,161,161,Pitlochry,0.1252812991645905,0.01,0.01,0.2764572929440782,0.01248864649895928,0.7677879700244096,-3.729711,56.70436
162,162,162,162,162,Colwyn Bay,0.05935550397794384,0.2373431622213448,0.01,0.5336788522068366,0.014477494165460209,0.6683803257530988,-3.72764,53.29318000000001
163,163,163,163,163,Totnes,0.2885282803310337,0.01,0.01,0.3881485095686723,0.01,0.5692379816613565,-3.685797,50.43374
164,164,164,164,164,Grantown-on-Spey,0.14893759925296987,0.01,0.01,0.30427352492797904,0.06846473057762792,0.7089590427584701,-3.609628,57.33041
165,165,165,165,165,Dumfries,0.1896653014877566,0.6367702402151209,0.01,0.2728989203542109,0.3366290014719476,0.5685290344590521,-3.60512,55.070859999999996
166,166,166,166,166,Whitehaven,0.21564185507251413,0.4022155272470292,0.01,0.17083142021260478,0.08382588040968117,0.7133129998198027,-3.589233,54.5497
167,167,167,167,167,Dartmouth,0.2883011804066323,0.01,0.01,0.3910094002153946,0.01,0.5677753155388571,-3.578807,50.35252
168,168,168,168,168,Bridgend,0.8116676933403293,0.01,0.01,0.3935237874586481,0.01,0.12085810732557788,-3.576945,51.50429000000001
169,169,169,169,169,Paignton,0.2837063194553427,0.01,0.01,0.387742486853648,0.01,0.5698177939087521,-3.564235,50.43508
170,170,170,170,170,Workington,0.18685511381297035,0.434957388285228,0.01,0.17386095956381994,0.11718121890690154,0.7217911351258544,-3.5427519999999997,54.64357
171,171,171,171,171,Llanidloes,0.2507174036183834,0.01,0.01,0.3092583152186212,0.01,0.647080088462994,-3.5401949999999998,52.44779000000001
172,172,172,172,172,Exeter,0.16773446523923524,0.01,0.01,0.33674268388750217,0.01362060424886495,0.6963056672484526,-3.533899,50.71841
173,173,173,173,173,Torquay,0.1926402931084476,0.01,0.01,0.34828201438922496,0.013463891832211342,0.6684917000265302,-3.525315,50.46192
174,174,174,174,174,Thurso,0.13064823030297232,0.01,0.01,0.2183475853635428,0.0874751487427104,0.7665839438259247,-3.5220800000000003,58.59356999999999
175,175,175,175,175,Livingston,0.3135053594973544,0.01,0.07511426031428671,0.4764479974468708,0.10054844615828762,0.4481689662432348,-3.518068,55.90071
176,176,176,176,176,Rhyl,0.01,0.01,0.01,0.3963442100879543,0.025898022331175163,0.7996206614447796,-3.4916339999999995,53.319140000000004
177,177,177,177,177,Tiverton,0.16608316534865533,0.1865645865787698,0.042507240875800746,0.34962711247206385,0.022760190748103315,0.6773775909781659,-3.491207,50.90205
178,178,178,178,178,Tiverton,0.16608316534865533,0.1865645865787698,0.042507240875800746,0.34962711247206385,0.022760190748103315,0.6773775909781659,-3.491207,50.90205
179,179,179,179,179,Minehead,0.4874450780308209,0.3519111230772297,0.01,0.4015602370594723,0.01,0.3835030650126047,-3.481152,51.20428
180,180,180,180,180,Dunfermline,0.15865146812884698,0.0788652669253428,0.05390645415084054,0.2677055247857976,0.04570104091285824,0.7232767421285957,-3.452151,56.07174000000001
181,181,181,181,181,Perth,0.13493661069012902,0.01,0.01,0.29056995462595464,0.010365623582469532,0.7522588441718507,-3.4308381000000003,56.39499
182,182,182,182,182,Prestatyn,0.01,0.01,0.01,0.34738129733175754,0.02222607108148116,0.8211484574663132,-3.4076129999999996,53.33651
183,183,183,183,183,Builth Wells,0.9149584686231284,0.6381221992166981,0.01,0.16890602482473127,0.01,0.14723382936203233,-3.4045919999999996,52.15002
184,184,184,184,184,Braemar,0.19222008869243207,0.01,0.01,0.3229971751661649,0.01,0.6889183337964677,-3.3979439,57.00646999999999
185,185,185,185,185,Brecon,0.9984167779198359,0.4703529895765229,0.01,0.3076983466673212,0.01,0.01,-3.391463,51.94895
186,186,186,186,186,Merthyr Tydfil,0.9928214861568596,0.01,0.01,0.266595179562283,0.01,0.04013284989745047,-3.381646,51.74873
187,187,187,187,187,Llandrindod Wells,0.32996979970951723,0.3888170160369532,0.01,0.2904779586116388,0.01,0.5809208099314768,-3.377742,52.2417
188,188,188,188,188,Corwen,0.4518200815629552,0.01,0.01,0.37456084529441336,0.01,0.4381167905412531,-3.369242,52.98005
189,189,189,189,189,Cockermouth,0.17315334592004808,0.4459281319369161,0.01,0.15242767828271375,0.12013682815665525,0.7443953024477546,-3.367985,54.66326
190,190,190,190,190,Lockerbie,0.14925994725056502,0.5924222460522703,0.01,0.219864081163116,0.19574025440035486,0.6915768858051081,-3.349008,55.12224000000001
191,191,191,191,191,Blairgowrie,0.10530915629161124,0.01,0.01,0.2664395726833082,0.01,0.7956263581833635,-3.3378318,56.58941
192,192,192,192,192,Elgin,0.18041945669038373,0.01,0.01,0.2787658239218022,0.06068407491160965,0.7000672315796757,-3.318485,57.64945
193,193,193,193,193,Newtown,0.292569606952805,0.01,0.01,0.3713960289687073,0.01,0.5754938116975548,-3.313106,52.51211
194,194,194,194,194,Ruthin,0.3635788930965361,0.01,0.01,0.461776710905306,0.01,0.4627445655089783,-3.3103108,53.114869999999996
195,195,195,195,195,Ruthin,0.3635788930965361,0.01,0.01,0.461776710905306,0.01,0.4627445655089783,-3.3103108,53.114869999999996
196,196,196,196,196,Sidmouth,0.14558761453352567,0.01,0.01,0.2914387064247996,0.013784461165517962,0.7413104940836579,-3.2375599999999998,50.67865
197,197,197,197,197,Barrow-in-Furness,0.27051191818142684,0.01,0.03942078896498222,0.3308429200340468,0.039576697413368604,0.5975041062325557,-3.2188939999999997,54.10896999999999
198,198,198,198,198,Peebles,0.15211599832892014,0.0694390933032345,0.047463420560600655,0.3021601098888875,0.036003080663666406,0.7137411062462464,-3.1936419999999996,55.65306999999999
199,199,199,199,199,Edinburgh,0.12680622472893854,0.07110375030517659,0.016200417757840813,0.2740698077775565,0.028191782664317343,0.7580318056803839,-3.1882669999999997,55.95325
200,200,200,200,200,Cardiff,0.3853370568910524,0.01,0.025481566985076188,0.4620776957804963,0.01,0.43854341691090704,-3.17909,51.48158
201,201,201,201,201,Llangollen,0.29010767683819866,0.01,0.01,0.39431045247335017,0.014519535248790037,0.5584661283453447,-3.1716599999999997,52.96921
202,202,202,202,202,Kirkcaldy,0.11563003057415325,0.06605132124372654,0.015049262423051287,0.2740804202434192,0.02618855799781761,0.7685957110174314,-3.158137,56.11682
203,203,203,203,203,Welshpool,0.524434369469493,0.01,0.01,0.3039891619872724,0.01,0.4171562262844024,-3.146407,52.66035
204,204,204,204,204,Mold,0.23382202130235544,0.01,0.01,0.36118996940413295,0.014311735165474019,0.6256266652951472,-3.1419029999999997,53.1672
205,205,205,205,205,Mold,0.23382202130235544,0.01,0.01,0.36118996940413295,0.014311735165474019,0.6256266652951472,-3.1419029999999997,53.1672
206,206,206,206,206,Taunton,0.2619114214655509,0.3987911024374785,0.01,0.43126024566452004,0.024325520081306205,0.5473024299942382,-3.106849,51.01534
207,207,207,207,207,Wick,0.1654518153865415,0.01,0.01,0.2505267554968418,0.07036847491080261,0.7252415175170271,-3.093716,58.43894
208,208,208,208,208,John o' Groats,0.16938698235758756,0.01,0.01,0.2354759134743921,0.07120662907739944,0.7302652002757343,-3.0688997000000002,58.63734
209,209,209,209,209,Dalkeith,0.11730441431998916,0.07235909572330783,0.01648643811705999,0.2851003152925249,0.028689511580942538,0.7594722709510361,-3.066606,55.893119999999996
210,210,210,210,210,Oswestry,0.4333730381440058,0.01,0.01,0.3682455970093815,0.01,0.4574729732379831,-3.056412,52.85715
211,211,211,211,211,Blackpool,0.28036724631343,0.1464862245320117,0.016687855889866928,0.4367346797867431,0.0424430975797964,0.5255211742474558,-3.0356748,53.81751
212,212,212,212,212,Birkenhead,0.048863435303691784,0.09613675205660398,0.016427991148341838,0.4009751449656444,0.01,0.7578153473748784,-3.023009,53.389990000000004
213,213,213,213,213,Cupar,0.14579902091414673,0.01,0.01,0.2709926401909936,0.01872021799843997,0.7509719347931383,-3.010137,56.32023
214,214,214,214,214,Southport,0.2343726864521244,0.01,0.01,0.4408270639871596,0.027422607664381444,0.5737739857078318,-3.010113,53.64571
215,215,215,215,215,Bridgwater,0.4092645379381639,0.33173902135925104,0.01,0.4694974716119734,0.01,0.4112226786141786,-3.003632,51.12789
216,216,216,216,216,Langholm,0.14161532211542013,0.2813312561337753,0.01,0.2549602729372786,0.1859074359845077,0.6893997222673435,-2.998913,55.153059999999996
217,217,217,217,217,Newport,0.6409122426595729,0.01,0.05650096200046875,0.35972813419680444,0.01512651249873946,0.2735444659011564,-2.997664,51.58415
218,218,218,218,218,Axminster,0.26782001896266977,0.3412818556203843,0.01,0.426085709598694,0.02081756233159853,0.5481005506181271,-2.9949369999999997,50.78273
219,219,219,219,219,Wrexham,0.3045261745269874,0.01,0.01,0.3850242251908996,0.014647137082112741,0.5515172617173321,-2.9924939999999998,53.04304000000001
220,220,220,220,220,Liverpool,0.051362143085994086,0.0975776905305073,0.01667421826383269,0.4030682940307693,0.01,0.7543571946855602,-2.9915726,53.40837
221,221,221,221,221,Weston-super-Mare,0.3421081254735777,0.01,0.02765270923493504,0.4730256050671839,0.01,0.4685319575712116,-2.977255,51.347409999999996
222,222,222,222,222,Dundee,0.1540765610185414,0.01,0.01,0.26622892162898537,0.019784172831684647,0.7462542537757175,-2.9707209999999997,56.462019999999995
223,223,223,223,223,Kirkwall,0.17614085759782705,0.01,0.01,0.2354759134743921,0.07120662907739944,0.7245166597042324,-2.9622491,58.984669999999994
224,224,224,224,224,Ambleside,0.1898769252304799,0.01,0.05426241570689662,0.12027529503614053,0.02905441091424547,0.7906511472845211,-2.961333,54.42874000000001
225,225,225,225,225,Orkney Islands,0.17614085759782705,0.01,0.01,0.2354759134743921,0.07120662907739944,0.7245166597042324,-2.9605206,58.980940000000004
226,226,226,226,226,Lyme Regis,0.3617632239842559,0.4201615341846329,0.01,0.3628038953119879,0.051258154745728486,0.4905374419216466,-2.936639,50.725159999999995
227,227,227,227,227,Carlisle,0.12166895838776445,0.4943347982711683,0.01,0.15254204997806545,0.14825475132097876,0.7756082200874044,-2.932931,54.892469999999996
228,228,228,228,228,Chester,0.2417703012943043,0.01,0.01,0.33150856457960376,0.013558486332203459,0.6363444965383317,-2.893075,53.19339
229,229,229,229,229,Forfar,0.15450028670061286,0.01,0.01,0.2089715357043628,0.01,0.7870187179082065,-2.889062,56.64356
230,230,230,230,230,Morecambe,0.2724290084506037,0.01,0.04068552726950153,0.3255224305973501,0.040846437496596125,0.5983025968706415,-2.864968,54.074169999999995
231,231,231,231,231,Selkirk,0.19830144558839705,0.01,0.01,0.3518043301673662,0.04862953149594753,0.6474397422629108,-2.838524,55.55066
232,232,232,232,232,Galashiels,0.1283215863607889,0.07172593036145802,0.016342176480680252,0.2800453932244647,0.0371887679135676,0.7496213829724643,-2.814449,55.62373
233,233,233,233,233,Lancaster,0.18866004523740068,0.01,0.05645128036507914,0.290642515763028,0.01511321166540723,0.6984735804312806,-2.8007399,54.046569999999996
234,234,234,234,234,St Andrews,0.13772640979972686,0.01,0.01,0.20419957010562967,0.01933895883172175,0.7962513121628477,-2.7967214,56.33978000000001
235,235,235,235,235,Hawick,0.15377386255498715,0.3256289823799005,0.01,0.26036809146053225,0.14897074773758576,0.6897397653147949,-2.780914,55.42706
236,236,236,236,236,Bridport,0.3103967771286379,0.29039183397767937,0.01,0.3868665748368717,0.0354267310803811,0.5299162028847049,-2.758301,50.733579999999996
237,237,237,237,237,Shrewsbury,0.3537963812687773,0.2744632460979849,0.01,0.2828487464056665,0.01,0.5678722592585879,-2.7553267999999997,52.7073
238,238,238,238,238,Penrith,0.17418551159865908,0.2619601049167312,0.01,0.1615376491291193,0.07190586882734118,0.7622421972331075,-2.752708,54.6641
239,239,239,239,239,Kendal,0.1876803942426865,0.01,0.04674133171620238,0.18232337820104894,0.025027302664581055,0.7590471246381727,-2.74629,54.32801
240,240,240,240,240,Street,0.406691231482379,0.33681982286517864,0.01,0.5289320752318983,0.01,0.3788886179562706,-2.7429189999999997,51.12468
241,241,241,241,241,Glastonbury,0.4047350595072227,0.01,0.01,0.5340275931784092,0.01,0.3858974268842694,-2.718454,51.14743
242,242,242,242,242,Hereford,0.32591321426817,0.01,0.5909744684363754,0.1775229635221418,0.01,0.5954582977348842,-2.715974,52.0564
243,243,243,243,243,Ludlow,0.3333086989617481,0.4654964776541903,0.2121192552771475,0.2371406641434569,0.01,0.5841384533924564,-2.7139129,52.36775
244,244,244,244,244,Preston,0.4571197173944891,0.3982099031312449,0.02268223110014291,0.5071432763443917,0.04250761807979103,0.3274562744972522,-2.70309,53.7632
245,245,245,245,245,Whitchurch,0.4212062814169748,0.01,0.01,0.3630790522582112,0.01,0.4708190153256179,-2.682045,52.96872
246,246,246,246,246,Wells,0.3163926672460091,0.01,0.01,0.581627123723835,0.01,0.4335404549472562,-2.6445979,51.20935
247,247,247,247,247,Yeovil,0.28735069940603625,0.01,0.01,0.3811411495039439,0.01,0.5742957057262287,-2.633308,50.94206
248,248,248,248,248,Wigan,0.3816560731623446,0.01,0.01,0.5419563198576752,0.03832218499680649,0.3854833809973285,-2.6325074,53.54506
249,249,249,249,249,Warrington,0.312430199594924,0.08264589515197576,0.01,0.3689842502056325,0.02016498641498625,0.549811126252914,-2.5969501,53.39004
250,250,250,250,250,Arbroath,0.13471611857363508,0.01,0.01,0.1993643772253414,0.020058351498328467,0.8013216167104329,-2.591543,56.55911
251,251,251,251,251,Bristol,0.33687834982169784,0.1673810872230557,0.01,0.6136767706291951,0.03062980983078085,0.38106948163601023,-2.58791,51.45451
252,252,252,252,252,Guernsey,0.19056909310879536,0.01,0.01,0.3168429039235564,0.025700934414524926,0.6835113163292071,-2.5852779999999997,49.46569
253,253,253,253,253,Ross-on-Wye,0.2946848445143674,0.01,0.4978794313266761,0.16156833577739702,0.01,0.6413326579340847,-2.582446,51.91445
254,254,254,254,254,Jedburgh,0.15669120974616887,0.01,0.01,0.2651287413577129,0.03390875491384093,0.7389638640434631,-2.5549369,55.47772
255,255,255,255,255,Sedbergh,0.14330913803319462,0.01,0.05345480323129493,0.23057346568996176,0.014310990832140746,0.7724878903603533,-2.5281740000000004,54.32363
256,256,256,256,256,Sedbergh,0.14330913803319462,0.01,0.05345480323129493,0.23057346568996176,0.014310990832140746,0.7724878903603533,-2.5281740000000004,54.32363
257,257,257,257,257,Nantwich,0.2989846581481009,0.01,0.01,0.3631094192539027,0.09469347615877552,0.5366067996029007,-2.524102,53.067190000000004
258,258,258,258,258,Banff,0.1960525738063886,0.01,0.01,0.2317784280789992,0.06983240182751396,0.7102633428044637,-2.524038,57.666509999999995
259,259,259,259,259,Dunbar,0.13310820415865862,0.06876128041355482,0.01566670482896491,0.2534514487997748,0.03565164349702903,0.7617056766468131,-2.516737,56.00209
260,260,260,260,260,Cinderford,0.22615005201475105,0.43260965867137796,0.5174748099128758,0.1514056850340321,0.01,0.6927786919184088,-2.5009579,51.8253
261,261,261,261,261,Banchory,0.24106826517654795,0.01,0.01,0.2612885630478285,0.032305433413974544,0.6700165285341998,-2.4909599,57.05386
262,262,262,262,262,Blackburn,0.4437653376133379,0.3364427909480721,0.019163946140601303,0.5178742693860664,0.0410447757465796,0.3351033579158433,-2.487529,53.748580000000004
263,263,263,263,263,Market Drayton,0.4549939160347588,0.01,0.01,0.25059509721977685,0.10555464149120376,0.4645561550196678,-2.483485,52.90355
264,264,264,264,264,Telford,0.5279423329648321,0.35359080785696706,0.060422116745207526,0.18462896837497955,0.01,0.4680176378367634,-2.4672611,52.67759
265,265,265,265,265,Montrose,0.18280635340730308,0.01,0.01,0.2379092368217787,0.01370545733219121,0.7406452085566521,-2.4661150000000003,56.70692
266,266,266,266,266,Turriff,0.18745955434682893,0.01,0.01,0.25333899501994056,0.07009941399415838,0.7049906404908758,-2.4623,57.53893000000001
267,267,267,267,267,Weymouth,0.2759985723657125,0.2297825369347463,0.01,0.2874134492674905,0.02102446499824796,0.6240611352257583,-2.457621,50.61443
268,268,268,268,268,Crewe,0.29439118831426553,0.01,0.01,0.38982272195428935,0.09279344432560054,0.5258223658041759,-2.4438209,53.10041
269,269,269,269,269,Fortuneswell,0.270676765599752,0.2287332974890777,0.01,0.3042264081367694,0.020928462498255963,0.6189245981368304,-2.4422189999999997,50.55919
270,270,270,270,270,Dorchester,0.2796611237881519,0.2465591122598745,0.01,0.2563366969735676,0.022559474664786708,0.6378974461250079,-2.4411810000000003,50.71116
271,271,271,271,271,Alston,0.1132420905191433,0.2683531770630787,0.01,0.22970132557370285,0.07366071441052828,0.7737966305767154,-2.438685,54.812169999999995
272,272,272,272,272,Kelso,0.14905197519115904,0.01,0.01,0.1485061164243764,0.064591896411284,0.8005789982161616,-2.432207,55.600030000000004
273,273,273,273,273,Wincanton,0.3991361160609291,0.01,0.01,0.5832251948634132,0.01,0.36218876718299703,-2.416007,51.05569000000001
274,274,274,274,274,Clitheroe,0.4813442454904971,0.28101559766118483,0.01,0.6020325940791902,0.06856572982761952,0.2467361972678888,-2.3930830000000003,53.8711
275,275,275,275,275,Sark,0.2143692869088457,0.1935322307813432,0.01,0.3125493943158865,0.01770766249852436,0.6641999053503685,-2.3666256000000003,49.43007
276,276,276,276,276,Bath,0.32982277598357435,0.1329238354050778,0.01,0.6146910922158073,0.02972972933085585,0.3876993960258254,-2.3590167,51.38106
277,277,277,277,277,Kidderminster,0.7182206390532748,0.2583572102180834,0.3531876773013363,0.15254409575461728,0.01,0.2953394121732445,-2.2496839,52.3886
278,278,278,278,278,Manchester,0.27078318608499985,0.06101092943229053,0.013900849678885266,1.0,0.08890379665925803,0.191326201186339,-2.2426305,53.48076
279,279,279,279,279,Burnley,0.4723093723495408,0.26918637717516186,0.01,0.5767798479757873,0.08209935524315838,0.2638704447089634,-2.2405035,53.78929
280,280,280,280,280,Gloucester,0.28065329483995405,0.2218940957033209,0.4044542869702816,0.14006575381559702,0.03383782416384685,0.6566949073835958,-2.238156,51.86424
281,281,281,281,281,Newcastle-under-Lyme,0.4084912939957196,0.01,0.01,0.3098368224691729,0.10885109399092907,0.4685186370601036,-2.2273002,53.01321
282,282,282,282,282,Worcester,0.3178033038170089,0.01,1.0,0.13724584263042874,0.01,0.5780935314488016,-2.221575,52.19364
283,283,283,283,283,Trowbridge,0.20109602666424373,0.1139907288829892,0.01,0.3701555212120817,0.01,0.6512627289509094,-2.208853,51.31966
284,284,284,284,284,Shaftesbury,0.21590625433365687,0.01,0.01,0.3010723321379604,0.01,0.6814473771358605,-2.198083,51.0046
285,285,285,285,285,Alderney,0.22445745332474887,0.1895850797489604,0.01,0.3082726345037348,0.01734650958188779,0.6583318501930917,-2.1973557,49.715
286,286,286,286,286,Stoke-on-Trent,0.4048898213240047,0.01,0.01,0.2951024365070871,0.10816743390765272,0.4803879524857369,-2.179404,53.002669999999995
287,287,287,287,287,Colne,0.2464393696672925,0.01,0.01,0.6073889485360615,0.1185089418234576,0.4303342819263974,-2.176991,53.85564
288,288,288,288,288,Blandford Forum,0.1866854844283964,0.2599961546922177,0.01,0.2604439769845023,0.01,0.7202307852552303,-2.165353,50.85691
289,289,289,289,289,Rochdale,0.2463863333143503,0.10504499331699693,0.014360194232801687,0.9533371154627336,0.07689061049359244,0.2428140467749745,-2.1561,53.60971
290,290,290,290,290,Jersey,0.23238930074176986,0.1856045069387608,0.01,0.3114486386699588,0.016982296831918143,0.6499872900123179,-2.13125,49.21444
291,291,291,291,291,Wolverhampton,1.0,0.15899005699104393,0.19923533149458325,0.11154206672786096,0.01,0.09831869248823087,-2.12882,52.586969999999994
292,292,292,292,292,Stafford,0.6102836184182212,0.01,0.020305938962895825,0.1137265085716119,0.09604187907532982,0.4132436961606216,-2.12066,52.80669
293,293,293,293,293,Macclesfield,0.04652605367365861,0.01,0.01,0.6345530892440613,0.07431316657714057,0.6026077120579115,-2.119287,53.25866
294,294,294,294,294,Hexham,0.14670368198359432,0.06001508368112871,0.01,0.34484472619902,0.025625665997864533,0.7031931115196889,-2.1121439,54.97266
295,295,295,295,295,Aberdeen,0.2377924878788024,0.01,0.01,0.2749780047055417,0.030328094497472657,0.6656795921259497,-2.094278,57.149719999999995
296,296,296,296,296,Dudley,0.9521231278058728,0.16823036705737987,0.21081464155389992,0.16544591343986967,0.01,0.1063916622480802,-2.081112,52.51226
297,297,297,297,297,Cheltenham,0.2490197186551893,0.21384243777726056,0.3410559697725289,0.14710942641412067,0.03260998491394916,0.6870878735617086,-2.0782533,51.899390000000004
298,298,298,298,298,Bromsgrove,0.5947895695752179,0.01,0.8198370477283596,0.1804593561097308,0.01,0.34017329244923084,-2.061906,52.33559
299,299,299,299,299,Skipton,0.14938927770138705,0.01,0.01,0.4939920017808483,0.18797278040100224,0.5505304338527467,-2.0162787,53.96285
300,300,300,300,300,Fraserburgh,0.21144467982344967,0.01,0.01,0.2800538320527411,0.07487067774376077,0.6671881400089321,-2.007631,57.69335
301,301,301,301,301,Berwick,0.17448886214852002,0.01,0.01,0.09798866921084552,0.04852227599595648,0.8146535982585653,-2.005395,55.77024
302,302,302,302,302,Poole,0.2192613253262931,0.2392958265847341,0.01,0.2469527838607664,0.021894904164842088,0.6951848942443921,-1.987248,50.71505
303,303,303,303,303,Walsall,0.8412952346836882,0.1487846179513598,0.27119503051892185,0.2369825000437924,0.01,0.15327246106433062,-1.9829189999999999,52.586209999999994
304,304,304,304,304,Cirencester,0.33369473405529426,0.3365997861426997,0.2684204395808501,0.14296270127404564,0.010265981915811169,0.6312630915648232,-1.968243,51.71849
305,305,305,305,305,Evesham,0.2619749781442406,0.01,0.6991067087878825,0.1627263731667764,0.03342245958054813,0.6332663484297891,-1.9467700000000001,52.09215
306,306,306,306,306,Buxton,0.08472787786336529,0.01,0.01,0.5659691975096249,0.07289059066059242,0.6103613595653661,-1.91483,53.259080000000004
307,307,307,307,307,Keighley,0.16426853957446585,0.01,0.05075663846713987,0.5840378156681166,0.16646077798612824,0.4889478609294239,-1.9123580000000002,53.8678
308,308,308,308,308,Birmingham,0.5203764363831119,0.07040476327658332,0.4651935683996915,0.28272606374307296,0.017178239831901813,0.37397778952778427,-1.8904009999999998,52.48624
309,309,309,309,309,Bournemouth,0.19953228022843889,0.2597714443308445,0.01,0.2323382676185153,0.01,0.7255715701811479,-1.880769,50.719159999999995
310,310,310,310,310,Halifax,0.2080284431352483,0.0844494388763021,0.03848225117070185,0.7217257378252959,0.24983609656251365,0.3376039138621745,-1.8575400000000002,53.727019999999996
311,311,311,311,311,Salisbury,0.17701387074519118,0.01,0.01,0.18010204844884742,0.028841111747596574,0.7729233970707453,-1.794472,51.06878
312,312,312,312,312,Ringwood,0.26264923538533297,0.3153231878400993,0.01,0.2808749556162384,0.02404266516466311,0.6358830888341186,-1.7888169999999999,50.84495
313,313,313,313,313,Huddersfield,0.12212181059153356,0.1343965876845738,0.01,0.8347005513751391,0.270532120810789,0.3399109523832426,-1.7850351000000002,53.64579000000001
314,314,314,314,314,Peterhead,0.2511429986145339,0.01,0.01,0.2735731955195959,0.03025302499747892,0.6551597184783979,-1.784066,57.50812
315,315,315,315,315,Swindon,0.41276619793253855,0.2677555073123814,0.12201187860852895,0.17063515352466194,0.01,0.5696065158020109,-1.7797176,51.55577
316,316,316,316,316,Bradford,0.20438649764009964,0.01,0.03769495303988077,0.6775134378750723,0.21444954114879586,0.3827408357658684,-1.759398,53.79598000000001
317,317,317,317,317,Ashbourne,0.5852099000612525,0.01,0.015609565812329371,0.24004470788931986,0.17133956398572167,0.3315885930543157,-1.7321790000000001,53.016630000000006
318,318,318,318,318,Marlborough,0.43426826569821697,0.3170417194254375,0.07223540642106341,0.1884642240350359,0.01,0.5451515374644922,-1.7270619999999999,51.42007
319,319,319,319,319,Stratford-upon-Avon,0.1502112976995699,0.01,0.5635041157982159,0.3011239240653773,0.01,0.6764377549166563,-1.7082979999999999,52.19173
320,320,320,320,320,Alnwick,0.1949318113349119,0.01,0.01,0.3843356935201689,0.01,0.6511088030447729,-1.7062990000000002,55.41274
321,321,321,321,321,Otley,0.17974093915208778,0.01,0.048346955888244315,0.6852237139769116,0.15424351065381306,0.4224067277461437,-1.691786,53.90583
322,322,322,322,322,Bishop Auckland,0.2494723100244358,0.5078381733146999,0.01,0.4077489668508761,0.015488594915375947,0.5723797722118593,-1.6787880000000002,54.663819999999994
323,323,323,323,323,Burton upon Trent,0.7091434672472263,0.01,0.30597074407705965,0.1991326930308448,0.11897163115675236,0.2395420112269707,-1.6371358999999999,52.81403
324,324,324,324,324,Newcastle,0.1141315797138558,0.058702257012930414,0.01,0.474910979951262,0.025065104164577905,0.6558960467313129,-1.61778,54.97825
325,325,325,325,325,Durham,0.16828691275824242,0.3199668763732947,0.01,0.5785729071929631,0.01,0.5534898074039103,-1.5848520000000001,54.77525
326,326,326,326,326,Ashington,0.16421489460763747,0.05474599914720366,0.01,0.4123166105164933,0.023375835081385344,0.6502751610579296,-1.5659829,55.18298000000001
327,327,327,327,327,Darlington,0.207920805422228,0.5266744558644535,0.01,0.27377444878788376,0.010708722749107604,0.6867530107130208,-1.559458,54.52361
328,328,328,328,328,Leeds,0.200183714448798,0.02247939158178151,0.040974002606844376,0.7381533235366208,0.1604306073199641,0.3721184681856241,-1.5490774,53.80076
329,329,329,329,329,Harrogate,0.16502013425152878,0.01,0.0397664581022939,0.6964841795624108,0.14106385882157801,0.434666038135883,-1.5418120000000002,53.99211999999999
330,330,330,330,330,Leamington Spa,0.5751048663462169,0.01,0.20643743267920125,0.29642778006009723,0.01036269391580311,0.3519127328915607,-1.5200789,52.28519
331,331,331,331,331,Coventry,0.6446570873739135,0.01,0.1692225699567673,0.28708478247833297,0.010454882165795423,0.30210549178772,-1.519693,52.40682
332,332,332,332,332,Blyth,0.17169649816611593,0.053998487424109336,0.01,0.4271948401423809,0.023056653581411943,0.6354431419533566,-1.510277,55.12696
333,333,333,333,333,Wakefield,0.1600708861287766,0.14913441953510126,0.01,0.8134542029264576,0.31839232514013394,0.3002258196647004,-1.505924,53.6833
334,334,334,334,334,Andover,0.1638763313972166,0.01,0.05170840643641302,0.17647162616604464,0.013843443165513043,0.7866723846193981,-1.4919233,51.2112
335,335,335,335,335,Witney,0.18842790251222769,0.01,0.2229784726597732,0.1484182758936815,0.01,0.7664141073092977,-1.4850543999999999,51.785940000000004
336,336,336,336,336,Barnsley,0.18619489816368145,0.10374240056547723,0.01,0.7551443928269449,0.4788258126267646,0.2480971094860911,-1.479726,53.55263000000001
337,337,337,337,337,Derby,0.6517249204346023,0.01,0.06497074609377115,0.3101722658931585,0.21090290923242475,0.21308229596769607,-1.4746186000000001,52.92253
338,338,338,338,338,Sheffield,0.19196060181479965,0.01,0.010600598961933216,0.843460246917558,0.31028871955747594,0.2615134542712403,-1.470085,53.38113000000001
339,339,339,339,339,Nuneaton,0.9280728371710062,0.01,0.2709399387753109,0.2790631647575096,0.014507280332124391,0.05289204946793785,-1.465382,52.52049
340,340,340,340,340,Northallerton,0.19769231003313031,0.5253447229462355,0.01,0.2499955568290514,0.010681685665776526,0.709265414513955,-1.429959,54.337959999999995
341,341,341,341,341,South Shields,0.11775526679241785,0.045557129164261086,0.02075965110535698,0.4639057249906053,0.02686270583109477,0.6565361712928922,-1.427406,54.99941999999999
342,342,342,342,342,Chesterfield,0.24588487894452435,0.01,0.010585523273399762,0.8021833166666474,0.2645039173112913,0.2579890690405789,-1.421629,53.23505
343,343,343,343,343,Southampton,0.4276140727180565,0.1195527198339226,0.013619564654038508,0.3647721241464157,0.029169981497569164,0.4481952372512531,-1.4043508999999998,50.9097
344,344,344,344,344,Wetherby,0.16368100981216,0.01,0.03763729015762052,0.6921339635859445,0.1486255008209479,0.4355015301937135,-1.384816,53.92706
345,345,345,345,345,Sunderland,0.11165286924495793,0.04574665949781555,0.02084601703030993,0.4475916159473907,0.026974463081085462,0.6711132506154264,-1.383801,54.90687
346,346,346,346,346,Rotherham,0.19673235204487727,0.01,0.010203611537149493,0.8802979059814797,0.3605876688032844,0.21587109297383714,-1.3635008999999998,53.4326
347,347,347,347,347,Castleford,0.14623183233209106,0.187067776690468,0.01,0.7817628226397396,0.2795643152267029,0.345085970948705,-1.345968,53.72346999999999
348,348,348,348,348,Thirsk,0.03988264185376834,0.41647421343033103,0.01,0.4271838440934148,0.02540415716454965,0.7377701982425066,-1.341377,54.23385
349,349,349,349,349,Banbury,0.13359339984323845,0.01,0.2204265006444968,0.191006421053291,0.014753219248770563,0.7854354271573398,-1.339775,52.0629
350,350,350,350,350,Stockton,0.19279070768318515,0.4412004531536228,0.01,0.24129576418129106,0.01345620649887865,0.7194245243189983,-1.3289821000000002,54.57046
351,351,351,351,351,Newbury,0.3259720324530313,0.01,0.12313444046729236,0.31820807618881025,0.013186286665567808,0.5592179971945523,-1.3231138999999998,51.40141
352,352,352,352,352,Isle of Wight,0.5278505626852739,0.12749811634319225,0.01452470858271206,0.4532075922347947,0.03888574616342619,0.3074795779914073,-1.304734,50.69385
353,353,353,353,353,Isle of Wight,0.5278505626852739,0.12749811634319225,0.01452470858271206,0.4532075922347947,0.03888574616342619,0.3074795779914073,-1.304734,50.69385
354,354,354,354,354,Abingdon,0.1976094515997633,0.01,0.2287722723909917,0.1408926950561636,0.01,0.7650062032880204,-1.2879528999999998,51.67078
355,355,355,355,355,Shetland Islands,0.18107532509762814,0.01,0.01,0.2390789095652968,0.0701530609941539,0.7186563748451026,-1.2659409,60.52965
356,356,356,356,356,Rugby,0.6902557004298118,0.01,0.1342149790925058,0.2975743738868897,0.010779663582435027,0.2608755497948457,-1.265032,52.37088
357,357,357,357,357,Oxford,0.18413408807251547,0.01,0.22026894035395767,0.15676856040366235,0.01,0.7682060860675223,-1.2577263,51.75202
358,358,358,358,358,Middlesbrough,0.1941965188155156,0.44293434312786784,0.01,0.2465344225559139,0.013509088082207577,0.7151319896144412,-1.234956,54.57423000000001
359,359,359,359,359,Hartlepool,0.14803580736327165,0.349618710713444,0.01,0.30317117101912017,0.013032613915580615,0.7241314749246925,-1.212926,54.69174
360,360,360,360,360,Loughborough,0.6790576831199633,0.01,0.08912689880873607,0.4749940896236806,0.011930585332339115,0.17212838456611534,-1.206166,52.7721
361,361,361,361,361,Mansfield,0.4329182731537369,0.01,0.01,0.5711521084732101,0.25483481097876376,0.2375579951002716,-1.198674,53.1472
362,362,362,362,362,Nottingham,0.3906318238114965,0.01,0.01,0.4942569298443125,0.15211909257065673,0.3595165246490506,-1.1581086,52.95478000000001
363,363,363,363,363,Bicester,0.1559203133144286,0.01,0.3548143348494085,0.2167949048912088,0.01,0.7403821284622688,-1.1535898999999998,51.8996
364,364,364,364,364,Leicester,0.7624165275186942,0.01,0.11593538318163105,0.5137589341299587,0.010346125165804493,0.07648415469701568,-1.1397591999999999,52.63688000000001
365,365,365,365,365,Doncaster,0.28016688192760186,0.01,0.01,0.6078197123612595,0.3715046059690412,0.2992556424390003,-1.128462,53.522819999999996
366,366,366,366,366,Worksop,0.3472148307031794,0.01,0.01,0.5783814352938137,0.3646470831362794,0.2619944727279188,-1.122745,53.3093
367,367,367,367,367,Basingstoke,0.24608906890335164,0.01,0.10961343445382518,0.34391990733655103,0.011738341999021804,0.6143745335508519,-1.0923964,51.26654
368,368,368,368,368,Portsmouth,0.5899530889110984,0.01,0.0217256250777474,0.4822042372891108,0.046531302579455716,0.2371136080491409,-1.0879769,50.81977
369,369,369,369,369,York,0.05221581100626047,0.22463045867873552,0.05118024374399243,0.5817978182048797,0.1438714502380107,0.5891591760375847,-1.0872979,53.95997
370,370,370,370,370,Selby,0.07680950689668213,0.2106697883568925,0.01,0.6327612447067129,0.21524532698206286,0.5157946110392257,-1.067189,53.783519999999996
371,371,371,371,371,Helmsley,0.07463932019567805,0.5006477873896445,0.0570342880220532,0.5318350960894853,0.09925041682506246,0.6095732293248092,-1.0562636,54.24651
372,372,372,372,372,Towcester,0.31555986608755604,0.01,0.3523799312913597,0.2721496546920971,0.01,0.5752869737611831,-0.9896879999999999,52.13511
373,373,373,373,373,Reading,0.27254368869573603,0.01,0.14121357046577634,0.4157978189720459,0.015122353582073138,0.5454756699014541,-0.9781303,51.45426
374,374,374,374,374,Retford,0.26367166324176444,0.01,0.01,0.625850227931473,0.2112676059823944,0.3675399125064429,-0.9455030000000001,53.32136
375,375,375,375,375,Petersfield,0.4694786222198842,0.01,0.021475799382050163,0.4131470040049912,0.02299811799808349,0.3891498516798091,-0.93899,51.00759
376,376,376,376,376,Northampton,0.3967282656373557,0.01,0.22550768220006195,0.2260139412000346,0.01,0.5466134635585964,-0.9026559999999999,52.24048
377,377,377,377,377,Melton Mowbray,0.6438102011512364,0.01,0.10031127924222626,0.4644015700823591,0.017903645831841362,0.2046400520387966,-0.887126,52.7664
378,378,378,378,378,Aylesbury,0.2109899583056015,0.01,0.08459439972787201,0.2655040774244593,0.02264772491477936,0.6879344660454624,-0.8084,51.81561
379,379,379,379,379,Newark-on-Trent,0.3910044259271254,0.12485863745122396,0.01,0.4607853403743847,0.10281797440809848,0.3953982814320582,-0.80657,53.07004000000001
380,380,380,380,380,Malton,0.07304014373721096,0.20353649295968146,0.046374153272652416,0.5386528382400645,0.15519187382040067,0.5928752286225223,-0.7978970000000001,54.13684
381,381,381,381,381,Chichester,0.5196753566586054,0.01,0.017973535123541502,0.399852589013336,0.028871391080927383,0.3521273411260787,-0.774936,50.83761
382,382,382,382,382,Gainsborough,0.2809538631549065,0.20303235609798206,0.01,0.6380823734485822,0.14035877807163674,0.3693740728831765,-0.774465,53.40058000000001
383,383,383,383,383,Milton Keynes,0.2394513084981191,0.01,0.19414911672027085,0.3918576303182039,0.01,0.5878818870280048,-0.7594171,52.040620000000004
384,384,384,384,384,Aldershot,0.06739081575562238,0.01,0.01,0.4813627198906124,0.013864380748844636,0.6979118988795598,-0.7557509,51.24837
385,385,385,385,385,High Wycombe,0.12175772907031185,0.01,0.01,0.2655472944541171,0.02581553608118204,0.7717219609716427,-0.748229,51.628609999999995
386,386,386,386,386,Midhurst,0.2194754269969817,0.01,0.01,0.2436032722707391,0.020872864831593927,0.7032456535357263,-0.737274,50.9869
387,387,387,387,387,Kettering,0.4841293061062665,0.01,0.28612465298995504,0.1971302613696908,0.01,0.4823889892655177,-0.7302489999999999,52.39632
388,388,388,388,388,Wellingborough,0.4562587026351676,0.01,0.2543802621895408,0.2457074173848301,0.01,0.4814262123237667,-0.693964,52.30242
389,389,389,389,389,Corby,0.5449621333481719,0.01,0.01,0.15316895263017175,0.01,0.4869753152428453,-0.6842333,52.4923
390,390,390,390,390,Bognor Regis,0.5213502186010661,0.01,0.01,0.4309976190996768,0.030465288330794555,0.3339748146136368,-0.673061,50.783
391,391,391,391,391,Scunthorpe,0.24868306823126804,0.01,0.01,0.4772391375977802,0.13627353848864387,0.49658125382270896,-0.654413,53.58865
392,392,392,392,392,Grantham,0.35198375522592823,0.01,0.08142588238376486,0.15591368152705962,0.02179944524818337,0.6320408614078522,-0.643582,52.912519999999994
393,393,393,393,393,Whitby,0.1575746997468601,0.3026742772142311,0.01,0.27825834347590983,0.03230949974730754,0.7238062324451385,-0.613347,54.48633
394,394,394,394,394,Slough,0.21067604395757264,0.01,0.01,0.3731768774570895,0.01049017749912582,0.6399321541967565,-0.5950406,51.51054
395,395,395,395,395,Guildford,0.08437453402999336,0.01,0.01,0.4296171674408013,0.014080901082159925,0.7133178100043698,-0.570409,51.23622
396,396,396,396,396,Woking,0.12190310084427786,0.01,0.01,0.4547082971966085,0.01,0.6725370652471933,-0.5600349,51.31677
397,397,397,397,397,Lincoln,0.27864030441127685,0.2658999374213277,0.01,0.41911248843017457,0.04054851074662096,0.5368180777096417,-0.540579,53.23069
398,398,398,398,398,Bedford,0.3462397008401914,0.2729015293739407,0.0932676285773136,0.3585201670734565,0.01,0.5204667803103604,-0.46677820000000003,52.13864
399,399,399,399,399,Heathrow,0.2857563483862385,0.01,0.08874190208602914,0.2762967634152756,0.0356371491636969,0.6123590662173705,-0.4542955,51.47002
400,400,400,400,400,Driffield,0.19848216044018432,0.01,0.03407488749497796,0.4252914368524397,0.17941062606838246,0.54828111754648,-0.443377,54.006
401,401,401,401,401,Beverley,0.21490617130133385,0.01,0.01,0.4552628305031931,0.17309436190224212,0.5231871246899741,-0.435093,53.84196
402,402,402,402,402,Luton,0.3482949464615405,0.01,0.03874351631118452,0.33013904503917724,0.01037246558246896,0.5435682467136264,-0.4200255,51.87867
403,403,403,403,403,Scarborough,0.14594769659206652,0.01,0.07941148209840394,0.4055321122348817,0.08504058749291328,0.6376251156756885,-0.399752,54.28311
404,404,404,404,404,Worthing,0.16777632918012314,0.12043097322383615,0.027439228856926345,0.629609725928594,0.01,0.5263329853966499,-0.372882,50.81787
405,405,405,405,405,Dorking,0.22835762499733725,0.01,0.01,0.4685912565300228,0.01,0.573893500293606,-0.332378,51.2322
406,406,406,406,406,Hull,0.2103626078061686,0.01,0.01,0.40105978897047706,0.15529856648705845,0.5656088824128179,-0.3274198,53.767619999999994
407,407,407,407,407,Horsham,0.17569287430514766,0.01,0.01,0.2595240168413439,0.018942655415088112,0.7320756797438316,-0.325858,51.06288
408,408,408,408,408,Biggleswade,0.3463638580729805,0.01,0.11786431461912185,0.27959545024409305,0.01,0.57010196481239,-0.26421999999999995,52.08694000000001
409,409,409,409,409,Peterborough,0.5776779554398995,0.01,0.4033722750500378,0.12666949750997025,0.032397408080633544,0.4177985709311665,-0.2405299,52.5695
410,410,410,410,410,Welwyn Garden City,0.31531424691204524,0.01,0.01,0.4000457870364509,0.01377755499885187,0.5339919092695588,-0.208661,51.80317
411,411,411,411,411,Bridlington,0.19740039272984627,0.01,0.03397345957732488,0.4168111176703822,0.1788765779017603,0.5543363998876631,-0.198802,54.08535
412,412,412,412,412,Stevenage,0.4052412523708771,0.01,0.04706471773269287,0.28080923504451033,0.012600228665616648,0.5218510034230011,-0.19661199999999998,51.90376
413,413,413,413,413,Crawley,0.2141790950694015,0.01,0.01,0.31162457545341754,0.01,0.6768099891992857,-0.18722750000000002,51.109140000000004
414,414,414,414,414,Huntingdon,0.2311933744553449,0.6168194525807338,0.22485976314103995,0.1412541582006679,0.01,0.7214473919364284,-0.182552,52.33146
415,415,415,415,415,Hove,0.15316120573366446,0.11887496705535412,0.02708470536336948,0.6480375057329691,0.01,0.5281837964122684,-0.168749,50.82793
416,416,416,416,416,Spalding,0.5493480658468056,0.01,0.3063031145602119,0.12681583446394448,0.0492023262458998,0.44553298510063816,-0.1537024,52.7901
417,417,417,417,417,Brighton,0.1557943302399808,0.13056279118010106,0.029747682107752044,0.6942338892858974,0.01,0.4986296524197633,-0.137163,50.82253
418,418,418,418,418,London,0.21100873839123346,0.11284386899276228,0.01,0.733579542541348,0.01,0.4277452925868761,-0.12775830000000002,51.50735
419,419,419,419,419,Grimsby,0.21595811693124706,0.01,0.01,0.4035775645311444,0.15522996132039749,0.5594166948185799,-0.08078400000000001,53.56746999999999
420,420,420,420,420,Boston,0.4682520044046256,0.01,0.07802411815020145,0.1432465527706143,0.05222180057898152,0.5284986784942937,-0.026576999999999996,52.97894
421,421,421,421,421,Royston,0.2707972711492238,0.2836024342475362,0.1292330683608449,0.25033189528027844,0.01,0.6431457275015644,-0.024066,52.048140000000004
422,422,422,422,422,Louth_Lincs,0.297904368500058,0.21356386786026893,0.01,0.3630706134299348,0.05862150616178152,0.5468506426591585,-0.007711,53.36596
423,423,423,423,423,Lewes,0.1389993692151793,0.13285201765499402,0.030269263952259564,0.7266076639136907,0.01,0.4940747776492184,0.00878,50.873870000000004
424,424,424,424,424,Chatteris,0.5217211687647181,0.3849164060324025,0.3508004250734702,0.13316042685639198,0.03521878341373176,0.4567340548856858,0.054012,52.4561
425,425,425,425,425,Uckfield,0.12340615978114244,0.135456571991366,0.030862690714436262,0.7213777640199304,0.01,0.5102455081201464,0.095913,50.966409999999996
426,426,426,426,426,Cambridge,0.18408613799276527,0.34970911782466063,0.15935682093193373,0.2115826498202082,0.01,0.7344937225241329,0.12181700000000001,52.20534
427,427,427,427,427,Bishop's Stortford,0.3530440040881464,0.01,0.01,0.4248746738105184,0.01,0.4930690790605634,0.15365020000000001,51.87216
428,428,428,428,428,Wisbech,0.5769233176934054,0.3392913212569509,0.30921919030445666,0.1320114676004613,0.07243650057729695,0.40100769666532105,0.158797,52.66631999999999
429,429,429,429,429,Sevenoaks,0.2550410836109409,0.01,0.01,0.4039167159251301,0.01,0.5886141451247479,0.190898,51.27241
430,430,430,430,430,Tunbridge Wells,0.20382370368502664,0.20477530782223785,0.046656407277706965,0.2667603120883273,0.01,0.6989853100663469,0.26369499999999996,51.13238
431,431,431,431,431,Eastbourne,0.15221533280963553,0.1191656193056932,0.0271509281414584,0.6608987275397709,0.01,0.5185967285564743,0.29047199999999995,50.768029999999996
432,432,432,432,432,Brentwood,0.9377806633804414,0.01,0.01,0.3706914507381481,0.010541110249121572,0.022477252452176542,0.30717490000000003,51.62047000000001
433,433,433,433,433,Skegness,0.3629802343945965,0.01,0.01,0.1558264803015372,0.0721075061606577,0.6112242326738074,0.337881,53.1464
434,434,434,434,434,Downham Market,0.45807019839508506,0.8152501528400139,0.0928740959264863,0.0672377707633214,0.0745931284937839,0.5504486607151112,0.385472,52.606609999999996
435,435,435,435,435,King's Lynn,0.4197241761867645,0.3719746941839704,0.08475144300070313,0.12543934649713825,0.06806930716099423,0.5638265240237268,0.4022963,52.75168000000001
436,436,436,436,436,Bexhill,0.15151007973276628,0.21768872236508127,0.01,0.4525218735068228,0.013278609665560114,0.6378830155713072,0.4662071,50.849909999999994
437,437,437,437,437,Chelmsford,0.8573101265960353,0.01,0.016339577696306666,0.2906322229497515,0.02187226616484398,0.13096615517137355,0.4685497,51.73559
438,438,438,438,438,Mildenhall,0.27665922273920585,0.5828485297077677,0.1517683979527345,0.1702571963067084,0.010157909665820171,0.6705981908525829,0.5156095,52.34757000000001
439,439,439,439,439,Medway,0.4830842291187835,0.29260957331360005,0.04444582787578629,0.2267729243007696,0.01,0.4826331986358313,0.5417860999999999,51.404740000000004
440,440,440,440,440,Braintree,0.3220564715436056,0.01,0.01,0.5183961341983389,0.042935206413088726,0.44798543920130224,0.5509269,51.88009
441,441,441,441,441,Gillingham,0.4735795930025053,0.3099078830282258,0.047073346107688166,0.23110824446671785,0.01,0.4873619800791753,0.551438,51.38632
442,442,442,442,442,Hastings,0.15754587753210542,0.01,0.01,0.3270027417241625,0.015631660915364026,0.7098030451428419,0.573453,50.85426
443,443,443,443,443,Maldon,0.4106633500108029,0.01,0.03579050632841828,0.3701062307832855,0.019163762748403014,0.4641221283660652,0.6714479999999999,51.731809999999996
444,444,444,444,444,Southend,0.9085510685738308,0.06543773707634402,0.014909462204377447,0.2256670542134621,0.019957906831670168,0.1242692682118212,0.7077123000000001,51.54593
445,445,445,445,445,Bury St Edmunds,0.3818507861335151,0.28002069866002416,0.06380046452774203,0.18589798914229666,0.01,0.5930750362891424,0.7104931999999999,52.24292
446,446,446,446,446,Thetford,0.3029514730412305,0.6549636795141242,0.04974273592602557,0.13155135966784773,0.013317191248890234,0.6785960477303513,0.751657,52.412859999999995
447,447,447,447,447,Ashford,0.34171383062014704,0.17841007854147842,0.0406493017903546,0.31206934006189235,0.027206711581066103,0.5482341257434046,0.8750190000000001,51.14647
448,448,448,448,448,Faversham,0.3596744611267442,0.26452698461417035,0.04018022977081848,0.2575776522438141,0.01,0.5712268079726219,0.889358,51.31599
449,449,449,449,449,Colchester,0.42321835892482257,0.01,0.01,0.3813967437118901,0.07103648657741363,0.4298303225894775,0.891874,51.89593
450,450,450,450,450,New Romney,0.2848855088598966,0.01,0.01,0.3412357845700116,0.06144050091154664,0.5746897708465074,0.939473,50.98512
451,451,451,451,451,Canterbury,0.3287263145951261,0.01,0.01,0.3318214405310017,0.04854083299595493,0.5480306179348099,1.0789089,51.280229999999996
452,452,452,452,452,Ipswich,0.4083330109128817,0.01,0.01,0.26601136607879994,0.05896542482841955,0.5141547081161503,1.14822,52.05674000000001
453,453,453,453,453,Clacton,0.5068016079578873,0.01,0.01,0.3215548387665962,0.08017492724331875,0.3896353103068566,1.153035,51.78953
454,454,454,454,454,Folkestone,0.2865719344661956,0.01,0.01,0.3317775202656542,0.048684054829276326,0.583877593383258,1.169456,51.0814
455,455,455,455,455,Sheringham,0.2197400001478062,0.459665474452943,0.01,0.3038359205374357,0.10013837257498846,0.6248459353385385,1.2109589,52.944419999999994
456,456,456,456,456,Harwich,0.4083330109128817,0.01,0.01,0.29171379944050563,0.05896542482841955,0.4992790273362788,1.260297,51.93473
457,457,457,457,457,Norwich,0.29536653553935577,0.412527227703504,0.01,0.2639833622107479,0.08986928132584422,0.5888479940975335,1.297355,52.63089
458,458,458,458,458,Cromer,0.2339250074663881,0.4417150794042232,0.01,0.2832293887053444,0.09622786799198102,0.6267193172202019,1.301866,52.93145
459,459,459,459,459,Dover,0.30682677848932466,0.01,0.01,0.3342180677614895,0.04800418974599965,0.5654997282245716,1.3134027,51.12788
460,460,460,460,460,Felixstowe,0.4090593481136664,0.01,0.01,0.2991400322542245,0.058682315078443126,0.4944769830818407,1.3512549999999999,51.961729999999996
461,461,461,461,461,Margate,0.3740645278525623,0.01,0.01,0.30811555722286343,0.045869009079510914,0.5242398150817045,1.3868339,51.38965
462,462,462,462,462,Ramsgate,0.3644186063698399,0.01,0.01,0.29215312995501463,0.046293697996142184,0.5415172580171901,1.4198950000000001,51.33555
463,463,463,463,463,Great Yarmouth,0.30391034421897223,0.4884812834587837,0.01,0.29298390702661586,0.10641591215779868,0.5562419730045038,1.728047,52.59823000000001
464,464,464,464,464,Lowestoft,0.3052202551918025,0.4898460761825981,0.01,0.2990854355924971,0.11951882065670676,0.5462730504969473,1.7534490000000005,52.48114
465,465,465,465,465,Swaffham,0.3525608950797479,1.0,0.01,0.18718612513427005,0.040665434329944544,0.5900120587626949,0.687481,52.64747
466,466,466,466,466,Dereham,0.2433533494847865,0.4704581539655346,0.01,0.27495243249864365,0.10248956482479253,0.6202496189778799,0.9378270000000001,52.681619999999995
467,467,467,467,467,Ely,0.2355135331818464,0.619823896084239,0.16139644551832255,0.18204080531482514,0.010802317165766474,0.6965879880811026,0.262363,52.39954
468,468,468,468,468,March,0.5348459706935024,0.3443447271239577,0.3138247087206976,0.14077698081994974,0.07351537141054038,0.4306909756127341,0.088622,52.551719999999996
469,469,469,469,469,St Neots,0.3350808956535839,0.5373460415435705,0.01,0.3398591048116536,0.01,0.544332696045547,-0.26510300000000003,52.23008
470,470,470,470,470,Banham,0.27627823044643124,0.3826644033631084,0.01,0.2521816608662508,0.07336000924388666,0.6193249534984657,1.0402849,52.45125
471,471,471,471,471,Holt,0.22700493716278985,0.4406050075140391,0.01,0.2770963423944612,0.09598603849200116,0.6362838142099515,1.086747,52.90936
472,472,472,472,472,Cromer,0.2339250074663881,0.4417150794042232,0.01,0.2832293887053444,0.09622786799198102,0.6267193172202019,1.301866,52.93145
473,473,473,473,473,Hunstanton,0.3799684738006936,0.309638284694578,0.01,0.09819586801723718,0.0849931316595839,0.6172946855970861,0.49103199999999997,52.93891
474,474,474,474,474,Horncastle,0.3011478892618339,0.21895742747767247,0.01,0.3578947348232468,0.060101991578324826,0.5463551936487799,-0.11245,53.20731
475,475,475,475,475,Market Weighton,0.19329603109843066,0.01,0.036405723161416464,0.4370104760381389,0.17706302806857807,0.5466082833598325,-0.6677465,53.86484
476,476,476,476,476,Hawes,0.13613649296681446,0.01,0.09062086427563053,0.3898637653463608,0.01,0.6881598046917056,-2.1968695,54.30383000000001
477,477,477,477,477,Reeth,0.22707697096346616,0.7116548291358196,0.01,0.3583223660530999,0.021704814081524595,0.612521132435851,-1.9428115000000001,54.38946
478,478,478,478,478,Aysgarth,0.22969705374364915,0.4388740179009085,0.01,0.3982161595634108,0.02677050383110245,0.5918728601616441,-1.9967433999999997,54.29159
479,479,479,479,479,Stanhope,0.17221029870334806,0.35138997477106604,0.01,0.4187198271932545,0.02143413891488049,0.6332437775637446,-2.011302,54.74946
480,480,480,480,480,Keswick,0.16698813072504606,0.4873873814575075,0.01,0.1385108357751594,0.06689189191109234,0.7781690883479194,-3.134706,54.60128
481,481,481,481,481,Oxenholme,0.19447900260356324,0.01,0.04887645050045585,0.1903281821958368,0.026170536331152454,0.7479355982889064,-2.7243327999999996,54.30134
