index,placename,longitude,latitude,aint,arent,ent,innit,int,isnt
0,Dingle,-10.264013499999999,52.14094,0.028525978586774827,0.029495822436895056,0.01,0.032409836091445245,0.01,0.11981444821037658
1,Tralee,-9.6999325,52.27131,0.05744560621867877,0.04045192877084031,0.01,0.05220122994679294,0.012234056597467376,0.19989907330812393
2,Killarney,-9.5044265,52.059940000000005,0.10743479265994607,0.051956978845053306,0.01,0.08643454783303023,0.015713579343088747,0.3268607254067419
3,Bantry,-9.4539805,51.68035,0.041074653365968654,0.027268983326592222,0.01,0.029788296461624435,0.01,0.12909609986440213
4,Mayo,-9.4289369,54.01526,0.05039151212899274,0.01,0.01,0.07420818655572196,0.01,0.18406559263559608
5,Ballycastle,-9.3724643,54.279669999999996,0.01,0.01,0.01,0.01,0.01,0.01494903376200119
6,Abbeyfeale,-9.2970823,52.386179999999996,0.01,0.013191129349127199,0.01,0.01,0.01,0.01631802787313739
7,Ennistymon,-9.2934951,52.940369999999994,0.01,0.015054779776530984,0.01,0.01,0.01,0.015727902956048583
8,Galway,-9.0567905,53.270669999999996,0.13934317279909728,0.01,0.01,0.18098764027451558,0.032983734156749996,0.4388474917516878
9,Claremorris,-9.0017356,53.72388,0.07859318263126332,0.17309857842262735,0.01,0.11117082107765984,0.01,0.2921356284709388
10,Clare,-8.9811351,52.90453,0.0779091225863631,0.05808418431858838,0.01,0.0904448119239482,0.017566656543149543,0.28932710722153265
11,Adare,-8.7925892,52.56363,0.02914175201617725,0.024886567392906813,0.01,0.02728460646880029,0.01,0.10845178772764133
12,Charleville,-8.681017599999999,52.36206,0.01,0.01232670271506726,0.01,0.01,0.01,0.015615171185830268
13,Mallow,-8.6539164,52.13898,0.05546997574124699,0.03257179597082438,0.01,0.040333826704462186,0.01,0.1647040690946808
14,Limerick,-8.6267343,52.66384,0.11911744742851463,0.06822123108608628,0.01,0.12305050612077131,0.020632446357151647,0.42284402233005375
15,Loughrea,-8.5660931,53.19891,0.01,0.01,0.01,0.010553639799664425,0.01,0.013847498579316603
16,Sligo,-8.476088800000001,54.27661,0.10050992798717256,0.19931824480462007,0.01,0.10795454583502723,0.01,0.305496237340993
17,Cork,-8.4756035,51.898509999999995,0.18203788482055838,0.0810754695296598,0.01,0.1519801272523183,0.02452001232713219,0.5396854470566295
18,Nenagh,-8.19834,52.8635,0.059748177019839935,0.01,0.01,0.06447721605384547,0.014196384374738216,0.22309820506789674
19,Roscommon,-8.1890955,53.627590000000005,0.06624348416519009,0.15239414004090016,0.01,0.09593433703463389,0.01,0.22916515922144307
20,Tipperary,-8.161851400000002,52.47379,0.10075850082066423,0.05118045688567915,0.01,0.07929494118900206,0.015478734549329945,0.3027032981814709
21,Donegal,-8.1096143,54.653830000000006,0.13513691787315535,0.3361180955910273,0.01,0.09746554025833508,0.01,0.33478861641880053
22,Leitrim,-8.0020132,54.12469,0.08274622019799471,0.31734534358203514,0.02530726716498727,0.07469424519543326,0.01,0.19292371457859137
23,Athlone,-7.9406898,53.423930000000006,0.0662257443848093,0.1277987787170959,0.01,0.08734417948792958,0.012883584202728728,0.20435969767944084
24,Longford,-7.7932573000000005,53.727630000000005,0.07809929160373885,0.29441388799610285,0.023478557575475966,0.09567944699639115,0.01,0.2181416346343026
25,Offaly,-7.7122229,53.235690000000005,0.11413518315484744,0.14892787255894305,0.01,0.11081900469224353,0.022520458212469417,0.2805049596317439
26,Fermanagh,-7.6318728,54.343830000000004,0.07111126355198671,0.16328115689933284,0.01,0.04830163959244512,0.01,0.15396553615312564
27,Enniskillen,-7.631533599999999,54.343819999999994,0.09343708706494518,0.20010864726587793,0.01,0.06521117090952756,0.01,0.20640617665919334
28,Doon,-7.60964,54.185930000000006,0.04340282498621721,0.34412134779775877,0.018295044352586234,0.04393639875330398,0.01,0.10510843894287078
29,Westmeath,-7.4653217000000005,53.534530000000004,0.09211909263125771,0.16697468681548827,0.01,0.09007194371376365,0.01,0.20234518108398047
30,Strabane,-7.4633103,54.82739,0.0778723138985845,0.2736216844386992,0.01,0.05071401788350152,0.01,0.22509263071950633
31,Balivanich,-7.3743509000000005,57.472269999999995,0.01613116814257952,0.01,0.01,0.013378445124093823,0.015966100547077002,0.025530628491456438
32,Cavan,-7.3633319,53.98972,0.09371353549292553,0.6876502900970597,0.036558593844489964,0.10069323465173861,0.01,0.24505778860898533
33,Mullingar,-7.340186800000001,53.525819999999996,0.08969878118491158,0.1508788183663097,0.01,0.09287454857417998,0.01,0.19600924472845366
34,Laois,-7.332300699999999,52.9943,0.13217848461544804,0.01,0.01,0.10778960515773015,0.03008365863348374,0.266576342094918
35,Omagh,-7.309959700000001,54.59771,0.09142685116823113,0.2970455396345593,0.01,0.06623357841386653,0.01,0.23732654406486484
36,Derry,-7.308574799999999,54.99661,0.1333691117390355,0.45272921250434606,0.01,0.08781100044348877,0.01,0.38562434211029606
37,Derry,-7.308574799999999,54.99661,0.1333691117390355,0.45272921250434606,0.01,0.08781100044348877,0.01,0.38562434211029606
38,Kilkenny,-7.2447879,52.65415,0.14542329340308668,0.01,0.01,0.09582699967963042,0.024439466243355863,0.31963229060347026
39,Tyrone,-7.131232000000001,54.491209999999995,0.055440101378910096,0.2498742815094721,0.01,0.03651548147382783,0.01,0.16787649923574285
40,Waterford,-7.110070200000001,52.25932,0.1435001887416328,0.01,0.01,0.10070642972230234,0.020789109226230864,0.36673761630412377
41,Western Isles,-7.0194034,57.759890000000006,0.06567012476098018,0.01,0.01,0.06522155686998518,0.03163889667974092,0.13310755161590163
42,Monaghan,-6.9683132,54.2492,0.08355134613255798,0.8168962988528012,0.0434298959566803,0.0784257305091861,0.01,0.23962793034174673
43,Carlow,-6.934135899999999,52.83651,0.13368581608421523,0.01,0.01,0.08861815704461168,0.01,0.2884956549569913
44,Kildare,-6.8194707999999995,53.21204,0.10858642179729736,0.08154500658537499,0.01,0.11788818986988213,0.01,0.3784326306846551
45,Dungannon,-6.7669352,54.508269999999996,0.03829824725255008,0.2910787895320603,0.01,0.04209237562738798,0.01,0.17697869115179599
46,Cookstown,-6.7443895000000005,54.641819999999996,0.05568506129355352,0.3802342975354105,0.01,0.04797233106698893,0.01,0.22626707776644644
47,Coleraine,-6.6646103000000005,55.132580000000004,0.10409173644171268,0.01,0.01,0.06729098757536835,0.01,0.3353309723116673
48,Meath,-6.656416900000001,53.60555,0.09172090753164694,0.21735265349756222,0.011555448519676133,0.10976988248430168,0.01,0.32718122460889265
49,Armagh,-6.652792,54.350280000000005,0.06454769402128212,0.3387872257663937,0.01,0.06914367365591562,0.01,0.24568769933234028
50,Armagh,-6.652792,54.350280000000005,0.06454769402128212,0.3387872257663937,0.01,0.06914367365591562,0.01,0.24568769933234028
51,Magherafelt,-6.607980499999999,54.75536999999999,0.05112385384876422,0.41699521406748025,0.01,0.04963897213731214,0.01,0.24732424268010214
52,Dunvegan,-6.581398200000001,57.4366,0.01,0.01,0.01,0.01,0.014055943593016521,0.011876203879083199
53,Louth,-6.4889423,53.925230000000006,0.11778869071377353,1.0,0.053164514692135095,0.14634523446458061,0.01,0.313932081085637
54,Wexford,-6.4633381,52.33692,0.15656208440622948,0.01,0.01,0.11312845290348914,0.018898388261925535,0.3371336118576466
55,Craigavon,-6.4175653,54.442930000000004,0.07038114874446784,0.42651790437771425,0.01,0.0685055746666352,0.01,0.28947713459418334
56,Stornoway,-6.384869200000001,58.209430000000005,0.09614895887234981,0.01,0.01,0.0904085128992362,0.041248427436068304,0.20180542472110383
57,Drogheda,-6.3560985,53.717859999999995,0.06358160539787873,0.17420955980009745,0.01,0.07920970884491646,0.01,0.2407482054598041
58,Rosslare,-6.3414908,52.25131,0.014900684623297866,0.01,0.01,0.01,0.01,0.013042718700802172
59,Newry,-6.34023,54.1751,0.08666005982307252,0.8396872201609518,0.06696234527618362,0.1032427301474711,0.01,0.27558401965210494
60,Scilly Isles,-6.327496599999999,49.92773,0.09160769852601354,0.11607812721435773,0.01,0.09743447490083625,0.01,0.12938835781510263
61,Ballymena,-6.2802213,54.86529,0.06538709489839029,0.2600093604629031,0.01,0.0602253549854571,0.01,0.2806081848230495
62,Banbridge,-6.2704803,54.34873,0.050607165717789435,0.39833445798437106,0.01,0.05691521442451589,0.01,0.2349240123532815
63,Dublin,-6.2603097000000005,53.34981,0.213853505035337,0.15422704460143843,0.01,0.24735016210975116,0.01,0.7648051742197044
64,Antrim,-6.2072498,54.719530000000006,0.08007908533087438,0.48787399388343033,0.01,0.07830105273761058,0.01,0.30451106546449763
65,Antrim,-6.2072498,54.719530000000006,0.08007908533087438,0.48787399388343033,0.01,0.07830105273761058,0.01,0.30451106546449763
66,Portree,-6.1960231,57.41246999999999,0.0926844289172895,0.01,0.01,0.08016035395094448,0.04374128193852638,0.1978580442299345
67,Islay,-6.177067,55.73625,0.07827313174606236,0.01,0.01,0.12454162465027559,0.2588899285988169,0.11564348934615544
68,Wicklow,-6.044589,52.980819999999994,0.09037393000392581,0.07508163603094087,0.01,0.10473159313608345,0.01,0.32983460085080485
69,Kilkeel,-6.007004,54.06312,0.03973747380070079,0.36311644288901296,0.0165470655108781,0.03949168200329628,0.01,0.14649452937983312
70,Mull,-6.0008870000000005,56.4392,0.12368077347340119,0.01,0.01,0.12575452242366222,0.24987162276315714,0.10918883106544022
71,Belfast,-5.93012,54.597280000000005,0.15820862168811298,0.5187927208303232,0.01,0.1731780994797815,0.01,0.6204916544215054
72,Broadford,-5.9096592,57.24139,0.013073920681088572,0.01,0.01,0.01,0.014335571155110093,0.01147934105409295
73,Down,-5.7156921999999994,54.32875,0.07387174965746915,0.291886464117056,0.01,0.08253268667247511,0.01,0.31024727446976647
74,Kyle of Lochalsh,-5.7143293,57.28261,0.011532613995378693,0.01,0.01,0.01,0.014297646265040697,0.011523750215681548
75,Campbeltown,-5.605373999999999,55.424119999999995,0.07201509569087099,0.01,0.01,0.17714337008669312,0.38433099111806734,0.11507303715820305
76,Penzance,-5.537592,50.1188,0.16886601140489044,0.19113552764329303,0.01,0.17768163077952331,0.01,0.2609807170286254
77,Oban,-5.471047,56.41516,0.179848820927227,0.01,0.01,0.19739344230287845,0.337269619522454,0.1655981655165792
78,Lochgilphead,-5.4323449,56.03829,0.10071410412243109,0.01,0.01,0.12179317070997943,0.27290123396704413,0.07527223275094366
79,Helston,-5.274996,50.10159,0.1241902744048359,0.14558886336024013,0.01,0.12898569534953075,0.01,0.1770292776856233
80,Redruth,-5.226666000000001,50.23302,0.1382428046962116,0.16138470720507297,0.01,0.14802157060286142,0.01,0.2076511649771106
81,Ullapool,-5.161313,57.895419999999994,0.06747201389539277,0.01,0.01,0.06263966659145812,0.031710866501363885,0.13400677958971657
82,Ballachulish,-5.133719999999999,56.673930000000006,0.040861982105843464,0.01,0.01,0.023372442529871022,0.05861724859666427,0.01
83,Fort William,-5.1052179,56.81981999999999,0.18211021851418188,0.01,0.01,0.1078147345829988,0.09451757049178013,0.1877345361931442
84,Achnasheen,-5.078765799999999,57.578590000000005,0.011152565845705665,0.01,0.01,0.012623806437898951,0.01342735472662469,0.010950660558990483
85,Newquay,-5.0737190000000005,50.4155,0.08997912999135799,0.2844945053794212,0.01,0.15633442509106354,0.01,0.26960619675416003
86,Falmouth,-5.066269999999999,50.152570000000004,0.18353950850872572,0.2024107250051129,0.01,0.18973642433729554,0.01,0.27617019623145844
87,Rothesay,-5.055793,55.83596,0.14393236357213393,0.01,0.01,0.20961791079915962,0.4437378759696294,0.14375172282701734
88,Truro,-5.051041000000001,50.2632,0.257482387275325,0.2772274223128326,0.01,0.27341583079433895,0.01,0.4130800275754078
89,Milford Haven,-5.0426971,51.71431,0.20217965205779645,0.35232611863808183,0.01,0.10286535874276478,0.01,0.15072479289890384
90,Stranraer,-5.024055000000001,54.903369999999995,0.06054957244941915,0.19666403355063908,0.01,0.07395363582928347,0.05947797512141247,0.19255506415974225
91,Fishguard,-4.975989,51.99393,0.12734402073536652,0.2182932030396364,0.01,0.07247123896765674,0.01,0.11237855157589068
92,Inchnadamph,-4.974295,58.15221,0.012331829313822278,0.01,0.01,0.012167545080398435,0.013371984257415127,0.010823862683478246
93,Haverfordwest,-4.971319,51.800470000000004,0.220454364226502,0.3870515723119869,0.01,0.11692021565240077,0.01,0.17389951695567524
94,Dunoon,-4.926214,55.95097,0.13732503403832952,0.01,0.01,0.1848494433579198,0.378102623927829,0.12621904465069034
95,Pembroke,-4.908637000000001,51.674040000000005,0.28948381121146644,0.2416139561360379,0.01,0.1558156978427278,0.01,0.2416808496832075
96,Girvan,-4.8542179,55.240159999999996,0.08075041213653714,0.01,0.01,0.2202165540294005,0.5383643290183958,0.11100604646575185
97,Wadebridge,-4.836456,50.51665,0.1485379585760165,0.01,0.01,0.13512665689300002,0.01,0.1963828807392008
98,Invergarry,-4.800261,57.07095,0.010920695470393125,0.01,0.01,0.014146917982139042,0.014606784615247623,0.010584461202716179
99,St Austell,-4.7834252,50.340379999999996,0.1662574421113258,0.01,0.01,0.15241166421874977,0.01,0.21703919204569705
100,Greenock,-4.7719830000000005,55.956480000000006,0.22055815590136177,0.01,0.01,0.3044368515257661,0.5313018621349653,0.23864923445420014
101,Helensburgh,-4.734014,56.00232,0.14419569836108778,0.01,0.01,0.2005189213874631,0.36799174283826686,0.13922768986196407
102,Bodmin,-4.7188629,50.4715,0.14170442763214264,0.01,0.01,0.12115749565825007,0.01,0.1770680947649764
103,Tenby,-4.703579,51.672740000000005,0.2396729966526751,0.18452891457616016,0.01,0.11638449247882562,0.01,0.17084898223110692
104,Camelford,-4.682364,50.62206,0.10464026035082227,0.01,0.01,0.07998938178547943,0.01,0.11826890806760246
105,Irvine,-4.6696364,55.61156999999999,0.17462438663684293,0.01,0.01,0.3541308998061607,0.8541735617271903,0.25101440618253135
106,Cardigan,-4.660864,52.0837,0.11439148021535318,0.189635476914057,0.01,0.08500969271293196,0.01,0.1548463528466779
107,Holyhead,-4.633038,53.30944,0.06601186891101789,0.176993688726046,0.01,0.15196184344158006,0.01,0.17208110853122727
108,Ayr,-4.629179,55.45856,0.16791329178385825,0.01,0.01,0.3785922234878769,1.0,0.27602847294795974
109,Dumbarton,-4.564554,55.94529,0.16170575401144266,0.12587511836548523,0.01,0.3369647332695667,0.3921897063151746,0.22558627647238638
110,Bude,-4.543678,50.826640000000005,0.162435555263367,0.01,0.02415388338151902,0.1322193476392255,0.011450252938554024,0.18353108805238297
111,Isle of Man,-4.5126330999999995,54.27697,0.19100809414993877,0.4002474964266837,0.01,0.12558885504149664,0.04034954130499266,0.35514077625245144
112,Kilmarnock,-4.498792,55.61472,0.15790222779747154,0.01,0.01,0.3236638644527826,0.8086374366578837,0.238985277885598
113,Newton Stewart,-4.483164,54.9603,0.07953235049650464,0.21584422821543447,0.01,0.1423370780915385,0.362659589120039,0.10109889099247373
114,Liskeard,-4.4647190000000005,50.45552,0.1553277348106413,0.01,0.01,0.12780027100722946,0.01,0.19532139317951408
115,Altnaharra,-4.442655,58.28023,0.01,0.01,0.01,0.013152848336162957,0.013711231314726376,0.0116007132792716
116,Pwllheli,-4.417633900000001,52.888819999999996,0.06656370430487954,0.10561338686319674,0.01,0.09327412671458317,0.01,0.16264003004926533
117,Lairg,-4.402414,58.022059999999996,0.010121480151949545,0.01,0.01,0.013845654775172418,0.013539483002841178,0.010872971227245537
118,Launceston,-4.360451599999999,50.636829999999996,0.18347625074255028,0.01,0.01,0.13123545842979442,0.01,0.1639485610474214
119,Carmarthen,-4.312131,51.857620000000004,0.28902983063997817,0.5089636047097035,0.01,0.14972914664537698,0.01,0.23021698132499707
120,Llangefni,-4.311401999999999,53.255790000000005,0.08276695643686512,0.22122153344678464,0.01,0.19954318689221037,0.011150834772304349,0.2399957873965947
121,Caernarfon,-4.273911,53.13955,0.08603229542998207,0.22105188057558156,0.01,0.1728921929544327,0.011142283294037486,0.22521867666335976
122,Cumnock,-4.265828900000001,55.45355,0.13352074345203202,0.01,0.01,0.21615715126890106,0.6512904130885367,0.1776750399842244
123,Aberaeron,-4.2581619,52.24279,0.09326752827362236,0.24594333245821898,0.01,0.08080103333231592,0.01,0.1411546999913116
124,Alness,-4.256825,57.69595,0.10023515464241253,0.01,0.01,0.1016485977350278,0.03994447909541183,0.19511395071353013
125,Glasgow,-4.251806,55.86424,0.35934658819307036,0.26718489576925114,0.01,0.7285192155616038,0.7920662517001433,0.5729416938686289
126,Dalwhinnie,-4.242783,56.9366,0.020864536709118794,0.01,0.01,0.015157098188965129,0.01,0.01
127,Inverness,-4.224721,57.47776999999999,0.17225958191494717,0.01,0.01,0.20093572783735522,0.06547062302056417,0.35812936333912965
128,Saltash,-4.21643,50.409209999999995,0.16646000784271747,0.01,0.01,0.14134546477025295,0.01,0.16918595814393142
129,Bideford,-4.206666,51.01668,0.10976935796249755,0.01,0.02526483371915414,0.12529699170536468,0.011976904050306896,0.22225178813054924
130,Invergordon,-4.1728819999999995,57.688109999999995,0.09991028454852731,0.01,0.01,0.10482985146277611,0.03984318557720212,0.198356924421202
131,Llanelli,-4.160248,51.680890000000005,0.35412298437536677,0.5174656463920346,0.01,0.18424064739279664,0.01,0.25972999572708855
132,Plymouth,-4.1426565,50.37546,0.36590280725090046,0.01,0.01,0.3141333300927026,0.01,0.41791708813343426
133,Tavistock,-4.141654,50.551120000000004,0.18660960822484063,0.01,0.01,0.1585899385533436,0.01,0.2009679716670342
134,Porthmadog,-4.1333839999999995,52.92784,0.08653305193229516,0.2220236733950995,0.01,0.16490488028378444,0.01119126722880423,0.19581249627129316
135,Bangor,-4.129263,53.22739,0.11711870462495719,0.2657473059041216,0.01,0.25922074806508016,0.013395189216671396,0.31284370855052057
136,Tywyn,-4.087249,52.58701,0.06674715483732,0.01,0.01,0.04755202018524124,0.01,0.11060086219961983
137,Aberystwyth,-4.08292,52.4153,0.1619895593817003,0.4107399161611541,0.01,0.12912476143009854,0.010351824033236312,0.2928632895238738
138,Lampeter,-4.0785089999999995,52.1129,0.09184139293667903,0.2289582241632802,0.01,0.08379014549670388,0.01,0.16218849948081715
139,Barnstaple,-4.058338,51.07816,0.15390517489738031,0.01,0.032515386905678095,0.15534258721348926,0.015414060248996162,0.2930381146398786
140,Tain,-4.05523,57.8115,0.0640300469688126,0.01,0.01,0.06883120537930901,0.0305661143000484,0.12844809699908422
141,Okehampton,-4.004263,50.73831,0.08833769907221732,0.01,0.018436842983628503,0.09268844994121773,0.01,0.15575744463195432
142,Llandeilo,-3.9914300000000003,51.88469,0.26109014627675775,0.42291480144061605,0.01,0.13726052668398578,0.01,0.18591545834092854
143,Motherwell,-3.9810968,55.78321,0.21743760097768172,0.16537554234606794,0.01,0.43869519635861354,0.5392270110600935,0.3287447547631899
144,Golspie,-3.976086,57.97341,0.01,0.01,0.01,0.014101007402474365,0.013049119531915124,0.011502859325814477
145,Airdrie,-3.9625660000000003,55.86626999999999,0.22257292360036712,0.3349655999120216,0.01,0.3459451934231033,0.590946598235727,0.27139292630258377
146,Swansea,-3.9436459999999998,51.62144,0.5604824546079494,0.3790484205720881,0.01,0.2848402691498843,0.01,0.4096687817676109
147,Stirling,-3.9369029,56.116519999999994,0.26142927615485345,0.01,0.01,0.2293908871792616,0.13709222408107033,0.35478573371575894
148,Tregaron,-3.934385,52.22,0.09532029188301791,0.2580508972766826,0.01,0.07292667440205533,0.01,0.15852480905990401
149,Tregaron,-3.934385,52.22,0.09532029188301791,0.2580508972766826,0.01,0.07292667440205533,0.01,0.15852480905990401
150,Castle Douglas,-3.9314139999999997,54.940419999999996,0.08467447808482521,0.34340685018296674,0.01,0.10529907073195899,0.21060105953404756,0.14389466222798142
151,Dolgellau,-3.8844,52.74215,0.0662128660758315,0.01,0.01,0.05206401795010747,0.01,0.12062043470610931
152,Aberfeldy,-3.866969,56.62175,0.10674559170177385,0.01,0.01,0.12611151048731825,0.01,0.1900053766561124
153,Machynlleth,-3.853485,52.59027,0.09641490313192637,0.01,0.01,0.07543227930944817,0.01,0.1503906369658448
154,Brora,-3.8525480000000005,58.012159999999994,0.04559430210142405,0.01,0.01,0.05661431023103216,0.026655962573943086,0.10539340750610536
155,Llandudno,-3.827609,53.324059999999996,0.08316398292396054,0.21548553005826274,0.01,0.2252242520006468,0.010861707285290652,0.2637193045635273
156,Llandudno,-3.827609,53.324059999999996,0.08316398292396054,0.21548553005826274,0.01,0.2252242520006468,0.010861707285290652,0.2637193045635273
157,Aviemore,-3.823812,57.19449,0.08478272311629259,0.01,0.01,0.10870654699237664,0.03944018142225797,0.16892607552523645
158,Dalbeattie,-3.8225269999999996,54.934219999999996,0.06271610344864763,0.28633860452088267,0.01,0.06526667325575597,0.12508694242845098,0.10336467460506948
159,Falkirk,-3.7839131,56.00188000000001,0.3141084971965737,0.01,0.07795489349148067,0.23027381554095405,0.18477427943366717,0.3408982264220144
160,Kingsbridge,-3.777493,50.28395,0.14963200201459448,0.01,0.01,0.1324508057821949,0.01,0.18560192698464195
161,Pitlochry,-3.729711,56.70436,0.05877326836177178,0.01,0.01,0.07478202909428347,0.01,0.13717265700105802
162,Colwyn Bay,-3.72764,53.29318000000001,0.07536268483396447,0.2085233820052405,0.01,0.2004345571496849,0.010510775070917197,0.24341795314277753
163,Totnes,-3.685797,50.43374,0.15497763996142358,0.01,0.01,0.13724275703371372,0.01,0.19424940840245733
164,Grantown-on-Spey,-3.609628,57.33041,0.05764362881909683,0.01,0.01,0.07043824652313065,0.029422837990694,0.11460079518014454
165,Dumfries,-3.60512,55.070859999999996,0.1555437482291457,0.6286887972226535,0.01,0.1479939195003095,0.27464253578815484,0.2712994195399494
166,Whitehaven,-3.589233,54.5497,0.14658139922494082,0.35192584299574603,0.01,0.10018117740745838,0.06060853113332486,0.24686846394052114
167,Dartmouth,-3.578807,50.35252,0.12929932758327672,0.01,0.01,0.1148871613697994,0.01,0.15594104107925086
168,Bridgend,-3.576945,51.504290000000005,0.5831308115259354,0.01,0.01,0.2296575290324177,0.01,0.2797198204220247
169,Paignton,-3.564235,50.43508,0.21505353122803395,0.01,0.01,0.1933054119006836,0.01,0.2878419732651046
170,Workington,-3.5427519999999997,54.64357,0.13167471836470018,0.3765366305237951,0.01,0.09965595691815207,0.08382659756101307,0.2443071683889884
171,Llanidloes,-3.5401949999999998,52.447790000000005,0.09461215524208696,0.01,0.01,0.07923595483172742,0.01,0.12612978753392254
172,Exeter,-3.533899,50.71841,0.2423349524992869,0.01,0.01,0.27857184478895053,0.01745008149242259,0.49485873314145024
173,Torquay,-3.525315,50.46192,0.16970012099283882,0.01,0.01,0.18478145178741648,0.011734027316038077,0.3079605797306549
174,Thurso,-3.5220800000000003,58.59356999999999,0.07963751027904142,0.01,0.01,0.08430412466380607,0.050185183669393216,0.18415355741422462
175,Livingston,-3.518068,55.90071,0.2788476819222783,0.01,0.0643424060010611,0.2677311747862055,0.10167265490858311,0.33717637529043776
176,Rhyl,-3.4916339999999995,53.319140000000004,0.04713774450000964,0.01,0.01,0.16043243791564862,0.01857826948962561,0.25341180201272995
177,Tiverton,-3.491207,50.90205,0.11152144102540351,0.14996063682480051,0.023917753810531694,0.13482396486702322,0.015117753908278032,0.21689469785596377
178,Tiverton,-3.491207,50.90205,0.11152144102540351,0.14996063682480051,0.023917753810531694,0.13482396486702322,0.015117753908278032,0.21689469785596377
179,Minehead,-3.481152,51.20428,0.199962146569291,0.2345862553466196,0.01,0.11809033350770493,0.01,0.14269355615180812
180,Dunfermline,-3.452151,56.071740000000005,0.170862667106757,0.0924537909209589,0.04423735182856505,0.1788159480240843,0.04427191885977774,0.35886633804587803
181,Perth,-3.4308381000000003,56.39499,0.10318369182871207,0.01,0.01,0.1255224894353028,0.01,0.2356560853897657
182,Prestatyn,-3.4076129999999996,53.33651,0.042320896047356095,0.01,0.01,0.12690209852502757,0.01408806804019128,0.21677306888668926
183,Builth Wells,-3.4045919999999996,52.15002,0.37206411779173326,0.45108854458721653,0.01,0.07538920671859849,0.01,0.13579512983578593
184,Braemar,-3.3979439,57.00646999999999,0.016626514779594263,0.01,0.01,0.01913131717061141,0.01,0.01
185,Brecon,-3.391463,51.94895,0.4620325623095891,0.3780697888211687,0.01,0.12428041050613346,0.01,0.15081192711558672
186,Merthyr Tydfil,-3.381646,51.74873,0.781028931402371,0.01,0.01,0.2066256311385411,0.01,0.30847694837933537
187,Llandrindod Wells,-3.377742,52.2417,0.1375643029984676,0.2480896069659074,0.01,0.08971820912374205,0.01,0.1485087147180986
188,Corwen,-3.369242,52.98005,0.14402079524294897,0.01,0.01,0.08436214067080702,0.01,0.10154110675904567
189,Cockermouth,-3.367985,54.66326,0.09532921582315997,0.31017584494593187,0.01,0.07016818494993349,0.06905300336139526,0.1827741486458004
190,Lockerbie,-3.349008,55.122240000000005,0.11988489571789394,0.531786686436525,0.01,0.11723874585108078,0.14519429705611023,0.25293516088923085
191,Blairgowrie,-3.3378318,56.58941,0.0700470729396652,0.01,0.01,0.09428789055459512,0.01,0.18559259193637662
192,Elgin,-3.318485,57.64945,0.16799218928755552,0.01,0.01,0.1668286807896297,0.054285432690747065,0.3223269183945026
193,Newtown,-3.313106,52.51211,0.11294589060526593,0.01,0.01,0.09537035918625644,0.01,0.13013438252314333
194,Ruthin,-3.3103108,53.114869999999996,0.1802060129064178,0.01,0.01,0.15068010626546388,0.01,0.178091620287374
195,Ruthin,-3.3103108,53.114869999999996,0.1802060129064178,0.01,0.01,0.15068010626546388,0.01,0.178091620287374
196,Sidmouth,-3.2375599999999998,50.67865,0.09445773241645283,0.01,0.01,0.11072100972668207,0.01,0.20367784086836732
197,Barrow-in-Furness,-3.2188939999999997,54.10896999999999,0.2073281129279702,0.01,0.028450513378934675,0.17441112267825631,0.033717723484978666,0.2904037259537286
198,Peebles,-3.1936419999999996,55.65306999999999,0.09395721957633468,0.05093135495973126,0.0243696690578304,0.10980154431094849,0.02182147788070635,0.19428148289312214
199,Edinburgh,-3.1882669999999997,55.95325,0.27089347624463167,0.1389888472768394,0.022167824183494396,0.31985588236766893,0.045537930714481444,0.6590509138926569
200,Cardiff,-3.17909,51.48158,0.5041294147902183,0.01,0.03291702454921957,0.40900926916011604,0.010402972211099083,0.5462303326787871
201,Llangollen,-3.1716599999999997,52.96921,0.12056366768535064,0.01,0.01,0.10713173783225444,0.01,0.14132604755708883
202,Kirkcaldy,-3.158137,56.11682,0.16052012581538272,0.08465794920256511,0.013502396562219611,0.2005480196403417,0.02773710485099563,0.406734805306651
203,Welshpool,-3.146407,52.66035,0.2423196216464149,0.01,0.01,0.11295556484404061,0.01,0.1728013987645568
204,Mold,-3.1419029999999997,53.1672,0.1821891329876631,0.01,0.01,0.17898972880156241,0.011891784134080916,0.2847210832028891
205,Mold,-3.1419029999999997,53.1672,0.1821891329876631,0.01,0.01,0.17898972880156241,0.011891784134080916,0.2847210832028891
206,Taunton,-3.106849,51.01534,0.21711368986482668,0.43688542715288214,0.01,0.22141304229770503,0.022021532608991163,0.3068217842577029
207,Wick,-3.093716,58.43894,0.08737502945764843,0.01,0.01,0.08646205288642636,0.03871751579597418,0.17005374050607353
208,John o' Groats,-3.0688997000000002,58.63734,0.013781518845140665,0.01,0.01,0.012619520752830795,0.01399407131775002,0.010399657998539267
209,Dalkeith,-3.066606,55.893119999999996,0.13313537277964968,0.07879144660206389,0.012566727256603358,0.17012185780373598,0.02581501645086203,0.33252979907041874
210,Oswestry,-3.056412,52.85715,0.25545559805002405,0.01,0.01,0.16019790323853988,0.01,0.22955741275649186
211,Blackpool,-3.0356748,53.81751,0.29689162575985883,0.20392061094734737,0.016262012395914602,0.2909526110830857,0.04882415299678567,0.40745805531617174
212,Birkenhead,-3.023009,53.389990000000004,0.12495718083950665,0.13117527845726867,0.01569120942111725,0.26938741472070576,0.01074447982184345,0.4362861643387486
213,Cupar,-3.010137,56.32023,0.08759878577272946,0.01,0.01,0.09839239563229141,0.01097278724338544,0.18850490986167928
214,Southport,-3.010113,53.64571,0.21807294669238947,0.01,0.01,0.2430796323359831,0.026641316192816088,0.3387892048543692
215,Bridgwater,-3.003632,51.12789,0.3489244529071308,0.41551891144028896,0.01,0.27195440018438205,0.01,0.34136914947417474
216,Langholm,-2.998913,55.153059999999996,0.05531176857549531,0.14571945872491623,0.01,0.06205587218091404,0.079571882616089,0.11259238254953638
217,Newport,-2.997664,51.58415,0.5430742150110319,0.01,0.05348795223987713,0.24930914236938537,0.016904130564657283,0.3522311879911008
218,Axminster,-2.9949369999999997,50.78273,0.15190227099426803,0.27061570110400973,0.01,0.151608586120463,0.013640584272181629,0.20046130247930424
219,Wrexham,-2.9924939999999998,53.043040000000005,0.25879204490045005,0.01,0.01,0.22040807329343254,0.014107224053559278,0.3320450440183685
220,Liverpool,-2.9915726,53.40837,0.20006140359210994,0.19627560584081488,0.0234785181527447,0.4110917113447777,0.016076802600941076,0.6795666077824161
221,Weston-super-Mare,-2.977255,51.347409999999996,0.274727629013196,0.01,0.022050681361445782,0.2461724666902675,0.01,0.31127142977069755
222,Dundee,-2.9707209999999997,56.462019999999995,0.20393201588953175,0.01,0.01,0.21580482821105068,0.022675184048113233,0.4428342452271927
223,Kirkwall,-2.9622491,58.984669999999994,0.09630153922033194,0.01,0.01,0.08813234963384298,0.04089027238494752,0.18085286158169192
224,Ambleside,-2.961333,54.428740000000005,0.14621760278798196,0.01,0.035574505945974194,0.09429636409397767,0.022485664495594904,0.2785615872823974
225,Orkney Islands,-2.9605206,58.980940000000004,0.09919503453102119,0.01,0.01,0.09080742376517519,0.041843081765448174,0.18689711710440546
226,Lyme Regis,-2.936639,50.725159999999995,0.17378786773273783,0.3070624783276168,0.01,0.12317397618405765,0.030955422543997326,0.1734985532105767
227,Carlisle,-2.932931,54.892469999999996,0.17019758310114538,0.6520987865598952,0.01,0.15702900406811066,0.1616084769977319,0.4220346639295094
228,Chester,-2.893075,53.19339,0.2696259409804389,0.01,0.01,0.24593634468789766,0.015643403676680694,0.4276865407042745
229,Forfar,-2.889062,56.64356,0.1116287585388433,0.01,0.01,0.10412823408554235,0.01,0.23893577599324514
230,Morecambe,-2.864968,54.074169999999995,0.17887265028217383,0.01,0.025697697661345456,0.14780716370948152,0.03045526270081808,0.2444338207917244
231,Selkirk,-2.838524,55.55066,0.13453217774976262,0.01,0.01,0.14537488723876743,0.034294710002338,0.2320320400907747
232,Galashiels,-2.814449,55.62373,0.0974145827309705,0.05849142561937796,0.01,0.11941999847657095,0.025060579801551824,0.22833978991198126
233,Lancaster,-2.8007399,54.046569999999996,0.19028424794383075,0.01,0.04653710048280325,0.18820401749832055,0.01470740960756752,0.35731707781013544
234,St Andrews,-2.7967214,56.339780000000005,0.11826553998740302,0.01,0.01,0.11656896990475138,0.014728517379054106,0.27350449749403843
235,Hawick,-2.780914,55.42706,0.09621865322606543,0.24200628943641314,0.01,0.10189482252080727,0.09148879479996566,0.19573509657140756
236,Bridport,-2.758301,50.733579999999996,0.1605567088775961,0.21972944947642553,0.01,0.13416923601624417,0.022151250928820438,0.18602821737806186
237,Shrewsbury,-2.7553267999999997,52.7073,0.33453872829125453,0.3660104787319807,0.01,0.2133980763318313,0.01,0.39387878386173486
238,Penrith,-2.752708,54.6641,0.18068886501828962,0.30751692820144216,0.01,0.14010756990483592,0.06975277955602571,0.36501759824008007
239,Kendal,-2.74629,54.32801,0.16738934330378732,0.01,0.03458443282787703,0.13037008201954461,0.021859867261517573,0.3204301942476506
240,Street,-2.7429189999999997,51.12468,0.1640290870024694,0.21583191299779805,0.01,0.1380187252760887,0.01,0.13376782886502908
241,Glastonbury,-2.718454,51.14743,0.19273091386453406,0.01,0.01,0.16447859795706643,0.01,0.1669881834870716
242,Hereford,-2.715974,52.0564,0.27157555625623403,0.01,0.481729558082151,0.14458894353213478,0.01,0.33787692085435966
243,Ludlow,-2.7139129,52.36775,0.1945957258579468,0.3967292701543346,0.12655151459383238,0.11457046961309432,0.01,0.22506547228446985
244,Preston,-2.70309,53.7632,0.4799733101975401,0.6205320504019376,0.024742714367100266,0.36320332549762613,0.05473715731406867,0.4280291850825433
245,Whitchurch,-2.682045,52.96872,0.19784308973686526,0.01,0.01,0.12410220533380015,0.01,0.17319430856740498
246,Wells,-2.6445979,51.20935,0.18112531826536626,0.01,0.01,0.20000246428700091,0.01,0.20155758137093843
247,Yeovil,-2.633308,50.94206,0.21434602650358558,0.01,0.01,0.18878632082988134,0.01,0.28438685709652495
248,Wigan,-2.6325074,53.54506,0.4412118236427956,0.01,0.01,0.40100567637025925,0.051874206399518404,0.4655025658052325
249,Warrington,-2.5969501,53.39004,0.3950543412944971,0.13976102511986335,0.01,0.3233310948181301,0.028179029474989736,0.5168298011946589
250,Arbroath,-2.591543,56.55911,0.11297146702876096,0.01,0.01,0.1114097358563283,0.014870910688790328,0.26471200019189717
251,Bristol,-2.58791,51.45451,0.47793867452599254,0.32203447474348956,0.01,0.518809290612185,0.048697155138112055,0.5594146310005564
252,Guernsey,-2.5852779999999997,49.46569,0.016420801388942745,0.01,0.01,0.018673424303700923,0.01,0.01
253,Ross-on-Wye,-2.582446,51.91445,0.20056711664709784,0.01,0.33064215051642615,0.10812006947651684,0.01,0.2659984281683744
254,Jedburgh,-2.5549369,55.47772,0.07635040705933638,0.01,0.01,0.08125237499267891,0.01733184880236053,0.15342741649628477
255,Sedbergh,-2.5281740000000004,54.32363,0.07604063575563261,0.01,0.024078536843996128,0.07864683609555706,0.01,0.16539697076557808
256,Sedbergh,-2.5281740000000004,54.32363,0.07604063575563261,0.01,0.024078536843996128,0.07864683609555706,0.01,0.16539697076557808
257,Nantwich,-2.524102,53.067190000000004,0.1917597473260957,0.01,0.01,0.1586987310635851,0.07071128866777669,0.23815881362762314
258,Banff,-2.524038,57.666509999999995,0.09863002032143449,0.01,0.01,0.08306011252622804,0.038599632439918305,0.16998338581266667
259,Dunbar,-2.516737,56.00209,0.123136964270741,0.066500553592486,0.01060640914020248,0.13853874825426057,0.02849208089056648,0.28682148024564036
260,Cinderford,-2.5009579,51.8253,0.1543329505534519,0.384715810733763,0.3221383622832035,0.09685321688578087,0.01,0.24997880447240867
261,Banchory,-2.4909599,57.05386,0.13638961610766712,0.01,0.01,0.10714433794308796,0.020615822601431338,0.20461115011783218
262,Blackburn,-2.487529,53.748580000000004,0.3845695777472074,0.4351309192869033,0.017350143382982287,0.3012507146252499,0.04386618970881851,0.34309206509535184
263,Market Drayton,-2.483485,52.90355,0.1805374597995649,0.01,0.01,0.0823740236265816,0.055971661456544655,0.14073797041031746
264,Telford,-2.4672611,52.67759,0.4048557508926182,0.4215107055682151,0.050421178005844454,0.15130180608507737,0.01,0.32931710210658477
265,Montrose,-2.4661150000000003,56.70692,0.12222778457109834,0.01,0.01,0.11006869922713969,0.01,0.23061310518143305
266,Turriff,-2.4623,57.53893000000001,0.10090069581934293,0.01,0.01,0.09245827208995973,0.040404523586434454,0.18016685791897177
267,Weymouth,-2.457621,50.61443,0.19731690580377556,0.22399794798884526,0.01,0.1502120492923489,0.01693617299664691,0.27344651582144097
268,Crewe,-2.4438209,53.10041,0.24437603914539655,0.01,0.01,0.21485890910555763,0.08675138321453144,0.31647321149030305
269,Fortuneswell,-2.4422189999999997,50.55919,0.10707044337255488,0.1352491237419421,0.01,0.08373084781222462,0.010225997951787063,0.13459470896261114
270,Dorchester,-2.4411810000000003,50.71116,0.25083808864756846,0.2950260823925451,0.01,0.17881480255667634,0.022306510900079568,0.35552357510757043
271,Alston,-2.438685,54.812169999999995,0.045320482503425144,0.1347773606933744,0.01,0.055393448861614424,0.030570985623206006,0.11193421113274353
272,Kelso,-2.432207,55.600030000000004,0.09025455987905953,0.01,0.01,0.07242564271184894,0.038329789657816624,0.1961400111177751
273,Wincanton,-2.416007,51.055690000000006,0.17284879227126004,0.01,0.01,0.1594316135438493,0.01,0.1451229347576428
274,Clitheroe,-2.3930830000000003,53.8711,0.2852478316327824,0.2598789636289507,0.01,0.2321554674665158,0.05239756576238281,0.21302675791450007
275,Sark,-2.3666256000000003,49.43007,0.01938629603550423,0.04602710405149182,0.01,0.01835397666386463,0.01,0.01
276,Bath,-2.3590167,51.38106,0.33854115987399824,0.18790238228859793,0.01,0.374563869183615,0.03472831288271613,0.3913282041171071
277,Kidderminster,-2.2496839,52.3886,0.4407653098826471,0.2616788131887221,0.2504164918394729,0.11437729071965763,0.01,0.24676880529826722
278,Manchester,-2.2426305,53.48076,0.5155489471922207,0.1452409566688746,0.02316499528386732,0.9359805252182162,0.17489003952521204,0.6559978157344986
279,Burnley,-2.2405035,53.78929,0.3743945443472269,0.32434760253125017,0.01,0.30103911114720483,0.08174490040601477,0.3038529239443416
280,Gloucester,-2.238156,51.86424,0.3023126796051653,0.31384895111635264,0.40045506175395595,0.1647745779491187,0.039549470420352735,0.43777128550073907
281,Newcastle-under-Lyme,-2.2273002,53.01321,0.28096190081426436,0.01,0.01,0.16707417623076082,0.09246860424572285,0.27324383910576827
282,Worcester,-2.221575,52.19364,0.33341406379745026,0.01,1.0,0.1654262362449654,0.01,0.429299588740592
283,Trowbridge,-2.208853,51.31966,0.23435162232604442,0.1558752323955695,0.01,0.25684789910711187,0.01,0.4197236326266241
284,Shaftesbury,-2.198083,51.0046,0.1206095070464828,0.01,0.01,0.1115435005145511,0.01,0.19535327992555032
285,Alderney,-2.1973557,49.715,0.020643277543777455,0.04508836671280171,0.01,0.018035775249875013,0.01,0.01
286,Stoke-on-Trent,-2.179404,53.002669999999995,0.3901833387830233,0.01,0.01,0.2307952055974184,0.12517058866904798,0.4026807511979438
287,Colne,-2.176991,53.85564,0.1637334385586534,0.01,0.01,0.22364319036932834,0.08706414679918185,0.22157028512384624
288,Blandford Forum,-2.165353,50.85691,0.09449553209555824,0.1727098302001272,0.01,0.08825867140912118,0.01,0.16906892860900424
289,Rochdale,-2.1561,53.60971,0.27649284658141643,0.14836828722520687,0.014198270595324167,0.5238648650033254,0.08974336352502173,0.3660978580064604
290,Jersey,-2.13125,49.21444,0.021631582565582293,0.04414168078777565,0.01,0.018272077745436703,0.01,0.01
291,Wolverhampton,-2.12882,52.586969999999994,0.7791154576247105,0.2102238214112903,0.18441138407284421,0.1405009771388207,0.01,0.31451990303018734
292,Stafford,-2.12066,52.80669,0.5092860344012545,0.01,0.018800042534986138,0.14144885700268323,0.10496640002401905,0.3651759646331275
293,Macclesfield,-2.119287,53.25866,0.11034922734208115,0.01,0.01,0.3352220464684842,0.07661873832389307,0.368721588426194
294,Hexham,-2.1121439,54.97266,0.15164022671128083,0.06598717663980216,0.01,0.19259081079119766,0.02328292827037472,0.3290267987131167
295,Aberdeen,-2.094278,57.149719999999995,0.29029524442054605,0.01,0.01,0.2410867771655834,0.03779245280098285,0.47357394367572675
296,Dudley,-2.081112,52.51226,0.7195284650964714,0.2148468710724921,0.18846678422991522,0.1563295207467796,0.01,0.30235086752058626
297,Cheltenham,-2.0782533,51.899390000000004,0.26359563487635135,0.28739815028467275,0.3208670614955213,0.1582022271448016,0.03621629157078192,0.4170167567338958
298,Bromsgrove,-2.061906,52.33559,0.4168972161202198,0.01,0.6413046569822236,0.13870117063279577,0.01,0.2864419902438072
299,Skipton,-2.0162787,53.96285,0.11840887647596889,0.01,0.01,0.191923698271326,0.13798297476379534,0.23428208366988004
300,Fraserburgh,-2.007631,57.69335,0.11505725332345765,0.01,0.01,0.10318613181571426,0.044846295091067793,0.1869824911835111
301,Berwick,-2.005395,55.77024,0.11525517880920921,0.01,0.01,0.07167934505946706,0.03227315426662683,0.23070593488652136
302,Poole,-1.987248,50.71505,0.21093745705298744,0.2839142353012401,0.01,0.17359447714216947,0.021466359615292998,0.3601032035201273
303,Walsall,-1.9829189999999999,52.586209999999994,0.6545888094329582,0.19261308548792497,0.2457643529358605,0.18780619828087972,0.01,0.3149294387653324
304,Cirencester,-1.968243,51.71849,0.2987178810321192,0.42081349375451466,0.23490962644866273,0.14368005176225154,0.010605706994713556,0.37396637730903604
305,Evesham,-1.9467700000000001,52.09215,0.17914842894566016,0.01,0.4529846847185133,0.10517689761024747,0.0255642087163251,0.2567120180003792
306,Buxton,-1.91483,53.259080000000004,0.1088118270148548,0.01,0.01,0.2540153503038875,0.0629445169615214,0.2970530566691657
307,Keighley,-1.9123580000000002,53.8678,0.15605626477693638,0.01,0.037891532457832805,0.26580013953204973,0.14669494106988223,0.2890409616733259
308,Birmingham,-1.8904009999999998,52.48624,0.738731774357952,0.15032573645005554,0.6953034888467863,0.35762400547695417,0.030309115829099086,0.6276088694577658
309,Bournemouth,-1.880769,50.719159999999995,0.2429726005192941,0.3684738118240191,0.01,0.20626837840717632,0.01,0.4511054985448685
310,Halifax,-1.8575400000000002,53.727019999999996,0.1778168421537935,0.08889877817850794,0.0283575628318348,0.3073701263430496,0.21732891796805967,0.2649611723488439
311,Salisbury,-1.794472,51.06878,0.17178656725407246,0.01,0.01,0.13814101504948778,0.02656179014701311,0.3440174017442038
312,Ringwood,-1.7888169999999999,50.84495,0.18973888631968922,0.30631506005177,0.01,0.14760917012778477,0.019300046583159956,0.2736149561225071
313,Huddersfield,-1.7850351000000002,53.645790000000005,0.18246339666649128,0.1879702257572886,0.01,0.466575474416703,0.3126676619136043,0.37823497010917756
314,Peterhead,-1.784066,57.50812,0.15669746824225017,0.01,0.01,0.12330105028058258,0.021167602337739056,0.23038632404153797
315,Swindon,-1.7797176,51.55577,0.36927259918393346,0.3513451144731429,0.11207455674277257,0.1634874816761636,0.01,0.3865867485734793
316,Bradford,-1.759398,53.79598000000001,0.2628765606727586,0.01,0.03965143033245736,0.42937805942188306,0.26628988588753594,0.42002960497536523
317,Ashbourne,-1.7321790000000001,53.016630000000006,0.44965455421160905,0.01,0.013277043713944947,0.17579808682962172,0.1720371020044635,0.3170610721968109
318,Marlborough,-1.7270619999999999,51.42007,0.24872953423099975,0.27934946711795133,0.0445544372383287,0.10593245380965255,0.01,0.23117037587150144
319,Stratford-upon-Avon,-1.7082979999999999,52.19173,0.15129640674240982,0.01,0.42806735309894944,0.17489213916262322,0.01,0.3201946321602623
320,Alnwick,-1.7062990000000002,55.41274,0.12248332786947129,0.01,0.01,0.1422188227289243,0.01,0.2120383909375027
321,Otley,-1.691786,53.90583,0.12705352219066574,0.01,0.029036691726823556,0.23578281059580897,0.10935503894361386,0.2102518581140171
322,Bishop Auckland,-1.6787880000000002,54.663819999999994,0.17833935411771562,0.48235238759346777,0.01,0.1814307691350339,0.012156664164375093,0.25845802308714166
323,Burton upon Trent,-1.6371358999999999,52.81403,0.5051841728210058,0.01,0.24932165889245764,0.1523975367924879,0.11443988691110273,0.28744505626112515
324,Newcastle,-1.61778,54.97825,0.2459128637432389,0.10992890263650333,0.01,0.4229671082695061,0.03878733266292427,0.6048651656470031
325,Durham,-1.5848520000000001,54.77525,0.20522401742930726,0.4272293413720289,0.01,0.3372297199224232,0.01,0.3921431136090761
326,Ashington,-1.5659829,55.18298000000001,0.1267965662813449,0.04910408715984122,0.01,0.17112858429720254,0.017325895806058048,0.24817894188293788
327,Darlington,-1.559458,54.52361,0.1926675352858149,0.5946234678184262,0.01,0.1733722973326133,0.01,0.33771107703540165
328,Leeds,-1.5490774,53.80076,0.339492171686152,0.04317177449986817,0.055084973820277244,0.5926173191083706,0.2546043872164636,0.5561825559063094
329,Harrogate,-1.5418120000000002,53.99211999999999,0.2065404540819162,0.01,0.03774912651645172,0.392930323199599,0.15807371288938316,0.3799311925831656
330,Leamington Spa,-1.5200789,52.28519,0.4879585312290312,0.01,0.19226421843998304,0.21849305373361266,0.011392960370887537,0.3579103543585088
331,Coventry,-1.519693,52.40682,0.6071796004453721,0.01,0.1773611594019756,0.24484959343658486,0.01293520374779471,0.4035713363625064
332,Blyth,-1.510277,55.12696,0.137366778615059,0.050593553690845054,0.01,0.1843106440471702,0.017851436651353823,0.26106260544765914
333,Wakefield,-1.505924,53.6833,0.19171794171469816,0.19233321125954095,0.01,0.4195770009196496,0.3393144018141779,0.3364381380256653
334,Andover,-1.4919233,51.2112,0.14440844425059146,0.01,0.03620062442206671,0.12008786180649936,0.011440708722748862,0.3023122344253678
335,Witney,-1.4850543999999999,51.785940000000004,0.1588505420704651,0.01,0.15743580748697833,0.11248660229461276,0.01,0.3030781614840952
336,Barnsley,-1.479726,53.55263000000001,0.20539272326258498,0.13155032945916742,0.01,0.38896609676231986,0.5017374396874622,0.3214601217753948
337,Derby,-1.4746186000000001,52.92253,0.5997589765280608,0.01,0.06671729774401634,0.24994977860956455,0.25565663181908976,0.3779643338225316
338,Sheffield,-1.470085,53.381130000000006,0.31417783254692344,0.01,0.013575035745813058,0.6234972361232923,0.46906222908108297,0.5015047086177534
339,Nuneaton,-1.465382,52.52049,0.7040254756841979,0.01,0.24241335010940193,0.20190709547705435,0.015322280449467136,0.2943583151302247
340,Northallerton,-1.429959,54.337959999999995,0.12763647027405658,0.4300254394781242,0.01,0.11227542356812388,0.01,0.22548711733480192
341,South Shields,-1.427406,54.99941999999999,0.1516115361509949,0.05521121796010102,0.017611665923932818,0.26014621345961414,0.026901967480487173,0.3638291608592482
342,Chesterfield,-1.421629,53.23505,0.23986305973238264,0.01,0.01,0.3993768330911475,0.27189556126931275,0.31535545944671406
343,Southampton,-1.4043508999999998,50.9097,0.5120551591518236,0.20793121349757432,0.016581845424234916,0.33100691430246637,0.04192370815471942,0.5123351372730285
344,Wetherby,-1.384816,53.92706,0.1111318246401992,0.01,0.02127273906111424,0.22206488902569804,0.09916360244414557,0.1945198403145003
345,Sunderland,-1.383801,54.90687,0.16620606881976932,0.06127167000422679,0.01954487190439664,0.28347502094761223,0.029854956854785213,0.41272297434613026
346,Rotherham,-1.3635008999999998,53.4326,0.21542698963665155,0.01,0.01,0.4444895491239608,0.3826125479607755,0.3214885212408598
347,Castleford,-1.345968,53.72346999999999,0.15170661672472507,0.20607094979546564,0.01,0.3435766857660372,0.2544853765581824,0.2819173424114132
348,Thirsk,-1.341377,54.23385,0.05240126637276636,0.31157213339062184,0.01,0.14178853279637776,0.015705023489175587,0.2019127449336748
349,Banbury,-1.339775,52.0629,0.13418529133106807,0.01,0.15988712522854925,0.13009508087411717,0.01263253130497316,0.3158991477144759
350,Stockton,-1.3289821000000002,54.57046,0.18642134638359328,0.5044860001350107,0.01,0.16430983334708898,0.012714495140700595,0.34756317679475696
351,Newbury,-1.3231138999999998,51.40141,0.29345107997592984,0.01,0.10769189247504768,0.2120659316009728,0.013613816087850504,0.3627482366697936
352,Isle of Wight,-1.304734,50.69385,0.4011547680657814,0.15070879543265794,0.012018538723556259,0.24912224391886675,0.03798293978897794,0.30285092096060356
353,Isle of Wight,-1.304734,50.69385,0.4011547680657814,0.15070879543265794,0.012018538723556259,0.24912224391886675,0.03798293978897794,0.30285092096060356
354,Abingdon,-1.2879528999999998,51.67078,0.17419058773578855,0.01,0.1703696615244466,0.11760034716133211,0.01,0.32378878070105493
355,Shetland Islands,-1.2659409,60.52965,0.060405227022820855,0.01,0.01,0.05433072453283677,0.02823129379708003,0.1028923772920527
356,Rugby,-1.265032,52.37088,0.509594958225475,0.01,0.11270608975791016,0.19481077541643235,0.010685762086876818,0.3017295201861967
357,Oxford,-1.2577263,51.75202,0.2755459666623395,0.01,0.2558268109970052,0.20656945610946909,0.01,0.549562468541566
358,Middlesbrough,-1.234956,54.57423000000001,0.22887425135295578,0.6044269415937343,0.01,0.20348445213572217,0.015233293189476678,0.4292666138138169
359,Hartlepool,-1.212926,54.69174,0.15156318116825532,0.3826087171960814,0.01,0.17729634105192707,0.011785690482742625,0.32989890374344655
360,Loughborough,-1.206166,52.7721,0.5591451868390646,0.01,0.08282823558788499,0.292125649581318,0.013088360989685298,0.32799811219210484
361,Mansfield,-1.198674,53.1472,0.3334762399755038,0.01,0.01,0.285069605634622,0.24294256420218238,0.2839044623252577
362,Nottingham,-1.1581086,52.95478000000001,0.5018883619148526,0.01,0.01,0.42136219438726824,0.22879148718558381,0.5202119341668143
363,Bicester,-1.1535898999999998,51.8996,0.12086881096999849,0.01,0.219780329819251,0.1143401783422099,0.01,0.2534571695613185
364,Leicester,-1.1397591999999999,52.636880000000005,0.7571160363434386,0.01,0.13112680212057154,0.3809122521731765,0.013813606966384675,0.3974783866649518
365,Doncaster,-1.128462,53.522819999999996,0.28227334012517435,0.01,0.01,0.3479787609945408,0.40830558830008873,0.349266774724084
366,Worksop,-1.122745,53.3093,0.22977518105258465,0.01,0.01,0.2349739037743463,0.2893452414882784,0.22598366394062147
367,Basingstoke,-1.0923964,51.26654,0.22348006819863497,0.01,0.08956566191912561,0.20576399552488914,0.01132239786405829,0.34155821960982696
368,Portsmouth,-1.0879769,50.81977,0.5858573051257342,0.01,0.023600668303734574,0.34947488965338047,0.05966932561597618,0.40890738029366264
369,York,-1.0872979,53.95997,0.14637055304434216,0.3440497638817836,0.05487371703222297,0.3923000487746594,0.18209186735831953,0.46800530673557106
370,Selby,-1.067189,53.783519999999996,0.08563378028658815,0.18881014487371173,0.01,0.23278148028417575,0.15941166805515034,0.23329338168915165
371,Helmsley,-1.0562636,54.24651,0.033585095552093346,0.24515061891492756,0.019549971412025583,0.09962283716733383,0.04016024377068938,0.09740643874313473
372,Towcester,-0.9896879999999999,52.13511,0.20306207330261522,0.01,0.2262937180605829,0.1354088669955259,0.01,0.2472756205261756
373,Reading,-0.9781303,51.45426,0.3173921247893204,0.01,0.1489128435273029,0.30717395193639707,0.01882474100285972,0.4510244388697445
374,Retford,-0.9455030000000001,53.32136,0.1500924089707756,0.01,0.01,0.20105260159522856,0.1383645807658239,0.18295728029103145
375,Petersfield,-0.93899,51.00759,0.2583086299579221,0.01,0.012944258360007586,0.1634324345089444,0.01636341824408774,0.20780885144870637
376,Northampton,-0.9026559999999999,52.24048,0.40465018044312634,0.01,0.23203481102684156,0.21180565320762604,0.01,0.43838255026953965
377,Melton Mowbray,-0.887126,52.7664,0.3552059089393046,0.01,0.06348682768360353,0.18744242279069795,0.013376091616377522,0.20189118320632932
378,Aylesbury,-0.8084,51.81561,0.22312737557799459,0.01,0.07547031640527622,0.19584461628015723,0.02385135397499219,0.39151591124205465
379,Newark-on-Trent,-0.80657,53.070040000000006,0.31063256368228054,0.14511300416932602,0.01,0.24725104339523793,0.09874613216624065,0.30885471827914945
380,Malton,-0.7978970000000001,54.13684,0.07059825851300151,0.16076033710350016,0.025640236309690766,0.17872554865167925,0.10129054457534632,0.20366147533116963
381,Chichester,-0.774936,50.83761,0.35075472300622407,0.01,0.01328190340880046,0.20200959704813945,0.025185374968271515,0.2677869729861514
382,Gainsborough,-0.774465,53.400580000000005,0.15361327785523973,0.15773722291786926,0.01,0.19952984321308861,0.0901097578862312,0.17796766209651915
383,Milton Keynes,-0.7594171,52.040620000000004,0.2766318481966146,0.01,0.1953411477797713,0.2810921696915524,0.01,0.4341251315206175
384,Aldershot,-0.7557509,51.24837,0.12839450602189195,0.01,0.01,0.2841928905761266,0.014709299835491105,0.3965502770615953
385,High Wycombe,-0.748229,51.628609999999995,0.1520714763655844,0.01,0.01,0.18252127828326864,0.025557653225269397,0.37551982936917955
386,Midhurst,-0.737274,50.9869,0.1413786927620388,0.01,0.01,0.1143037469810178,0.014495594669027754,0.23298868855253235
387,Kettering,-0.7302489999999999,52.39632,0.3456574012919527,0.01,0.22001463924091558,0.14162100684730328,0.01,0.2992024437716341
388,Wellingborough,-0.693964,52.30242,0.29701019204723,0.01,0.1777632783924682,0.14144157604995491,0.01,0.2646310247673332
389,Corby,-0.6842333,52.4923,0.36542110617465523,0.01,0.01,0.12079747939017328,0.01,0.2856949808579857
390,Bognor Regis,-0.673061,50.783,0.3344058752714284,0.01,0.01,0.20141897802584277,0.025366203902363965,0.24980431401127928
391,Scunthorpe,-0.654413,53.58865,0.20735294918411673,0.01,0.01,0.2347614819894314,0.1222396461902285,0.2966196352298494
392,Grantham,-0.643582,52.912519999999994,0.24113279148334665,0.01,0.05661888871883945,0.11270388489994627,0.017893619913448792,0.2810865713485727
393,Whitby,-0.613347,54.48633,0.11313081889559638,0.25259118392991126,0.01,0.12236548358609725,0.022281078893593233,0.23289246881319145
394,Slough,-0.5950406,51.51054,0.23210581811075165,0.01,0.01,0.24849917509645786,0.011452429507407828,0.40103987921261364
395,Guildford,-0.570409,51.23622,0.1375333348474215,0.01,0.01,0.25945603708696463,0.01473544138690871,0.39244414886922546
396,Woking,-0.5600349,51.31677,0.1959591373595172,0.01,0.01,0.32155492857010287,0.01,0.4680452509359865
397,Lincoln,-0.540579,53.23069,0.2937264921824631,0.36797369291824855,0.01,0.2814523264970468,0.0463699633303679,0.4064926963018012
398,Bedford,-0.46677820000000003,52.13864,0.31750606312830404,0.351951130166675,0.08420090094542175,0.23602812843717952,0.01,0.3709115159186959
399,Heathrow,-0.4542955,51.47002,0.3501481491648851,0.01,0.09945468255191109,0.25826042128698673,0.04714692319764928,0.4972632391240779
400,Driffield,-0.443377,54.006,0.10949909874473196,0.01,0.01721039399337952,0.13537147259171825,0.10696912479625036,0.17534706434362243
401,Beverley,-0.435093,53.84196,0.19000847237995128,0.01,0.01,0.2294909186469164,0.15660898869140397,0.3033939682058478
402,Luton,-0.4200255,51.87867,0.3381180969436586,0.01,0.03691616777014876,0.23850546415618876,0.011666846342046861,0.3996435549382634
403,Scarborough,-0.399752,54.28311,0.14431887869142515,0.01,0.05877098954254519,0.20423212727733248,0.07429504534166952,0.3049418416892739
404,Worthing,-0.372882,50.81787,0.19860563771022852,0.1564771088545045,0.024957089045562514,0.34818554818860076,0.01,0.37519826783167304
405,Dorking,-0.332378,51.2322,0.22553357934426216,0.01,0.01,0.2661953920928483,0.01,0.3580427794975943
406,Hull,-0.3274198,53.767619999999994,0.2719952236175178,0.01,0.01,0.3042877928860573,0.1957208144424602,0.4613274060732975
407,Horsham,-0.325858,51.06288,0.1525908023762265,0.01,0.01,0.1479999456732531,0.01582951013571025,0.29985970822516655
408,Biggleswade,-0.26421999999999995,52.086940000000006,0.20423585048985402,0.01,0.07149227185075713,0.12843664325519366,0.01,0.22865715000274922
409,Peterborough,-0.2405299,52.5695,0.4986255168391736,0.01,0.38211834804248035,0.150826987542287,0.03622897208262778,0.3762136313522222
410,Welwyn Garden City,-0.208661,51.80317,0.39050858767289404,0.01,0.01,0.3336485569272836,0.01893176476170762,0.5037009806033971
411,Bridlington,-0.198802,54.08535,0.13072163136494358,0.01,0.019869195724626604,0.15874691788012,0.12349457796500661,0.21605857798578057
412,Stevenage,-0.19661199999999998,51.90376,0.333913524575807,0.01,0.03990224500500045,0.1905879133593475,0.012610554922022212,0.3437475458488661
413,Crawley,-0.18722750000000002,51.109140000000004,0.20637373070187,0.01,0.01,0.19626226456608706,0.01,0.35485842189930994
414,Huntingdon,-0.182552,52.33146,0.15723479914044577,0.550172895249283,0.14039844162144008,0.09439005873230319,0.01,0.2540651547018485
415,Hove,-0.168749,50.82793,0.1525325431691831,0.1286872942282624,0.020524792952773128,0.2918886049481645,0.01,0.29974355424819693
416,Spalding,-0.1537024,52.7901,0.3270715606456768,0.01,0.20337586048674175,0.09778116264643505,0.03856448408096927,0.24338986526379144
417,Brighton,-0.137163,50.82253,0.26302048343361895,0.22603071191753007,0.036050439873623066,0.5077884963653799,0.01,0.5202008284810385
418,London,-0.12775830000000002,51.50735,0.6020068092883999,0.3608805577102545,0.02027615896875008,1.0,0.024805162040847623,1.0
419,Grimsby,-0.08078400000000001,53.56746999999999,0.20414711234385083,0.01,0.01,0.22655963094218107,0.14914661203758264,0.3321674043326042
420,Boston,-0.026576999999999996,52.97894,0.3601538684604539,0.01,0.06388763095155485,0.1328179733673719,0.050477013998868336,0.33024800051003694
421,Royston,-0.024066,52.048140000000004,0.15060898266699868,0.22173617273679713,0.07073097717775444,0.10612760158680305,0.01,0.20558071579721163
422,Louth_Lincs,-0.007711,53.36596,0.1750905822506925,0.1787585724641507,0.01,0.14501981686823265,0.040547061020998865,0.21584670744263645
423,Lewes,0.00878,50.873870000000004,0.1344945757939908,0.135469703316046,0.021606543432356934,0.29846139630118806,0.01,0.27356362484982155
424,Chatteris,0.054012,52.4561,0.20264668015358128,0.24665188512810463,0.15735753262049393,0.0586792007731925,0.018649005402153335,0.13982208137226743
425,Uckfield,0.095913,50.966409999999996,0.13239961132054595,0.14371686618969665,0.02292191268807559,0.3098867109830486,0.01,0.28989897842185897
426,Cambridge,0.12181700000000001,52.20534,0.27630058566794813,0.5817397918904219,0.18556748515919838,0.23570765816325182,0.01,0.544404646437748
427,Bishop's Stortford,0.15365020000000001,51.87216,0.2775362416587246,0.01,0.01,0.225937740791927,0.01,0.30993469524963874
428,Wisbech,0.158797,52.66631999999999,0.27177360576953286,0.26158311330188955,0.1668832701397903,0.07574051975926721,0.04614851417010199,0.17896725055032187
429,Sevenoaks,0.190898,51.27241,0.25766705619902935,0.01,0.01,0.2561075877715637,0.01,0.38446604250283645
430,Tunbridge Wells,0.26369499999999996,51.13238,0.20287851476775223,0.24458628915170388,0.039009934695039286,0.18233872817706512,0.01,0.36359548467923636
431,Eastbourne,0.29047199999999995,50.768029999999996,0.15847186434155303,0.13364632826094375,0.021315726878122433,0.30786997609921457,0.01,0.3120577040351943
432,Brentwood,0.30717490000000003,51.620470000000005,1.0,0.01,0.01,0.34251672655172566,0.01549786535660361,0.43397704362923334
433,Skegness,0.337881,53.1464,0.19563535574492796,0.01,0.01,0.0866972660170364,0.04815304687808464,0.2119968281173964
434,Downham Market,0.385472,52.606609999999996,0.19045264224769354,0.5453229438468576,0.04348774516542498,0.048628052544040366,0.04123110858359771,0.1570089372202686
435,King's Lynn,0.4022963,52.75168000000001,0.2760497129609883,0.36908224893578795,0.05886623685252073,0.10309046708570158,0.055811590760262486,0.27247481164597426
436,Bexhill,0.4662071,50.849909999999994,0.11230298701744411,0.18406276666472363,0.01,0.1704260414112337,0.01,0.22818008132100165
437,Chelmsford,0.4685497,51.73559,0.5799099523404354,0.01,0.012980473181651596,0.18039201273891864,0.02051149792326877,0.26331179275859173
438,Mildenhall,0.5156095,52.347570000000005,0.19272642402923268,0.5557609194973676,0.10130317528240239,0.11139892200173873,0.01,0.2711411638683763
439,Medway,0.5417860999999999,51.404740000000004,0.34448649207690885,0.3209310520022358,0.034124289541092465,0.1515351100419072,0.01,0.2986581344431729
440,Braintree,0.5509269,51.88009,0.22109704470803893,0.01,0.01,0.22091030458285338,0.03462207989208849,0.2529570352972899
441,Gillingham,0.551438,51.38632,0.49950845676950845,0.4885791902319723,0.051950151881388726,0.231621002991934,0.01,0.46455095922769274
442,Hastings,0.573453,50.85426,0.1514980181223569,0.01,0.01,0.17912488677134725,0.013714201586794173,0.3158634407472369
443,Maldon,0.6714479999999999,51.731809999999996,0.2743100186826829,0.01,0.025105982096110886,0.18107984324952772,0.015868798906456854,0.26383333655663904
444,Southend,0.7077123000000001,51.54593,0.6977503939906323,0.08442862365368593,0.013465820617113662,0.18251597509728085,0.02127843759665825,0.30906152197809156
445,Bury St Edmunds,0.7104931999999999,52.24292,0.3450921679757798,0.36457805574914326,0.05814784710682297,0.16822345170792338,0.01,0.38667325649210627
446,Thetford,0.751657,52.412859999999995,0.17277693120660434,0.5361261507410157,0.028502887060495065,0.08194416303814823,0.01,0.2224401770951749
447,Ashford,0.8750190000000001,51.14647,0.24390283488549092,0.1826725819499297,0.029135097953185193,0.16701273730509808,0.02301936523070832,0.2817400175777371
448,Faversham,0.889358,51.31599,0.2409718403217877,0.2587531359983274,0.027512969446547592,0.14168918535042097,0.01,0.26838257185179665
449,Colchester,0.891874,51.89593,0.37410597595254536,0.01,0.01,0.24839743337798162,0.07657843251377157,0.3617497889900348
450,New Romney,0.939473,50.98512,0.13650342306154165,0.01,0.01,0.11163843113815022,0.0354136222657982,0.16913600835400747
451,Canterbury,1.0789089,51.280229999999996,0.2956245797870627,0.01,0.01,0.217666799786039,0.050172122664763306,0.36155606822428527
452,Ipswich,1.14822,52.056740000000005,0.3724677028053036,0.01,0.01,0.20627266166037883,0.06495039844805635,0.384983522115893
453,Clacton,1.153035,51.78953,0.2682092756093159,0.01,0.01,0.13497393269899877,0.055739643093313786,0.20130418285772253
454,Folkestone,1.169456,51.0814,0.20686955527808398,0.01,0.01,0.16717069695847286,0.03992349045977813,0.2749453799357025
455,Sheringham,1.2109589,52.944419999999994,0.09781238399284506,0.2866728540175461,0.01,0.08969643421673971,0.051606989147440975,0.14670686244783943
456,Harwich,1.260297,51.93473,0.1816153007566551,0.01,0.01,0.10083212574260483,0.033987015903764115,0.16275197907228586
457,Norwich,1.297355,52.63089,0.3558796541554179,0.6564651496108586,0.01,0.2504113867685463,0.1181771830874004,0.489248531395707
458,Cromer,1.301866,52.93145,0.13838057857332836,0.35143529683000885,0.01,0.11665295051334457,0.0632655553202099,0.20899467910269706
459,Cromer,1.301866,52.93145,0.13838057857332836,0.35143529683000885,0.01,0.11665295051334457,0.0632655553202099,0.20899467910269706
460,Dover,1.3134027,51.12788,0.19757573189968325,0.01,0.01,0.15219971052873021,0.03618415360041122,0.2443398604420568
461,Felixstowe,1.3512549999999999,51.961729999999996,0.22928088899691962,0.01,0.01,0.13163153298733196,0.041467302931137005,0.2167802853588732
462,Margate,1.3868339,51.38965,0.2527120705714083,0.01,0.01,0.16005989678216428,0.03766246099469811,0.2681992298674208
463,Ramsgate,1.4198950000000001,51.33555,0.24463642911138467,0.01,0.01,0.15308332787707013,0.03758987033531003,0.2664166573744033
464,Great Yarmouth,1.728047,52.59823000000001,0.21729364650296984,0.48756269949922426,0.01,0.156178086035742,0.08777127860293102,0.2736416062919326
465,Lowestoft,1.7534490000000003,52.48114,0.22816422914954257,0.5091809172782646,0.01,0.165737574799788,0.10266256072483296,0.28697465909590747
466,Swaffham,0.687481,52.64747,0.15179802092673567,0.6627079864465197,0.01,0.07279887583874636,0.022269523658070334,0.1580097424237772
467,Dereham,0.9378270000000001,52.681619999999995,0.24170875989704071,0.5929196210939133,0.01,0.19709860884458114,0.10673768503821539,0.3759421812902871
468,Ely,0.262363,52.39954,0.15859326890270994,0.5509017720145865,0.10041745930097379,0.10530383998035474,0.01,0.25020976628847985
469,March,0.088622,52.551719999999996,0.24044841816783716,0.2520203449050267,0.1607824744496375,0.0725557023507284,0.04446145063404918,0.1685493601418188
470,St Neots,-0.26510300000000003,52.23008,0.1894929617648957,0.44587437193690155,0.01,0.13750626304350191,0.01,0.21304154562942107
471,Banham,1.0402849,52.45125,0.17303945004321014,0.3326043553584361,0.01,0.12146257567791939,0.05269052825339768,0.23480086857260918
472,Holt,1.086747,52.90936,0.13541802683858872,0.3503846186523132,0.01,0.11505866933745766,0.06307641188727263,0.2097804391680452
473,Hunstanton,0.49103199999999997,52.93891,0.13355968188391332,0.17509660255792453,0.01,0.04246347823327432,0.039716430191060595,0.12518007799808092
474,Horncastle,-0.11245,53.20731,0.14051941036794147,0.15099786342358362,0.01,0.11366781399434292,0.03425021417860405,0.16396248200440394
475,Market Weighton,-0.6677465,53.86484,0.09864708667406351,0.01,0.017180256265318213,0.12720292670763073,0.09863743294712635,0.1585392797201743
476,Hawes,-2.1968695,54.303830000000005,0.01,0.01,0.015086828628817727,0.024106355395472078,0.01,0.01
477,Reeth,-1.9428115000000001,54.38946,0.1302870419009064,0.5480494526991193,0.01,0.13014921109935784,0.01381241841568152,0.1984484785583547
478,Aysgarth,-1.9967433999999997,54.29159,0.07107354893985036,0.21004048220597907,0.01,0.07675991577103826,0.010587245626960671,0.09239800296310477
479,Stanhope,-2.011302,54.74946,0.15061701246682044,0.35509100374844044,0.01,0.19820200562525223,0.01789862428958818,0.28746557381293864
480,Keswick,-3.134706,54.60128,0.09085406089003786,0.3327679960482927,0.01,0.06541150564652112,0.03774018786770503,0.1807585500431463
481,Oxenholme,-2.7243327999999996,54.30134,0.07775153975117285,0.01,0.019192607795145943,0.05807714108995882,0.012131118671001542,0.13244008932509885
