,placename,where_about_x,where_abouts_x,where_at_x,where_is_x,where_is_x_at,where_to_is_x,where_x_about,where_x_abouts,where_x_to,longitude,latitude
0,Dingle,0.038888288687042964,0.5589435043298581,0.01,0.9780071,0.12287373154849075,0.01,0.01,0.01,0.01,-10.264013499999999,52.14094
1,Tralee,0.038888288687042964,0.5589435043298581,0.01,0.9780071,0.12287373154849075,0.01,0.01,0.01,0.01,-9.6999325,52.27131
2,Killarney,0.046210430624698984,0.5573451950643741,0.01,0.9780071,0.10348565495547507,0.01,0.01,0.01,0.01,-9.5044265,52.05994000000001
3,Bantry,0.04365472842041942,0.5362261357414918,0.01,0.9780071,0.11791287252499465,0.01,0.01,0.01,0.01,-9.4539805,51.68035
4,Mayo,0.23760074708566384,0.4277794723224641,0.01,0.9780071,0.2752113656779056,0.01,0.01,0.01,0.01,-9.4289369,54.01526
5,Ballycastle,0.3388937492771308,0.6376995311037459,0.01,0.9780071,0.23857480690525,0.01,0.01,0.01,0.01,-9.3724643,54.279669999999996
6,Abbeyfeale,0.04841283300649938,0.5395731292717243,0.01,0.9780071,0.10974229449878696,0.01,0.01,0.01,0.01,-9.2970823,52.386179999999996
7,Ennistymon,0.17625192576632326,0.40798549379808907,0.01,0.9780071,0.1593943373397231,0.01,0.01,0.01,0.01,-9.2934951,52.940369999999994
8,Galway,0.2169362605943195,0.4428307146179069,0.01,0.9780071,0.1825239809277584,0.01,0.01,0.01,0.01,-9.0567905,53.270669999999996
9,Claremorris,0.15051514594219562,0.4730887436935956,0.01,0.9780071,0.35196217980414546,0.01,0.01,0.01,0.01,-9.0017356,53.72388
10,Clare,0.16934848249916498,0.4429393106077107,0.01,0.9780071,0.1507422092007262,0.01,0.01,0.01,0.01,-8.9811351,52.90453
11,Adare,0.044492927217885635,0.5431525288902495,0.01,0.9780071,0.06565498285616121,0.01,0.01,0.01,0.01,-8.7925892,52.56363
12,Charleville,0.04446866980203562,0.5429521515362019,0.01,0.9780071,0.07657807513646052,0.01,0.01,0.01,0.01,-8.681017599999999,52.36206
13,Mallow,0.046971351208234806,0.5636329819800197,0.01,0.9780071,0.10564727329242717,0.01,0.01,0.01,0.01,-8.6539164,52.13898
14,Limerick,0.09069509393586334,0.5202808483990415,0.01,0.9780071,0.15504056479340106,0.01,0.01,0.01,0.01,-8.6267343,52.66384
15,Loughrea,0.19294058261753474,0.5530776651733414,0.01,0.9780071,0.16241506726850313,0.01,0.01,0.01,0.01,-8.5660931,53.19891
16,Sligo,0.3392443241476092,0.7447070171075016,0.01,0.9780071,0.2733151058579887,0.01,0.01,0.01,0.01,-8.476088800000001,54.27661
17,Cork,0.10605860484808502,0.5259500263441398,0.01,0.9780071,0.11396451874482925,0.01,0.01,0.01,0.01,-8.4756035,51.898509999999995
18,Nenagh,0.0925756670192719,0.4702419208851632,0.01,0.9780071,0.02599424175589481,0.01,0.01,0.01,0.01,-8.19834,52.8635
19,Roscommon,0.10248825875175327,0.44729843789553003,0.01,0.9780071,0.2426857805751733,0.01,0.01,0.01,0.01,-8.1890955,53.62759000000001
20,Tipperary,0.056852721758641984,0.5646266270081888,0.01,0.9780071,0.08152155311756673,0.01,0.01,0.01,0.01,-8.161851400000002,52.47379
21,Donegal,0.21536478255648872,0.7331814927266627,0.01,0.9780071,0.3665657673346285,0.01,0.01,0.01,0.01,-8.1096143,54.653830000000006
22,Leitrim,0.15157988976874562,0.6247783008176985,0.01,0.9780071,0.2006698487069546,0.01,0.01,0.01,0.01,-8.0020132,54.12469
23,Athlone,0.1060851419623409,0.3945447578105224,0.01,0.9780071,0.2948555745497016,0.01,0.01,0.01,0.01,-7.9406898,53.42393000000001
24,Longford,0.18250227106048614,0.2104489468231028,0.01,0.9780071,0.25234344963572136,0.01,0.01,0.01,0.01,-7.7932573000000005,53.72763000000001
25,Offaly,0.12314104397862367,0.22369885336763465,0.01,0.9780071,0.2255259893310161,0.01,0.01,0.01,0.01,-7.7122229,53.23569000000001
26,Fermanagh,0.2511768675868171,0.5627708920802745,0.01,0.9780071,0.27605928673559205,0.01,0.01,0.01,0.01,-7.6318728,54.343830000000004
27,Enniskillen,0.2511768675868171,0.5627708920802745,0.01,0.9780071,0.27605928673559205,0.01,0.01,0.01,0.01,-7.631533599999999,54.343819999999994
28,Doon,0.1590435511090038,0.4655439623352387,0.01,0.9780071,0.27339439198286325,0.01,0.01,0.01,0.01,-7.60964,54.185930000000006
29,Westmeath,0.13266984492244735,0.2384628488758853,0.01,0.9780071,0.1690698041114856,0.01,0.01,0.01,0.01,-7.4653217000000005,53.534530000000004
30,Strabane,0.31247450255288817,0.6204636016707188,0.01,0.9780071,0.7037517991908648,0.4278876450454489,0.01,0.01,0.01,-7.4633103,54.82739
31,Cavan,0.13876502824386033,0.4131779016819041,0.01,0.9780071,0.17925533304845093,0.01,0.01,0.01,0.01,-7.3633319,53.98972
32,Mullingar,0.11377857196770992,0.20919259626649087,0.01,0.9780071,0.16006303127879296,0.01,0.01,0.01,0.01,-7.3401868000000015,53.525819999999996
33,Laois,0.10930074561454596,0.33709107713681874,0.01,0.9780071,0.15183203627304498,0.01,0.01,0.01,0.01,-7.3323006999999985,52.99429
34,Omagh,0.2476637454825016,0.6943915129189306,0.01,0.9780071,0.6308440406804487,0.01,0.01,0.01,0.01,-7.309959700000001,54.59771
35,Derry,0.19637341659361834,0.6743308919625354,0.01,0.9780071,0.8815927796768946,0.465035911666114,0.01,0.01,0.01,-7.308574799999999,54.99661
36,Kilkenny,0.19054134252650207,0.1750022444029741,0.01,0.9780071,0.12421897661017647,0.01,0.01,0.01,0.01,-7.2447879,52.65415
37,Tyrone,0.40164011476999145,0.4368044006487428,0.01,0.9780071,0.7245375020692071,0.01,0.01,0.01,0.01,-7.1312320000000025,54.491209999999995
38,Waterford,0.1526579021524236,0.17962161205531388,0.01,0.9780071,0.18309862676074573,0.01,0.01,0.01,0.01,-7.110070200000001,52.25932
39,Monaghan,0.2931528652834668,0.4871159495369906,0.01,0.9780071,0.2271017713008395,0.01,0.01,0.01,0.01,-6.9683132,54.2492
40,Carlow,0.1653958238561106,0.2650712211612614,0.01,0.9780071,0.2237572896954883,0.01,0.01,0.01,0.01,-6.934135899999999,52.83651
41,Kildare,0.2475876427380617,0.24296824868868,0.01,0.9780071,0.29372223534729025,0.01,0.01,0.01,0.01,-6.8194707999999995,53.21204
42,Dungannon,0.2968966999905143,0.6572222312161867,0.01,0.9780071,0.6207127977388931,0.01,0.01,0.01,0.01,-6.7669352,54.508269999999996
43,Cookstown,0.33832248891487743,0.6190022193833999,0.01,0.9780071,0.7530701498275616,0.01,0.01,0.01,0.01,-6.7443895000000005,54.641819999999996
44,Coleraine,0.05420912649472967,0.4675817882519853,0.01,0.9780071,0.9204798262943388,0.4836846285399418,0.01,0.01,0.01,-6.6646103000000005,55.132580000000004
45,Meath,0.06738243497365114,0.01,0.01,0.9780071,0.17844044787612892,0.01,0.01,0.01,0.01,-6.656416900000001,53.60555
46,Armagh,0.17742680752210707,0.4104126132503665,0.01,0.9780071,0.4430503300820665,0.01,0.01,0.01,0.01,-6.652792,54.35028000000001
47,Magherafelt,0.09934697682960847,0.24910961590538475,0.01,0.9780071,1.0,0.01,0.01,0.01,0.01,-6.607980499999999,54.75536999999999
48,Louth,0.042392220757159794,0.06572417685601087,0.01,0.9780071,0.2095994187588948,0.01,0.01,0.01,0.01,-6.4889423,53.925230000000006
49,Wexford,0.19479265947086988,0.17851530535654367,0.01,0.9780071,0.1862415597033152,0.01,0.01,0.01,0.01,-6.4633381,52.33692
50,Craigavon,0.31042377135565363,0.3425837199102827,0.01,0.9780071,0.2444183490712125,0.01,0.01,0.01,0.01,-6.4175653,54.442930000000004
51,Drogheda,0.04984083252591046,0.01,0.01,1.0,0.12567648415798344,0.01,0.01,0.01,0.01,-6.3560985,53.717859999999995
52,Rosslare,0.1932318140888852,0.1772255095162686,0.01,0.9780071,0.18425922800909747,0.01,0.01,0.01,0.01,-6.3414908,52.25131
53,Newry,0.1646733731831739,0.28804925323929903,0.01,0.9780071,0.16041630691777992,0.01,0.01,0.01,0.01,-6.34023,54.1751
54,Ballymena,0.2515071388933681,0.4225898791407395,0.01,0.9780071,0.8690072978354114,0.43714325175522,0.01,0.01,0.01,-6.2802213,54.86529
55,Banbridge,0.2424224160749513,0.2723426452754213,0.01,0.9780071,0.01,0.01,0.01,0.01,0.01,-6.2704803,54.34873
56,Dublin,0.2342717818681979,0.2847596391588713,0.01,0.9780071,0.1590761214061049,0.12932180750091876,0.01,0.01,0.01,-6.2603097000000005,53.34981
57,Antrim,0.1484595703858486,0.4907980213932076,0.01,0.9780071,0.1841126201070208,0.1087929385579188,0.10219054032178193,0.01,0.01,-6.2072498,54.719530000000006
58,Wicklow,0.11872557093888918,0.3252862717596708,0.01,0.9780071,0.21593385632413686,0.01,0.01,0.01,0.01,-6.044589,52.980819999999994
59,Kilkeel,0.1635482173488682,0.19087061495169752,0.01,0.9780071,0.09715443169259268,0.01,0.01,0.01,0.01,-6.007004,54.06312
60,Belfast,0.11334072739263165,0.4517808049827218,0.01,0.9780071,0.12552505480236714,0.10784757019607004,0.10130254423507808,0.01,0.01,-5.93012,54.59728000000001
61,Down,0.2746133070484107,0.01,0.01,0.9780071,0.1590745737790428,0.01,0.01,0.01,0.01,-5.7156921999999994,54.32875
62,Balivanich,0.4712639741504998,0.6782952434846086,0.01,0.9780071,0.2685165095795437,0.01,0.08238411445948336,0.01,0.01,-7.3743509000000005,57.472269999999995
63,Western Isles,0.517987390346952,0.6552749724784684,0.01,0.9780071,0.2405114240770176,0.01,0.09550575147058968,0.01,0.01,-7.0194034,57.75989000000001
64,Dunvegan,0.5140642253020236,0.6179821014381839,0.01,0.9780071,0.2591681278349477,0.01,0.09481089547120226,0.01,0.01,-6.5813982000000015,57.4366
65,Stornoway,0.7089715464786515,0.6230828751317208,0.01,0.9780071,0.2302025016439073,0.01,0.1911869088473331,0.01,0.01,-6.3848692000000025,58.20943000000001
66,Scilly Isles,0.16134864677993133,0.6129454588001202,0.01,0.9780071,0.09749169534389852,0.04877341438050118,0.09162693158119124,0.01,0.4142609486750847,-6.327496599999999,49.92773
67,Portree,0.5935998037179673,0.6016609501845561,0.01,0.9780071,0.2471500894082011,0.01,0.09743506092232856,0.01,0.01,-6.1960231,57.41246999999999
68,Islay,0.1936738440477556,0.6659653949854886,0.01,0.9780071,0.16483424646306202,0.05990437181399901,0.02813445525258265,0.01,0.01,-6.177067,55.73625
69,Mull,0.15465431241108066,0.6626114290886399,0.01,0.9780071,0.1643120413778333,0.06633201460184493,0.031153234388328708,0.01,0.01,-6.0008870000000005,56.4392
70,Broadford,0.5419892840639216,0.6736355501657177,0.01,0.9780071,0.2487287880597953,0.01,0.17851234266028818,0.01,0.01,-5.9096592,57.24139
71,Kyle of Lochalsh,0.5363283654786839,0.6365528803416789,0.01,0.9780071,0.22572777609026906,0.01,0.17671813903262332,0.01,0.01,-5.7143293,57.28261
72,Campbeltown,0.1895473227809656,0.6815771493285924,0.01,0.9780071,0.16304013002924478,0.05875413843435581,0.027594241098429118,0.01,0.011341659640926129,-5.605373999999999,55.424119999999995
73,Penzance,0.16099059164905868,0.6117434338335286,0.01,0.9780071,0.0869771766079979,0.04867776998068202,0.09144724630504422,0.01,0.41344855878434494,-5.537592,50.1188
74,Oban,0.1435578982306299,0.6596097792684865,0.01,0.9780071,0.17865878234012286,0.06603152802059492,0.062024223411385374,0.01,0.01,-5.471047,56.41516
75,Lochgilphead,0.15869114179371446,0.6749418662836218,0.01,0.9780071,0.15874885780658507,0.06071181424883584,0.02851367822055988,0.01,0.01171956251070403,-5.4323449,56.03829
76,Helston,0.1781310206077968,0.61780116944433,0.01,0.9780071,0.07846004916811176,0.04915979423431602,0.0923527942438634,0.01,0.3985634819844743,-5.274996,50.10159
77,Redruth,0.17726500236572135,0.6151175257701614,0.01,0.9780071,0.07773647399245459,0.048946251398356184,0.09195162743877773,0.01,0.3968321815244962,-5.226666000000002,50.23302
78,Ullapool,0.8137470729473927,0.6209889575373675,0.01,0.9780071,0.2579203832781753,0.01,0.2011302127184196,0.01,0.01,-5.161313,57.895419999999994
79,Ballachulish,0.2070468754792041,0.6577633530938911,0.01,0.9780071,0.17891592652890526,0.01,0.07235353396353368,0.01,0.01,-5.133719999999999,56.67393000000001
80,Fort William,0.4095413535331711,0.6845628859637245,0.01,0.9780071,0.2385875450664537,0.01,0.1995488782535164,0.01,0.01,-5.1052179,56.81981999999999
81,Achnasheen,0.8262788066163546,0.6653261632630234,0.01,0.9780071,0.20646345013810488,0.01,0.2041488470634516,0.01,0.01,-5.078765799999998,57.57859000000001
82,Newquay,0.14689931273860918,0.6157510177079715,0.01,0.9780071,0.07790730821046511,0.04899666267098813,0.09204632592839124,0.01,0.39724086712469775,-5.0737190000000005,50.4155
83,Falmouth,0.16651891371373595,0.6303022732490713,0.01,0.9780071,0.08183078090940113,0.050154534814253235,0.0942215436387924,0.01,0.4066283545764811,-5.066269999999999,50.152570000000004
84,Rothesay,0.2076701948917729,0.6715061268521842,0.01,0.9780071,0.15975404158342965,0.058701277961728485,0.05513882970717414,0.01,0.011331456772593687,-5.055793,55.83596
85,Truro,0.16330355940354402,0.619508185080092,0.01,0.9780071,0.07892034917085583,0.04929562492496827,0.0926079744708445,0.01,0.39966473934505903,-5.0510410000000014,50.2632
86,Milford Haven,0.11886089241145036,0.2713339885027698,0.01,0.9780071,0.13428843351748312,0.5052210035901276,0.052728922337140716,0.01,0.43344802335967975,-5.0426971,51.71431
87,Stranraer,0.18426045283572928,0.6898613878799296,0.01,0.9780071,0.21951066056115887,0.05489378247801903,0.02578120395269855,0.01,0.01,-5.0240550000000015,54.903369999999995
88,Fishguard,0.14511327589846926,0.15034992449975568,0.01,0.9780071,0.14121680272987128,0.4665832865359152,0.01,0.01,0.4632034534423634,-4.975989,51.99393
89,Inchnadamph,0.8679554692262267,0.4592392504135589,0.01,0.9780071,0.2503374868667475,0.01,0.14874159682288846,0.01,0.01,-4.974295,58.15221
90,Haverfordwest,0.11670878587572958,0.2671658746254422,0.01,0.9780071,0.13663481471600475,0.4974600368775301,0.05191892554436228,0.01,0.4267895993057871,-4.971319,51.80048
91,Dunoon,0.19106765008581456,0.65788929721488,0.01,0.9780071,0.16485168702956973,0.0591779185426454,0.055586544045520235,0.01,0.011423463325369896,-4.926214,55.95097
92,Pembroke,0.1159781425366468,0.2657507785502776,0.01,0.9780071,0.1354443323605307,0.4948251429916034,0.051643925077412216,0.01,0.4245290258776083,-4.9086370000000015,51.67404000000001
93,Girvan,0.19675815131989727,0.7025440123743871,0.01,0.9780071,0.17562352852660607,0.05590297276701983,0.05251034734772128,0.01,0.010791282230236192,-4.8542179,55.240159999999996
94,Wadebridge,0.1478230536567271,0.6191339768760264,0.01,0.9780071,0.07881945579122937,0.04926585201593366,0.09255203162902742,0.01,0.3994233199518164,-4.836456,50.51665
95,Invergarry,0.7069580741022379,0.6581561236143572,0.01,0.9780071,0.2566601386566705,0.01,0.27407336128269605,0.01,0.01,-4.800261,57.07095
96,St Austell,0.16001183519675524,0.6084577382599328,0.01,0.9780071,0.10118070254292387,0.048416316453903686,0.0909560840272424,0.01,0.3925357380204583,-4.7834252,50.340379999999996
97,Greenock,0.1918979589895793,0.6604622660669818,0.01,0.9780071,0.1627439975433206,0.05940935937857138,0.055803939258751024,0.01,0.011468140823986995,-4.7719830000000005,55.956480000000006
98,Helensburgh,0.18925128257079024,0.6711668172746913,0.01,0.9780071,0.17186321143448782,0.05867161923451185,0.08266645635189811,0.01,0.011325730470600237,-4.734014,56.00232
99,Bodmin,0.16004259331509074,0.6085609623999952,0.01,0.9780071,0.1012128455665217,0.04842453183570634,0.09097151228221824,0.01,0.39260232666923583,-4.7188629,50.4715
100,Tenby,0.11397288063652315,0.26186709675805186,0.01,0.9780071,0.13217723210828528,0.4875937629689136,0.050889200799071,0.01,0.41832495457210894,-4.703579,51.67274000000001
101,Camelford,0.13408927776269258,0.6257214651756963,0.01,0.9780071,0.08059565546559676,0.04979003219676067,0.09353677472581774,0.01,0.4036731220869229,-4.682364,50.62206
102,Irvine,0.21430726964831973,0.6488039355790118,0.01,0.9780071,0.16554151203044926,0.05592898338515248,0.05253477944006397,0.01,0.010796303214047237,-4.6696364,55.61156999999999
103,Cardigan,0.14731731681349886,0.1523419793132274,0.01,0.9780071,0.14425533036986565,0.3376894781614599,0.01,0.01,0.5214896167487465,-4.660864,52.0837
104,Holyhead,0.5451576195944923,0.3734354487628557,0.01,0.9780071,0.19323796498231866,0.01,0.03110165135579049,0.01,0.07669955243549828,-4.633038,53.30944
105,Ayr,0.2117283430165304,0.6773503314357703,0.01,0.9780071,0.1685316465626935,0.05531662629540129,0.05195958492191762,0.01,0.010678096294913777,-4.629179,55.45856
106,Dumbarton,0.1994157809771208,0.6742619225629463,0.01,0.9780071,0.16077130875618226,0.058942184470363874,0.05536511614277195,0.01,0.01137795928200778,-4.564554,55.94529
107,Bude,0.1127820766121858,0.5537296826340607,0.01,0.9780071,0.0977636015138888,0.128879849647209,0.08070561470020865,0.01,0.3980550599850412,-4.543678,50.82664000000001
108,Isle of Man,0.2170489097538285,0.5027406183955683,0.01,0.9780071,0.5328915096167463,0.01,0.045796251783479736,0.01,0.01,-4.5126330999999995,54.27697
109,Kilmarnock,0.21284535961512133,0.6626876284092851,0.01,0.9780071,0.1581720691053579,0.055581859240354296,0.05220872147724152,0.01,0.010729295782598859,-4.498792,55.61472
110,Newton Stewart,0.20948465672141112,0.6298457947982833,0.01,0.9780071,0.21343783149353213,0.052827302809199284,0.0248106664337431,0.01,0.01019756742547574,-4.483164,54.9603
111,Liskeard,0.1601348854802411,0.6088708187876397,0.01,0.9780071,0.10130921511319728,0.04844918939929608,0.09101783458547898,0.01,0.39280223147508575,-4.4647190000000005,50.45552
112,Altnaharra,0.9210814896361528,0.4610625702755685,0.01,0.9780071,0.26825686537781473,0.01,0.14933214451934407,0.01,0.01,-4.442655,58.28023
113,Pwllheli,0.4189672118458544,0.36376175919984455,0.01,0.9780071,0.14727736982923664,0.01,0.01,0.01,0.21791199782948906,-4.417633900000001,52.888819999999996
114,Lairg,0.8751050664907879,0.462931790018073,0.01,0.9780071,0.26970163476441816,0.01,0.1499375573957764,0.01,0.01,-4.402414,58.022059999999996
115,Launceston,0.16058234753296918,0.610372968263406,0.01,0.9780071,0.0916488079432316,0.048568720635433694,0.09124238353250806,0.01,0.39377131661652537,-4.360451599999998,50.636829999999996
116,Carmarthen,0.0937441371232892,0.11876744011491346,0.01,0.9780071,0.1424502019742602,0.552859256590957,0.01,0.01,0.42688680096780063,-4.312131,51.857620000000004
117,Llangefni,0.5761849204433344,0.3928791716460525,0.01,0.9780071,0.17574989822863965,0.01,0.034704119398240994,0.01,0.05705571590009314,-4.311401999999998,53.25578
118,Caernarfon,0.5210726593668586,0.3710909490954689,0.01,0.9780071,0.20176324722633984,0.01,0.030906387671334537,0.01,0.07621802069176964,-4.273911,53.13955
119,Cumnock,0.22013599540840245,0.6740933347854497,0.01,0.9780071,0.16285518859532191,0.057312998327989965,0.0538348016354079,0.01,0.011063466720947952,-4.265828900000002,55.45355
120,Aberaeron,0.16333677532172336,0.14298914739178298,0.01,0.9780071,0.15091857916168974,0.22187023583500892,0.01,0.01,0.4568418823826123,-4.2581619,52.24279
121,Alness,0.9086134272312612,0.5560648183578917,0.01,0.9780071,0.2308289929834756,0.01,0.14735628753434482,0.01,0.01,-4.256825,57.69595
122,Glasgow,0.20678707891165346,0.6406514361235555,0.01,0.9780071,0.16489442534613127,0.05847481545306581,0.08238916068399928,0.01,0.011287740270000122,-4.251806,55.86424
123,Dalwhinnie,0.8305644437078168,0.5865706332012692,0.01,0.9780071,0.16205851780303865,0.01,0.2331604230113265,0.01,0.01,-4.242783,56.9366
124,Inverness,0.959523669841396,0.5435945842924169,0.01,0.9780071,0.21568153358889414,0.01,0.1440516968916657,0.01,0.01,-4.224721,57.47776999999999
125,Saltash,0.15979690238142638,0.6077361811005081,0.01,0.9780071,0.10095623709479924,0.04835890583583043,0.09084822030788756,0.01,0.3920702412447829,-4.21643,50.409209999999995
126,Bideford,0.06093069257344433,0.4243661953175131,0.01,0.9780071,0.11555345554468052,0.2194903727486001,0.0412339982732474,0.01,0.3728518438205309,-4.206666,51.01668
127,Invergordon,0.9051768175046928,0.5540096627067057,0.01,0.9780071,0.2296501773550852,0.01,0.14681167603257916,0.01,0.01,-4.1728819999999995,57.688109999999995
128,Llanelli,0.021418514549231136,0.08811932644362944,0.01,0.9780071,0.16135875227449095,0.6152897070183613,0.01,0.01,0.6070621027766467,-4.160248,51.68089000000001
129,Plymouth,0.15979690238142638,0.6077361811005081,0.01,0.9780071,0.09087225630275583,0.04835890583583043,0.09084822030788756,0.01,0.3920702412447829,-4.1426565,50.37546
130,Tavistock,0.16292194145242936,0.5706711169620939,0.01,0.9780071,0.09396197468403557,0.04919368339788832,0.09241645925709699,0.01,0.3988382276618359,-4.141654,50.551120000000004
131,Porthmadog,0.4073644018468549,0.3763096459288738,0.01,0.9780071,0.19120843066270649,0.01,0.01,0.01,0.15912623120507227,-4.1333839999999995,52.92784
132,Bangor,0.5625551023586366,0.3849059668740839,0.01,0.9780071,0.20543844483004167,0.01,0.03205697512453168,0.01,0.05270364924089491,-4.129263,53.22739
133,Tywyn,0.35107529989877784,0.3461167413329252,0.01,0.9780071,0.16074535624083292,0.01,0.01,0.01,0.3225315705157304,-4.087249,52.58701
134,Aberystwyth,0.19610049395009005,0.1870792112358492,0.01,0.9780071,0.1297928149985062,0.11611316916225872,0.01,0.01,0.4034522340651464,-4.08292,52.4153
135,Lampeter,0.13430761231548646,0.13771450605473695,0.01,0.9780071,0.12724803991544476,0.3561429955083842,0.01,0.01,0.4399897172543834,-4.0785089999999995,52.1129
136,Barnstaple,0.06002495771070406,0.3861133268969253,0.01,0.9780071,0.09656050004544664,0.3646791654195158,0.04893537345308484,0.01,0.3419243071658392,-4.058338,51.07816
137,Tain,0.924749524371205,0.4628572831980314,0.01,0.9780071,0.2530039292465384,0.01,0.14991342561009996,0.01,0.01,-4.05523,57.8115
138,Okehampton,0.12269486425624895,0.5451295535624929,0.01,0.9780071,0.10162451436504462,0.05126391393942824,0.04815282254454912,0.01,0.4156226205292123,-4.004263,50.73831
139,Llandeilo,0.09729389469339286,0.12243411389498846,0.01,0.9780071,0.1099539622615903,0.5699275486677734,0.01,0.01,0.4889621914320566,-3.9914300000000003,51.88469
140,Motherwell,0.32713428125330263,0.6421365134193221,0.01,0.9780071,0.15126661667831254,0.05776093359987022,0.16276666353829347,0.01,0.011149936525992232,-3.9810968,55.78321
141,Golspie,0.9238688305706416,0.4624263762237516,0.01,0.9780071,0.2693109779794693,0.01,0.14977385808698532,0.01,0.01,-3.976086,57.97341
142,Airdrie,0.31873866851863664,0.6448253265790295,0.01,0.9780071,0.15137465295207184,0.05636891451159332,0.21179205927718964,0.01,0.010881225727328848,-3.9625660000000003,55.86626999999999
143,Swansea,0.01,0.17548565568945115,0.01,0.9780071,0.11770805003573533,0.6126607905506051,0.01,0.01,0.5781871037481124,-3.9436459999999998,51.62144
144,Stirling,0.33169398083749635,0.6064861222309219,0.01,0.9780071,0.1290248348309899,0.06170878137422341,0.28981907794302403,0.01,0.011912012985013534,-3.9369029,56.116519999999994
145,Tregaron,0.11833862775477952,0.16820065477697255,0.01,0.9780071,0.1295719805215658,0.22370558866790213,0.01,0.01,0.4318321592408498,-3.934385,52.22
146,Castle Douglas,0.2274377269212684,0.5254044708507244,0.01,0.9780071,0.3491559747958219,0.01,0.05105149510167384,0.01,0.02098295363653084,-3.9314139999999997,54.940419999999996
147,Dolgellau,0.4229069759448005,0.5734646443982646,0.01,0.9780071,0.1438176495318756,0.01,0.01,0.01,0.2748278447257715,-3.8844,52.74215
148,Aberfeldy,0.6904419975444087,0.3920631288007677,0.01,0.9780071,0.1021640409685455,0.01,1.0,0.01,0.01,-3.866969,56.62175
149,Machynlleth,0.32889379878933056,0.5123546289155633,0.01,0.9780071,0.22393104059526972,0.01,0.01,0.01,0.2888722483757878,-3.853485,52.59027
150,Brora,0.9243970438153404,0.4626848137071944,0.01,0.9780071,0.26951074091871785,0.01,0.14985756857018748,0.01,0.01,-3.852548000000001,58.012159999999994
151,Llandudno,0.5814708464509496,0.3888856060918248,0.01,0.9780071,0.22148203981770626,0.01,0.02983143995968555,0.01,0.049044731821341864,-3.827609,53.324059999999996
152,Aviemore,1.0,0.5274360418739366,0.01,0.9780071,0.1576261734212552,0.01,0.12299734667798914,0.01,0.01,-3.823812,57.19449
153,Dalbeattie,0.2617564135841671,0.4735477608952887,0.01,0.9780071,0.4065363909920248,0.01,0.1022506231054973,0.01,0.01,-3.8225269999999996,54.934219999999996
154,Falkirk,0.3309954313775337,0.6085347470373881,0.01,0.9780071,0.1259669618527191,0.059951597413909714,0.28156636117452666,0.01,0.011572812246376123,-3.7839131,56.00188000000001
155,Kingsbridge,0.18923813868466888,0.5435166924711686,0.01,0.9780071,0.1103509286030231,0.04819153812705601,0.09053380459099933,0.01,0.3907133280842673,-3.777493,50.28395
156,Pitlochry,0.7541053004804571,0.3883047288466859,0.01,0.9780071,0.08463508114595594,0.01,0.990413787568116,0.01,0.01,-3.729711,56.70436
157,Colwyn Bay,0.5745128507133443,0.3908205390099313,0.01,0.9780071,0.216367072853294,0.01,0.029979866529452975,0.01,0.02464437934387009,-3.72764,53.29318000000001
158,Totnes,0.16592252323858658,0.5272448812894794,0.01,0.9780071,0.12512415986916126,0.01,0.05123031699615554,0.01,0.3579597028182394,-3.685797,50.43374
159,Grantown-on-Spey,0.988459383023136,0.5214756802380687,0.01,0.9780071,0.17509638293960214,0.01,0.12160739872397662,0.01,0.01,-3.609628,57.33041
160,Dumfries,0.3185139045039325,0.6433905643827229,0.01,0.9780071,0.3355892378728389,0.01,0.17049746877141814,0.01,0.02335903173355664,-3.60512,55.070859999999996
161,Whitehaven,0.095266227632374,0.3971208909028828,0.01,0.9780071,0.6195585655711431,0.01,0.052618200341838006,0.01,0.01,-3.589233,54.5497
162,Dartmouth,0.18142041168574824,0.523328618860638,0.01,0.9780071,0.1235402826193207,0.01,0.0508497909117518,0.01,0.3553008582536464,-3.578807,50.35252
163,Bridgend,0.01661567088193588,0.3258220033908881,0.01,0.9780071,0.1079668091138329,0.8493479727212329,0.01,0.01,0.6089745069046749,-3.576945,51.50429000000001
164,Paignton,0.15169301980213712,0.5358748498825551,0.01,0.9780071,0.1089115163870194,0.01,0.047335323447734834,0.01,0.4474776616143712,-3.564235,50.43508
165,Workington,0.13053467583347644,0.3798650929845114,0.01,0.9780071,0.5917790764749793,0.01,0.05272857376690316,0.01,0.01,-3.5427519999999997,54.64357
166,Llanidloes,0.23135720526643105,0.3570388156616647,0.01,0.9780071,0.2495631971427471,0.01,0.01,0.01,0.19743194928173327,-3.5401949999999998,52.44779000000001
167,Exeter,0.1081078399932407,0.5845184946163763,0.01,0.9780071,0.09019975282014853,0.01,0.0486817483856251,0.01,0.4602058665959515,-3.533899,50.71841
168,Torquay,0.15379418932660172,0.542385954894123,0.01,0.9780071,0.11130551687976002,0.01,0.04791046970230982,0.01,0.4529147170294531,-3.525315,50.46192
169,Thurso,0.9045815668787464,0.5033215508309442,0.01,0.9780071,0.2620167140151262,0.01,0.14671734756367932,0.01,0.01,-3.5220800000000003,58.59356999999999
170,Livingston,0.7316403687426422,0.2566323211689145,0.01,0.9780071,0.04398314443652177,0.03620050614972995,0.6970733190198954,0.01,0.013975996602799709,-3.518068,55.90071
171,Rhyl,0.6232703100022943,0.4382889260421389,0.01,0.9780071,0.2357924710681537,0.01,0.02903646386283596,0.01,0.023868873185831814,-3.4916339999999995,53.319140000000004
172,Tiverton,0.13486768790743595,0.5912333251897072,0.01,0.9780071,0.08578883712076367,0.1667985124118719,0.05222529733269175,0.01,0.4722388791192769,-3.491207,50.90205
173,Minehead,0.07071321682578427,0.4477532974326974,0.01,0.9780071,0.11602214844803065,0.7579198963850242,0.03955130494588402,0.01,0.5527106914021225,-3.481152,51.20428
174,Dunfermline,0.7473658352072275,0.2500838707635974,0.01,0.9780071,0.0390360354842314,0.03695662956648201,0.8678453699739787,0.01,0.01,-3.452151,56.07174000000001
175,Perth,0.6236523019664286,0.25710237641802114,0.01,0.9780071,0.04422510997527189,0.03626681153142276,0.7153830271831106,0.01,0.01,-3.4308381000000003,56.39499
176,Prestatyn,0.5881990557133001,0.4078046169944721,0.01,0.9780071,0.2401815414163157,0.01,0.028303409928032205,0.01,0.02326628018845026,-3.4076129999999996,53.33651
177,Builth Wells,0.14219704295332936,0.3376324013787257,0.01,0.9780071,0.1212649732174208,0.5238899649002807,0.01,0.01,0.5393577905146192,-3.4045919999999996,52.15002
178,Braemar,0.9140530904001224,0.4268789332242284,0.01,0.9780071,0.1372351154437526,0.01,0.42569682957725935,0.01,0.01,-3.3979439,57.00646999999999
179,Brecon,0.035483933130888996,0.2929418125651245,0.01,0.9780071,0.09197029770332736,1.0,0.01,0.01,0.561559062288822,-3.391463,51.94895
180,Merthyr Tydfil,0.01,0.3315560114677954,0.01,0.9780071,0.08212619910591201,0.8947156175081741,0.01,0.01,0.6217641362834659,-3.381646,51.74873
181,Llandrindod Wells,0.20761847423418964,0.5023338479516327,0.01,0.9780071,0.15090209098106644,0.01,0.01,0.01,0.4956391984159365,-3.377742,52.2417
182,Corwen,0.5623693069385578,0.3562979971095033,0.01,0.9780071,0.2455034737382271,0.01,0.03147279821949465,0.01,0.05174323069662165,-3.369242,52.98005
183,Cockermouth,0.09784057705720788,0.4243458485167808,0.01,0.9780071,0.5993785205911483,0.01,0.053780901951444735,0.01,0.01,-3.367985,54.66326
184,Lockerbie,0.5386210830996732,0.5520108010973289,0.01,0.9780071,0.3307583795225606,0.01,0.3448075237244814,0.01,0.01,-3.349008,55.12224000000001
185,Blairgowrie,0.7008260415933111,0.2571877373180194,0.01,0.9780071,0.04086479495459293,0.03990673377908545,0.7122128344987921,0.01,0.01,-3.3378318,56.58941
186,Elgin,0.9830865791340844,0.5394488408578476,0.01,0.9780071,0.17369578044838688,0.01,0.1209602968471334,0.01,0.01,-3.318485,57.64945
187,Newtown,0.2422754823886352,0.38106720993483134,0.01,0.9780071,0.29938714563581376,0.01,0.01,0.01,0.1956675914401933,-3.313106,52.51211
188,Ruthin,0.5883434247389095,0.34622651471445304,0.01,0.9780071,0.21994822235091332,0.01,0.02968365154158378,0.01,0.02440087926198926,-3.3103108,53.114869999999996
189,Sidmouth,0.1491216268611734,0.5279066122319226,0.01,0.9780071,0.08786575263812378,0.01,0.0466314689735996,0.01,0.4024913548599353,-3.2375599999999998,50.67865
190,Barrow-in-Furness,0.10680675555851916,0.5799105145496183,0.01,0.9780071,0.6360851392504234,0.01,0.04448497345077247,0.01,0.01,-3.2188939999999997,54.10896999999999
191,Peebles,0.7279472217048375,0.2099298090564972,0.01,0.9780071,0.031748021552254466,0.038322261236627,0.6659365478720171,0.01,0.01,-3.1936419999999996,55.65306999999999
192,Edinburgh,0.7592795568864719,0.14960842526800378,0.01,0.9780071,0.028864911383767268,0.03869018359956765,0.944896193557771,0.01,0.01,-3.1882669999999997,55.95325
193,Cardiff,0.04406913484626231,0.3507729208733892,0.01,0.9780071,0.08867218538572194,0.9629561355245921,0.01,0.01,0.6142291273636376,-3.17909,51.48158
194,Llangollen,0.5300820808973065,0.38395318101809056,0.01,0.9780071,0.2694372286332673,0.01,0.028215548777693687,0.01,0.046388106804904086,-3.1716599999999997,52.96921
195,Kirkcaldy,0.8093847988071763,0.2041006714076307,0.01,0.9780071,0.01827652321770951,0.035188267206189464,0.793266467086789,0.01,0.01,-3.158137,56.11682
196,Welshpool,0.2835029375516873,0.4197016084642691,0.01,0.9780071,0.4211229546248246,0.01,0.01,0.01,0.12571142304189775,-3.146407,52.66035
197,Mold,0.5658924739639741,0.3800313075818139,0.01,0.9780071,0.2331198977042321,0.01,0.027694613238986133,0.01,0.02276583048859776,-3.1419029999999997,53.1672
198,Taunton,0.0946665066603348,0.4522762661376253,0.01,0.9780071,0.0991073584726302,0.4953727018996589,0.01,0.01,0.5259360131024843,-3.106849,51.01534
199,Wick,0.98518521961813,0.4667454353994596,0.01,0.9780071,0.2070551793928933,0.01,0.12368679715738505,0.01,0.01,-3.093716,58.43894
200,John o' Groats,0.9812544674519446,0.4649224834723636,0.01,0.9780071,0.2059023162798521,0.01,0.12320371634647533,0.01,0.01,-3.0688997000000002,58.63734
201,Dalkeith,0.7350032266637515,0.14958140044858625,0.01,0.9780071,0.032876955969950564,0.038683189963217235,0.9447254638554196,0.01,0.01,-3.066606,55.893119999999996
202,Oswestry,0.2946035193057862,0.4925620669406065,0.01,0.9780071,0.4065565696679501,0.01,0.01,0.01,0.09196987402660196,-3.056412,52.85715
203,Blackpool,0.1372440063434033,0.6138751015500361,0.01,0.9780071,0.5077537603914973,0.01,0.01,0.01,0.01,-3.0356748,53.81751
204,Birkenhead,0.5589628141651484,0.424448079232576,0.01,0.9780071,0.3006706641873681,0.01,0.02613926602594702,0.01,0.021487286994625248,-3.023009,53.389990000000004
205,Cupar,0.8164088523681204,0.2241742988632283,0.01,0.9780071,0.02640775580206873,0.036614929058037225,0.7566426855884606,0.01,0.01,-3.010137,56.32023
206,Southport,0.475319878197139,0.4479329784478444,0.01,0.9780071,0.34533613358592985,0.01,0.02417994199544567,0.01,0.01987665765918041,-3.010113,53.64571
207,Bridgwater,0.13230240384579425,0.3695115700812989,0.01,0.9780071,0.16739771211910445,0.3856196426890101,0.01,0.01,0.8540832145764865,-3.003632,51.12789
208,Langholm,0.4274727844083162,0.4965941920737989,0.01,0.9780071,0.5090640647960497,0.01,0.36189083845176107,0.01,0.019832363677325,-2.998913,55.153059999999996
209,Newport,0.049129673484140365,0.3924910738989916,0.01,0.9780071,0.08826134992484783,0.9473517571177348,0.01,0.01,0.574743482499621,-2.997664,51.58415
210,Axminster,0.1570599819640236,0.5320428445489707,0.01,0.9780071,0.09064904086110444,0.01,0.01,0.01,0.3922720283685321,-2.9949369999999997,50.78273
211,Wrexham,0.5300972017093891,0.4341822021051763,0.01,0.9780071,0.3020586475656154,0.01,0.02600616582139368,0.01,0.04275574681903814,-2.9924939999999998,53.04304000000001
212,Liverpool,0.5474312625514762,0.4551263083765534,0.01,0.9780071,0.2984380931020298,0.01,0.024875344981975085,0.01,0.020448304821308674,-2.9915726,53.40837
213,Weston-super-Mare,0.10603974390580513,0.3124299083989239,0.01,0.9780071,0.14458664160939402,0.508783527692482,0.01,0.01,0.874656080792928,-2.977255,51.347409999999996
214,Dundee,0.8123350313168226,0.2337070877510052,0.01,0.9780071,0.02729799850749226,0.038171940873274884,0.7529628081401791,0.01,0.01,-2.9707209999999997,56.462019999999995
215,Kirkwall,0.9526733542331808,0.4790412867125456,0.01,0.9780071,0.2451261503556597,0.01,0.13963969324167408,0.01,0.01,-2.9622491,58.984669999999994
216,Ambleside,0.09710184791284172,0.4862856860072881,0.01,0.9780071,0.6143297884935475,0.01,0.04647587794479578,0.01,0.01,-2.961333,54.42874000000001
217,Orkney Islands,0.9526733542331808,0.4790412867125456,0.01,0.9780071,0.2451261503556597,0.01,0.13963969324167408,0.01,0.01,-2.9605206,58.980940000000004
218,Lyme Regis,0.18378152025891387,0.5005480574508291,0.01,0.9780071,0.09252494343274276,0.01,0.01,0.01,0.3690511111598075,-2.936639,50.725159999999995
219,Carlisle,0.3046438631997156,0.4926050417385366,0.01,0.9780071,0.5600520669362989,0.01,0.2153902533122659,0.01,0.019673049932872885,-2.932931,54.892469999999996
220,Chester,0.5129068687277348,0.410659111245857,0.01,0.9780071,0.30417008707128423,0.01,0.024429877581006426,0.01,0.02008211684571676,-2.893075,53.19339
221,Forfar,0.7812801069349531,0.2508659532163398,0.01,0.9780071,0.04951686356947205,0.033848531972359146,0.6676811633614264,0.01,0.01,-2.889062,56.64356
222,Morecambe,0.1348971993157058,0.5745455083977464,0.01,0.9780071,0.6147090166478838,0.01,0.01,0.01,0.01,-2.864968,54.074169999999995
223,Selkirk,0.7979411580632808,0.20617052605862232,0.01,0.9780071,0.05780535887298941,0.03998825959711312,0.7700100324413247,0.01,0.01,-2.838524,55.55066
224,Galashiels,0.7609758662221683,0.19991143806625186,0.01,0.9780071,0.06550331540407382,0.03877426709031774,0.9469497709805056,0.01,0.01,-2.814449,55.62373
225,Lancaster,0.1259817797242128,0.5778541079197255,0.01,0.9780071,0.6154761634777514,0.01,0.01,0.01,0.01,-2.8007399,54.046569999999996
226,St Andrews,0.7831939315568285,0.25660927004656586,0.01,0.9780071,0.022585295530994712,0.03792092927374952,0.7480114912560325,0.01,0.01,-2.7967214,56.33978000000001
227,Hawick,0.63570695531353,0.2681815405582014,0.01,0.9780071,0.11172051902887828,0.03782963520119488,0.5685414384615307,0.01,0.01,-2.780914,55.42706
228,Bridport,0.23563694720029704,0.5638340952038948,0.01,0.9780071,0.09968004000973098,0.01,0.01,0.01,0.4371084417844897,-2.758301,50.733579999999996
229,Shrewsbury,0.2588266983601737,0.43139321866519104,0.01,0.9780071,0.3322655301845908,0.01,0.01,0.01,0.07296754421517357,-2.7553267999999997,52.7073
230,Penrith,0.15655609737575013,0.4026133497088899,0.01,0.9780071,0.7597707202412298,0.01,0.061768989558213874,0.01,0.01,-2.752708,54.6641
231,Kendal,0.10232702351996904,0.5743485712351427,0.01,0.9780071,0.6507325960557058,0.01,0.04852800209777077,0.01,0.01,-2.74629,54.32801
232,Street,0.13910028639067426,0.3731633976876027,0.01,0.9780071,0.2008433019861472,0.10409382580316802,0.01,0.01,0.9745516350723576,-2.7429189999999997,51.12468
233,Glastonbury,0.13956940557825814,0.361639860155298,0.01,0.9780071,0.20168872303088714,0.10439838296622853,0.01,0.01,0.9774029918266008,-2.718454,51.14743
234,Hereford,0.11510560578194208,0.5968614599951726,0.01,0.9780071,0.21132466578844786,0.3121768868642474,0.01,0.01,0.14462725219061134,-2.715974,52.0564
235,Ludlow,0.21634911358380024,0.4323900831238557,0.01,0.9780071,0.3523874796256385,0.01,0.01,0.01,0.08400774866081788,-2.7139129,52.36775
236,Preston,0.14388068927678668,0.6334911651468502,0.01,0.9780071,0.5031440341387482,0.03780621080123917,0.01,0.01,0.01,-2.70309,53.7632
237,Whitchurch,0.35518586327672663,0.5508284790453708,0.01,0.9780071,0.3641831954725004,0.01,0.01,0.01,0.03327474740098295,-2.682045,52.96872
238,Wells,0.11648745921877796,0.3397249944073893,0.01,0.9780071,0.19217914997536,0.06589211772994946,0.01,0.01,0.9565098913182708,-2.6445979,51.20935
239,Yeovil,0.12934773661034282,0.4888516273025366,0.01,0.9780071,0.16351834679143876,0.06895731150597162,0.01,0.01,0.4792046036928882,-2.633308,50.94206
240,Wigan,0.26315166024913755,0.5789946325654777,0.01,0.9780071,0.429127877031268,0.03963536356141676,0.01,0.01,0.010201398184853955,-2.6325074,53.54506
241,Warrington,0.3376310100820018,0.658999209675805,0.01,0.9780071,0.4122923731807421,0.038345297418401626,0.01,0.01,0.01,-2.5969501,53.39004
242,Arbroath,0.7900503916646533,0.25360752824268395,0.01,0.9780071,0.051021038025613585,0.0342184468080233,0.6749778967590406,0.01,0.01,-2.591543,56.55911
243,Bristol,0.11463328076847493,0.2471740574979248,0.01,0.9780071,0.17620591249490405,0.2600200368537802,0.01,0.01,0.9135163993728964,-2.58791,51.45451
244,Guernsey,0.2639465803971797,0.4860499685047714,0.01,0.9780071,0.11441999729403356,0.01,0.01,0.01,0.335285424833838,-2.5852779999999997,49.46569
245,Ross-on-Wye,0.10219141708510708,0.6435357882931939,0.01,0.9780071,0.20064080093748105,0.2826077409928872,0.01,0.01,0.1309282759163116,-2.582446,51.91445
246,Jedburgh,0.5869518291534173,0.22466131591186045,0.01,0.9780071,0.1205312789417421,0.03873305316312295,0.5093540619723669,0.01,0.01,-2.5549369,55.47772
247,Sedbergh,0.09053670832708643,0.6432457452006569,0.01,0.9780071,0.7016975028382587,0.01,0.0721173105948562,0.01,0.01,-2.5281740000000004,54.32363
248,Nantwich,0.3366647207303555,0.6417242239516798,0.01,0.9780071,0.3730415746795832,0.01,0.01,0.01,0.01,-2.524102,53.06718000000001
249,Banff,0.9702442009370345,0.5120681179981986,0.01,0.9780071,0.18360261746593567,0.01,0.11941356736289033,0.01,0.01,-2.524038,57.666509999999995
250,Dunbar,0.7726964547020899,0.1774215820318249,0.01,0.9780071,0.022866606511593245,0.036706343021500734,0.8274892860636411,0.01,0.01,-2.516737,56.00209
251,Cinderford,0.1470012758118407,0.4315822084336569,0.01,0.9780071,0.2307095876032215,0.2014930003462678,0.01,0.01,0.6955410705829846,-2.5009579,51.8253
252,Banchory,0.9880241743493394,0.3961507017254676,0.01,0.9780071,0.1412519814834755,0.01,0.6077749117021986,0.01,0.01,-2.4909599,57.05386
253,Blackburn,0.15507806916241634,0.602401860720446,0.01,0.9780071,0.5011497976209758,0.043475423699610105,0.01,0.01,0.01,-2.487529,53.748580000000004
254,Market Drayton,0.3116818621032519,0.4585109968387032,0.01,0.9780071,0.3726372868716642,0.01,0.01,0.01,0.03169288402678388,-2.483485,52.90355
255,Telford,0.29085131383115465,0.4598097518941289,0.01,0.9780071,0.3371840080362321,0.01,0.01,0.01,0.03592822052679307,-2.4672611,52.67759
256,Montrose,0.8386005052595314,0.2520444671419405,0.01,0.9780071,0.05556641870704925,0.037246360220479606,0.6297473101196746,0.01,0.01,-2.4661150000000003,56.70692
257,Turriff,0.975257044009827,0.5146571104157959,0.01,0.9780071,0.1716546984499265,0.01,0.12001731246480145,0.01,0.01,-2.4623,57.53893000000001
258,Weymouth,0.3345778527513591,0.5308815131838438,0.01,0.9780071,0.13650487356690474,0.01,0.01,0.01,0.3914157765033237,-2.457621,50.61443
259,Crewe,0.2938213690308457,0.6309444300541011,0.01,0.9780071,0.3638700986130107,0.01,0.01,0.01,0.01,-2.4438209,53.1004
260,Fortuneswell,0.2577859626074606,0.5123772753095068,0.01,0.9780071,0.11911103349166152,0.01,0.01,0.01,0.3836754119905669,-2.4422189999999997,50.55919
261,Dorchester,0.3067653184779636,0.5082071377901535,0.01,0.9780071,0.1379786907229817,0.01,0.01,0.01,0.4059229482292972,-2.4411810000000003,50.71116
262,Alston,0.22803392148483603,0.5236886431737772,0.01,0.9780071,0.6221323884236781,0.01,0.03816358247877273,0.01,0.02614303500961853,-2.438685,54.812169999999995
263,Kelso,0.722877225880604,0.22399838918094744,0.01,0.9780071,0.08099309799997179,0.04089045010449807,0.6721558024017958,0.01,0.01052443611651756,-2.432207,55.600030000000004
264,Wincanton,0.1241315373156886,0.36613304452895495,0.01,0.9780071,0.1874128752928661,0.06383294569747952,0.01,0.01,0.8970453639451299,-2.416007,51.05569000000001
265,Clitheroe,0.1324829808937408,0.663998267762426,0.01,0.9780071,0.5377251060764422,0.04479557104256837,0.01,0.01,0.01,-2.3930830000000003,53.8711
266,Sark,0.25272574455217084,0.42447801073781255,0.01,0.9780071,0.11789620577201798,0.01,0.01,0.01,0.32209325714362896,-2.3666256000000003,49.43007
267,Bath,0.12596409425142344,0.29501966980049105,0.01,0.9780071,0.1938435038324305,0.07042608932137613,0.01,0.01,0.9896989227230168,-2.3590167,51.38106
268,Kidderminster,0.2377478944937055,0.4384260001942696,0.01,0.9780071,0.3470672735031426,0.01,0.01,0.01,0.01,-2.2496839,52.3886
269,Manchester,0.18067397074911848,0.5364414880465305,0.01,0.9780071,0.4601675020578976,0.018670063164696608,0.01,0.01,0.04084525145834122,-2.2426305,53.48076
270,Burnley,0.2073837899693911,0.6773775586193903,0.01,0.9780071,0.515103857978312,0.03857094352706585,0.01,0.01,0.01,-2.2405035,53.78929
271,Gloucester,0.17417896750963144,0.6862951051410809,0.01,0.9780071,0.24496567333414165,0.01,0.01,0.01,0.14510331331018772,-2.238156,51.86424
272,Newcastle-under-Lyme,0.26002617592453964,0.6009904807879105,0.01,0.9780071,0.34687120105919605,0.01,0.01,0.01,0.01,-2.2273002,53.01321
273,Worcester,0.08787701269318261,0.5850033592457627,0.01,0.9780071,0.2696078247548068,0.01,0.01,0.01,0.01,-2.221575,52.19364
274,Trowbridge,0.13256661732900632,0.3367065667551673,0.01,0.9780071,0.19728411688798628,0.07358498069722112,0.01,0.01,1.0,-2.208853,51.31966
275,Shaftesbury,0.2747925839558601,0.5351131878175278,0.01,0.9780071,0.13449004170438258,0.059308040142399335,0.01,0.01,0.3205603186059767,-2.198083,51.0046
276,Alderney,0.31807947947646303,0.5313904407565919,0.01,0.9780071,0.1289347748407983,0.0350866453881998,0.01,0.01,0.2302814228805121,-2.1973557,49.715
277,Stoke-on-Trent,0.25752294240388285,0.5109532752094286,0.01,0.9780071,0.33203915996469746,0.01,0.01,0.01,0.01,-2.179404,53.002669999999995
278,Colne,0.2341120783087801,0.673278524522126,0.01,0.9780071,0.5294819681506684,0.04308032606399356,0.01,0.01,0.01,-2.176991,53.85564
279,Blandford Forum,0.3377319935973245,0.5964904896183485,0.01,0.9780071,0.0996643851667565,0.05002968270539842,0.01,0.01,0.28972578697011325,-2.165353,50.85691
280,Rochdale,0.2037034840452636,0.4821744548676317,0.01,0.9780071,0.4630771004587941,0.03828587149124126,0.01,0.01,0.04187977690239269,-2.1561,53.60971
281,Jersey,0.3034657756180485,0.4776859984576168,0.01,0.9780071,0.13988340296762253,0.031540649103995864,0.01,0.01,0.267893041742101,-2.13125,49.21444
282,Wolverhampton,0.23819599771161026,0.4123868600140109,0.01,0.9780071,0.3564908342084867,0.01,0.01,0.01,0.01,-2.12882,52.586969999999994
283,Stafford,0.2521066283335379,0.4527707890584987,0.01,0.9780071,0.30034679346256143,0.01,0.01,0.01,0.01,-2.12066,52.80669
284,Macclesfield,0.15137988185391776,0.4631207981832846,0.01,0.9780071,0.43671833300565305,0.01,0.01,0.01,0.041614974007283714,-2.119287,53.25866
285,Hexham,0.1764323959534071,0.5839523715612803,0.01,0.9780071,0.6095148230827149,0.01,0.07142143569785131,0.01,0.05381807621441696,-2.1121439,54.97266
286,Aberdeen,0.9890547048896576,0.3965551909729376,0.01,0.9780071,0.15499235025800429,0.01,0.6083954847026546,0.01,0.01,-2.094278,57.149719999999995
287,Dudley,0.22178195546758767,0.42285313657155305,0.01,0.9780071,0.3552086251875233,0.01,0.01,0.01,0.01,-2.081112,52.51225
288,Cheltenham,0.19597165536987046,0.7852668558342704,0.01,0.9780071,0.2083072096861454,0.01,0.01,0.01,0.08960289894236789,-2.0782533,51.899390000000004
289,Bromsgrove,0.2089424268935451,0.5050456386467059,0.01,0.9780071,0.35183539343328746,0.01,0.01,0.01,0.01,-2.061906,52.33559
290,Skipton,0.2252138276959063,0.6788460236537998,0.01,0.9780071,0.3666917798919554,0.03434793469868753,0.01,0.01,0.01,-2.0162787,53.96285
291,Fraserburgh,0.9673823423609034,0.5105900682592852,0.01,0.9780071,0.1828182681660316,0.01,0.11906888502414467,0.01,0.01,-2.007631,57.69335
292,Berwick,0.6062178275336203,0.2617408398923864,0.01,0.9780071,0.1121759380539649,0.038679256399588316,0.7993018481349511,0.01,0.01,-2.005395,55.77024
293,Poole,0.26120864480158057,0.5140315290786321,0.01,0.9780071,0.13888429065079086,0.04311357010029434,0.01,0.01,0.21638416623630136,-1.987248,50.71505
294,Walsall,0.22290029001681955,0.4428117475731013,0.01,0.9780071,0.37181912787286464,0.01,0.01,0.01,0.01,-1.9829189999999999,52.586209999999994
295,Cirencester,0.22026175283374524,0.7275686088233736,0.01,0.9780071,0.2481821780862794,0.01,0.01,0.01,0.1992461775270084,-1.968243,51.71849
296,Evesham,0.2013342362363832,0.6732819647135698,0.01,0.9780071,0.25724651074085925,0.01,0.01,0.01,0.01,-1.9467700000000001,52.09215
297,Buxton,0.18807098653129248,0.3865413087886405,0.01,0.9780071,0.3867176574069165,0.06099456268466484,0.01,0.01,0.023548284030732777,-1.91483,53.259080000000004
298,Keighley,0.2252524935180872,0.6755577893292988,0.01,0.9780071,0.3896863632567621,0.03160505906751044,0.01,0.01,0.01,-1.9123580000000002,53.8678
299,Birmingham,0.22144883453802927,0.4401791180747289,0.01,0.9780071,0.3835684149078629,0.01,0.01,0.01,0.01,-1.8904009999999998,52.48624
300,Bournemouth,0.2989944677775138,0.5022924736705776,0.01,0.9780071,0.17680329654088092,0.038018834473564384,0.01,0.01,0.16145801311612334,-1.880769,50.719159999999995
301,Halifax,0.2316185869367796,0.7158348332813318,0.01,0.9780071,0.425188094724062,0.030019747288689926,0.01,0.01,0.01,-1.8575400000000002,53.727019999999996
302,Salisbury,0.2775605474538992,0.509252864005369,0.01,0.9780071,0.10411631298328748,0.04789007529126242,0.01,0.01,0.2773351406582769,-1.794472,51.06878
303,Ringwood,0.3058632703149891,0.5130664357997727,0.01,0.9780071,0.17438786736574172,0.03883432101747692,0.01,0.01,0.13493554116968018,-1.7888169999999999,50.84495
304,Huddersfield,0.24648850752384185,0.7151965213961511,0.01,0.9780071,0.4271486405911745,0.01,0.01,0.01,0.01,-1.7850351000000002,53.64579000000001
305,Peterhead,0.9306483508572684,0.4727097339389051,0.01,0.9780071,0.1810715329299622,0.01,0.4133821755670315,0.01,0.01,-1.784066,57.50812
306,Swindon,0.28256542939241514,0.836820847339389,0.01,0.9780071,0.2257168236525987,0.01,0.01,0.01,0.2734356656561353,-1.7797176,51.55577
307,Bradford,0.19738487246993106,0.6774651639223627,0.01,0.9780071,0.3920319706417528,0.01,0.01,0.01,0.01,-1.759398,53.79598000000001
308,Ashbourne,0.3273601851172098,0.6559559648136483,0.01,0.9780071,0.4140314893297364,0.15592123843243982,0.01,0.01,0.01,-1.7321790000000001,53.016630000000006
309,Marlborough,0.2353851473873107,0.8393997215468572,0.01,0.9780071,0.21206466962061046,0.01,0.01,0.01,0.2540683425017864,-1.7270619999999999,51.42007
310,Stratford-upon-Avon,0.2171249412576932,0.4527123058039525,0.01,0.9780071,0.25537804868394265,0.01,0.01,0.01,0.01,-1.7082979999999999,52.19173
311,Alnwick,0.22169167584868632,0.5787558244096851,0.01,0.9780071,0.5718781996073431,0.01,0.2123575903558273,0.01,0.05333915414796322,-1.7062990000000002,55.41274
312,Otley,0.1915409368470467,0.6959868419116132,0.01,0.9780071,0.3563393453287526,0.01,0.01,0.01,0.01,-1.691786,53.90583
313,Bishop Auckland,0.13394430319219405,0.5537347969293623,0.01,0.9780071,0.6644933220785131,0.01,0.06371554519278286,0.5340600954162908,0.06547018606156996,-1.6787880000000002,54.663819999999994
314,Burton upon Trent,0.281614919828172,0.6471204677777321,0.01,0.9780071,0.4278912634845192,0.17131726927605465,0.01,0.01,0.01,-1.6371358999999999,52.81403
315,Newcastle,0.16660076913462188,0.6014734873459825,0.01,0.9780071,0.6482660951875167,0.01,0.06786908133032228,0.01,0.0790365206393094,-1.61778,54.97825
316,Durham,0.1513108853568524,0.5418198870292641,0.01,0.9780071,0.6621393813170341,0.01,0.06234455945969297,0.5225684816270736,0.06406144083112437,-1.5848520000000001,54.77525
317,Ashington,0.1678852901356132,0.6173076767412152,0.01,0.9780071,0.6191699921303163,0.01,0.0683332052829284,0.01,0.07957700816661034,-1.5659829,55.18298000000001
318,Darlington,0.13118736417316462,0.5260930794386195,0.01,0.9780071,0.6567560201055802,0.01,0.06716286730380981,0.5629553069547057,0.06901243944551358,-1.559458,54.52361
319,Leeds,0.2077010242506836,0.682015286223928,0.01,0.9780071,0.3676399395639728,0.01,0.01,0.01,0.01,-1.5490774,53.80076
320,Harrogate,0.2387459037114523,0.6713626138390624,0.01,0.9780071,0.3637086692056084,0.01,0.01,0.01,0.012065421893807271,-1.5418120000000002,53.99211999999999
321,Leamington Spa,0.19312632460718213,0.3526365112117127,0.01,0.9780071,0.26655911849067315,0.01,0.01,0.01,0.01,-1.5200789,52.28519
322,Coventry,0.22069838631904545,0.4725440528472276,0.01,0.9780071,0.3548858258968365,0.01,0.01,0.01,0.01,-1.519693,52.40682
323,Blyth,0.16666419105667904,0.613321893010414,0.01,0.9780071,0.6409788550690708,0.01,0.06789199580147688,0.01,0.07906320370779774,-1.510277,55.12696
324,Wakefield,0.2284202235037689,0.7014315979560479,0.01,0.9780071,0.4191896708036524,0.01,0.01,0.01,0.01,-1.505924,53.6833
325,Andover,0.17597877159092562,0.4814977305774517,0.01,0.9780071,0.07666176604605035,0.057470746218600766,0.01,0.01,0.06656351520496064,-1.4919233,51.2112
326,Witney,0.17993442233813772,0.7549940357750474,0.01,0.9780071,0.12703083640968854,0.01,0.01,0.01,0.01,-1.4850543999999999,51.785940000000004
327,Barnsley,0.2596830991245994,0.6807877633678112,0.01,0.9780071,0.5396027943716136,0.01,0.01,0.01,0.01,-1.479726,53.55263000000001
328,Derby,0.32027262058348954,0.7078656206031777,0.37054853602866417,0.9780071,0.428542874001788,0.13136594178796254,0.01,0.01,0.01,-1.4746186000000001,52.92253
329,Sheffield,0.26991071668054256,0.6645901278647411,0.01,0.9780071,0.5389618981955443,0.03456591349827536,0.01,0.01,0.01,-1.470085,53.38113000000001
330,Nuneaton,0.28136265695144697,0.4762901821719345,0.01,0.9780071,0.3362788247772474,0.06928494481444301,0.01,0.01,0.01,-1.465382,52.52049
331,Northallerton,0.14943255635156213,0.6799758229968151,0.01,0.9780071,0.5776199555319125,0.01,0.01,0.7383998115011788,0.05431206343642312,-1.429959,54.337959999999995
332,South Shields,0.15146816673671396,0.5744244394143654,0.01,0.9780071,0.6478159142847942,0.01,0.06240138713365154,0.5230448528845273,0.07266914613338864,-1.427406,54.99941999999999
333,Chesterfield,0.22411957246108646,0.7227647034150246,0.01,0.9780071,0.4585582080097677,0.034955330588448096,0.01,0.01,0.01,-1.421629,53.23505
334,Southampton,0.2794092938103445,0.4897098722824327,0.01,0.9780071,0.1856254255602396,0.03706644963900162,0.01,0.01,0.12879280830073805,-1.4043508999999998,50.9097
335,Wetherby,0.229685046485722,0.7062811824839432,0.01,0.9780071,0.3511064610870307,0.01,0.01,0.01,0.011644920009931056,-1.384816,53.92706
336,Sunderland,0.14817601508647413,0.5634746043963806,0.01,0.9780071,0.6439789301289834,0.01,0.061211872428848735,0.5130744087589023,0.0712839056313719,-1.383801,54.90687
337,Rotherham,0.22946049619274336,0.7297789226277028,0.01,0.9780071,0.5186990551677262,0.01,0.01,0.01,0.01,-1.3635008999999998,53.4326
338,Castleford,0.2530970326198839,0.735227266037547,0.01,0.9780071,0.4496086973783733,0.01,0.01,0.01,0.013763717871087171,-1.345968,53.72346999999999
339,Thirsk,0.16507629206626842,0.7080671201587123,0.01,0.9780071,0.4094411084152639,0.01,0.01,0.5323186748410619,0.013051342098613328,-1.341377,54.23385
340,Banbury,0.18491244657980946,0.5855808698864405,0.01,0.9780071,0.11611452987881545,0.01,0.01,0.01,0.0364460320745295,-1.339775,52.0629
341,Stockton,0.13525826436087995,0.5584234283292223,0.01,0.9780071,0.6637336752874851,0.01,0.06425504611860418,0.5385820713780165,0.06602454190763257,-1.3289821000000002,54.57046
342,Newbury,0.09264795839293943,0.7293380262205137,0.01,0.9780071,0.13263973450338698,0.01,0.01,0.01,0.028187805319291968,-1.3231138999999998,51.40141
343,Isle of Wight,0.30628191555505546,0.5437051671307552,0.01,0.9780071,0.1966113157847901,0.03749530512909978,0.01,0.01,0.13028294284119524,-1.304734,50.69385
344,Abingdon,0.059655361606651636,0.6266692287201163,0.01,0.9780071,0.08760997750405017,0.01,0.01,0.01,0.02502714009262935,-1.2879528999999998,51.67078
345,Shetland Islands,0.9812125958038802,0.4649030565089158,0.01,0.9780071,0.2058900543115908,0.01,0.12319856823219767,0.01,0.01,-1.2659409,60.52965
346,Rugby,0.2582925721477349,0.3652380796446632,0.01,0.9780071,0.3055340822300687,0.01,0.01,0.01,0.03548049556519512,-1.265032,52.37088
347,Oxford,0.13190183590168075,0.5875328565878011,0.01,0.9780071,0.12391695123659276,0.01,0.01,0.01,0.01,-1.2577263,51.75202
348,Middlesbrough,0.13491212421620674,0.5608540431631807,0.01,0.9780071,0.6549543441088058,0.01,0.06411292598882687,0.5373909184885538,0.0658785123903223,-1.234956,54.57423000000001
349,Hartlepool,0.12804107760061315,0.543183398629516,0.01,0.9780071,0.6596746661723784,0.01,0.061291743276818814,0.5137438816319461,0.06297963702765817,-1.212926,54.69174
350,Loughborough,0.30980730884844626,0.6916215149204966,0.30440110527051906,0.9780071,0.4188234189069908,0.07194367986396104,0.01,0.01,0.01,-1.206166,52.7721
351,Mansfield,0.24613768331135025,0.6896961115166571,0.23779481187622306,0.9780071,0.4661105685487775,0.02810080765595484,0.01,0.01,0.01,-1.198674,53.1472
352,Nottingham,0.25032224783677104,0.6745421417932854,0.3507738657003078,0.9780071,0.4369861320115169,0.01,0.01,0.01,0.01,-1.1581086,52.95478000000001
353,Bicester,0.11150662097438654,0.656192988485109,0.01,0.9780071,0.14954898873583455,0.01,0.01,0.01,0.01,-1.1535898999999998,51.8996
354,Leicester,0.35020618269168197,0.609170446584681,0.01,0.9780071,0.3343981602761872,0.01,0.01,0.01,0.01,-1.1397591999999999,52.63688000000001
355,Doncaster,0.2345352295152268,0.7445514542259533,0.6307286268108057,0.9780071,0.5076691170960229,0.01,0.01,0.01,0.01,-1.128462,53.522819999999996
356,Worksop,0.22962903358348394,0.7067124389963912,0.01,0.9780071,0.5305401283923316,0.01,0.01,0.01,0.01,-1.122745,53.3093
357,Basingstoke,0.09284712923100896,0.4124431356590745,0.01,0.9780071,0.13111936948721106,0.01,0.01,0.01,0.023530917774610215,-1.0923964,51.26654
358,Portsmouth,0.21160721622857454,0.5696349018643998,0.01,0.9780071,0.1610410125338149,0.11785045694079188,0.01,0.01,0.04549874465927011,-1.0879769,50.81977
359,York,0.23491802293583194,0.7120612928055479,0.01,0.9780071,0.3487468655343632,0.01,0.01,0.01,0.013985617583631664,-1.0872979,53.95997
360,Selby,0.1848758111140213,0.7180886553892162,0.568572402393255,0.9780071,0.4431184256727996,0.01,0.01,0.01,0.01297001009570405,-1.067189,53.783519999999996
361,Helmsley,0.1333807190019167,0.594780236155345,0.01,0.9780071,0.4847641175284658,0.01,0.01,0.807355247729685,0.059383991057306025,-1.0562636,54.24651
362,Towcester,0.11850821594400406,0.4601066017825711,0.01,0.9780071,0.15999987618983505,0.01,0.01,0.01,0.04323568718861773,-0.9896879999999999,52.13511
363,Reading,0.14901583460702578,0.5715436930068819,0.01,0.9780071,0.11103402737859416,0.01,0.01,0.01,0.026337235554668145,-0.9781303,51.45426
364,Retford,0.1214145998796248,0.6951863075229443,0.595311368831497,0.9780071,0.5218899050251034,0.01,0.01,0.01,0.01,-0.9455030000000001,53.32136
365,Petersfield,0.1875931225631048,0.5456130200392072,0.01,0.9780071,0.16163387274684105,0.039376964398269015,0.01,0.01,0.04560701100027021,-0.93899,51.00759
366,Northampton,0.17589853689312512,0.4581623601111458,0.01,0.9780071,0.1457743858554506,0.01,0.01,0.01,0.04879338727880103,-0.9026559999999999,52.24048
367,Melton Mowbray,0.3581483135450169,0.6914207144412982,0.3548663329469218,0.9780071,0.38481550469933984,0.01,0.01,0.01,0.01,-0.887126,52.7664
368,Aylesbury,0.15543441451948464,0.5391737175260646,0.01,0.9780071,0.17758812203372726,0.10296777042347913,0.01,0.01,0.01,-0.8084,51.81561
369,Newark-on-Trent,0.20846274629069025,0.7908815794121282,0.3894235978975801,0.9780071,0.4396668006554558,0.01,0.01,0.01,0.01,-0.80657,53.07004000000001
370,Malton,0.15369270712725264,0.6814613418144784,0.01,0.9780071,0.3862736670124423,0.01,0.01,0.01,0.01855592732142244,-0.7978970000000001,54.13684
371,Chichester,0.2374529941327331,0.5047291594306133,0.01,0.9780071,0.13549742787358482,0.09213728815304947,0.01,0.01,0.035571613857885334,-0.774936,50.83761
372,Gainsborough,0.10458559909530167,0.6745853005586723,0.9751493851999166,0.9780071,0.601726449416732,0.01,0.01,0.01,0.01,-0.774465,53.400569999999995
373,Milton Keynes,0.1349296493977019,0.4749667202870481,0.01,0.9780071,0.1699464753180567,0.01,0.01,0.01,0.04294784683837576,-0.7594171,52.040620000000004
374,Aldershot,0.1460501072722771,0.4319904506172477,0.01,0.9780071,0.15788349618239098,0.01,0.01,0.01,0.020702759376210075,-0.7557509,51.24837
375,High Wycombe,0.13978184497345558,0.3603631811946994,0.01,0.9780071,0.189923602580561,0.17204934029285218,0.01,0.01,0.01,-0.748229,51.628609999999995
376,Midhurst,0.2440940227412027,0.4959349446920237,0.01,0.9780071,0.2131026511863484,0.08100224871955937,0.01,0.01,0.01,-0.737274,50.9869
377,Kettering,0.2698828259953582,0.3161284085490413,0.01,0.9780071,0.1937911226087897,0.01,0.01,0.01,0.05542746463068462,-0.7302489999999999,52.39632
378,Wellingborough,0.2283074674833971,0.4833052476349144,0.01,0.9780071,0.16555996450695906,0.01,0.01,0.01,0.05147105722650649,-0.693964,52.30242
379,Corby,0.3141223861076033,0.3947396161408631,0.01,0.9780071,0.3506511611101796,0.01,0.01,0.01,0.03860723719140307,-0.6842333,52.4923
380,Bognor Regis,0.2235008658757609,0.5814351264518711,0.01,0.9780071,0.14635962698140165,0.07845116428801963,0.01,0.01,0.01,-0.673061,50.783
381,Scunthorpe,0.061166231725145015,0.8227930895936232,0.8940944745894791,0.9780071,0.5177640503257368,0.01,0.01,0.01,0.01,-0.654413,53.58865
382,Grantham,0.22307808868233392,0.7114181977664878,0.3786988794872024,0.9780071,0.4064679977807028,0.01,0.01,0.01,0.01,-0.643582,52.912519999999994
383,Whitby,0.08644101641920719,0.7118321429412422,0.01,0.9780071,0.6165132521817225,0.01,0.07781168269831461,0.6522130227262082,0.07995450988667199,-0.613347,54.48634000000001
384,Slough,0.36290839505705824,0.3637305767159013,0.01,0.9780071,0.1579560560819571,0.20523105615738127,0.01,0.01,0.01,-0.5950406,51.51054
385,Guildford,0.2415048730868744,0.3340244684076365,0.01,0.9780071,0.16856248005570032,0.01,0.01,0.01,0.01,-0.570409,51.23622
386,Woking,0.1450985290994062,0.3436265210429336,0.01,0.9780071,0.14660117585132734,0.01,0.01,0.01,0.01,-0.5600349,51.31677
387,Lincoln,0.07092679607018465,0.8440941111281179,1.0,0.9780071,0.4570812360754488,0.01,0.01,0.01,0.01,-0.540579,53.23069
388,Bedford,0.17340367414005234,0.5574586845885311,0.01,0.9780071,0.20461326198534485,0.01,0.01,0.01,0.043796249834685545,-0.46677820000000003,52.13864
389,Heathrow,0.1302922975865581,0.313038711904019,0.01,0.9780071,0.11445368794469353,0.08095482901055814,0.01,0.01,0.01,-0.4542955,51.47002
390,Driffield,0.1903717543372776,0.6823886849711833,0.8400064640788287,0.9780071,0.41728858953019576,0.01,0.01,0.01,0.01916183972249997,-0.443377,54.006
391,Beverley,0.15718939046884456,0.7372094234018378,0.7642018058355944,0.9780071,0.4705435081717387,0.01,0.01,0.01,0.017432619951159974,-0.435093,53.84196
392,Luton,0.08664225323395701,0.4085827073534,0.01,0.9780071,0.2243544356449941,0.1152691885456728,0.054136883328506,0.01,0.01112554794571605,-0.4200255,51.87867
393,Scarborough,0.10900753721723414,0.6355551144424756,0.7309596765641634,0.9780071,0.4665058682149128,0.01,0.01,0.6800870791196113,0.05002294422088577,-0.399752,54.28311
394,Worthing,0.19378433817986526,0.5182394351168855,0.01,0.9780071,0.04602571453792646,0.09190060066258794,0.01,0.01,0.01,-0.372882,50.81787
395,Dorking,0.16649622359053995,0.3430816646258543,0.01,0.9780071,0.15802683025799005,0.01,0.01,0.01,0.05361484098427452,-0.332378,51.2322
396,Hull,0.11753905915920662,0.7794443594105978,0.7058243620889022,0.9780071,0.4800456407125442,0.01,0.01,0.01,0.016100939548620078,-0.3274198,53.767619999999994
397,Horsham,0.18646908876785825,0.4597423278211778,0.01,0.9780071,0.055676181180223966,0.09511504149287338,0.01,0.01,0.01,-0.325858,51.06288
398,Biggleswade,0.1191484728033227,0.5256558255870769,0.01,0.9780071,0.1904608077434687,0.01,0.01,0.01,0.01,-0.26421999999999995,52.08694000000001
399,Peterborough,0.21515106083093805,0.5561720161950232,0.01,0.9780071,0.28385914855630506,0.01,0.01,0.01,0.01,-0.2405299,52.5695
400,Welwyn Garden City,0.11630397911739268,0.515004937686543,0.01,0.9780071,0.22216519811739505,0.01,0.051766562812220064,0.01,0.010638428759511112,-0.208661,51.80317
401,Bridlington,0.14462294482962446,0.6531651968893311,0.8435755245240049,0.9780071,0.3934519779953623,0.01,0.01,0.01,0.01924325548194341,-0.198802,54.08535
402,Stevenage,0.09102039621229537,0.4831416453754997,0.01,0.9780071,0.17450620131187586,0.01,0.05633397516196813,0.01,0.01,-0.19661199999999998,51.90376
403,Crawley,0.14820150140224606,0.2625276319120253,0.01,0.9780071,0.11008146292186158,0.01,0.01,0.01,0.05242251822986313,-0.18722750000000002,51.109140000000004
404,Huntingdon,0.1946403115008397,0.4121876416549418,0.01,0.9780071,0.24639097833423304,0.01,0.01,0.01,0.01,-0.182552,52.33146
405,Hove,0.1738126306618937,0.5828328927925964,0.01,0.9780071,0.04691411199569903,0.08931922950383273,0.01,0.01,0.01,-0.168749,50.82793
406,Spalding,0.26886834239460017,0.7420142854409626,0.01,0.9780071,0.44514611474476096,0.01,0.01,0.01,0.01,-0.1537024,52.7901
407,Brighton,0.1722386235836439,0.6066791592834394,0.01,0.9780071,0.04582440397161582,0.08859844535974112,0.01,0.01,0.01,-0.137163,50.82253
408,London,0.15489961152158152,0.2740070540481671,0.1388232429529825,0.9780071,0.16644996911591153,0.03827854101852785,0.015409501897045253,0.01,0.01,-0.12775830000000002,51.50735
409,Grimsby,0.08794102234998508,0.8270034607957989,0.8461500444103472,0.9780071,0.4748492447550174,0.01,0.01,0.01,0.01,-0.08078400000000001,53.56746999999999
410,Boston,0.2745817118533168,0.800279207409326,0.01,0.9780071,0.44858643017972777,0.01,0.01,0.01,0.01,-0.026576999999999996,52.97894
411,Royston,0.14421147707750784,0.4937024444123933,0.01,0.9780071,0.15456532423709576,0.01,0.01,0.01,0.01,-0.024066,52.048140000000004
412,Louth_Lincs,0.14235767264022453,0.8336451275115238,0.8875243520159543,0.9780071,0.4012270777830814,0.01,0.01,0.01,0.01,-0.007711,53.36596
413,Lewes,0.18240032579739845,0.5539049116367512,0.01,0.9780071,0.07522140144416223,0.08703502794451558,0.01,0.01,0.01,0.00878,50.873870000000004
414,Chatteris,0.2599420051849603,0.4324317885463333,0.01,0.9780071,0.29717439608169394,0.01,0.01,0.01,0.01,0.054012,52.4561
415,Uckfield,0.1594800243030098,0.5528257401378726,0.01,0.9780071,0.0837835291170853,0.0891217006678426,0.01,0.01,0.01,0.095913,50.966409999999996
416,Cambridge,0.14722764273948652,0.4132796724790571,0.01,0.9780071,0.27433267065133016,0.01,0.01,0.01,0.01,0.12181700000000001,52.20534
417,Bishop's Stortford,0.10994736069519974,0.49797841840969703,0.01,0.9780071,0.22097798958839845,0.01,0.01,0.01,0.07305665675928256,0.15365020000000001,51.87216
418,Wisbech,0.28279122639545945,0.6253273700895406,0.01,0.9780071,0.2942575952625469,0.01,0.01,0.01,0.01,0.158797,52.66631999999999
419,Sevenoaks,0.18677195026310747,0.5702034164964354,0.01,0.9780071,0.12043961180037065,0.01,0.01,0.01,0.03960361373826338,0.190898,51.27241
420,Tunbridge Wells,0.14832082936567853,0.6129959026768002,0.01,0.9780071,0.08188679310422617,0.01,0.01,0.01,0.02331530641448579,0.26369499999999996,51.13238
421,Eastbourne,0.1846860618420198,0.5494870619366916,0.01,0.9780071,0.1030543431980868,0.07334330346131449,0.01,0.01,0.01,0.29047199999999995,50.768029999999996
422,Brentwood,0.2553390981919178,0.5010471059711421,0.01,0.9780071,0.2339837117013641,0.01,0.01,0.01,0.07898762666043307,0.30717490000000003,51.62047000000001
423,Skegness,0.2741205003695783,1.0,0.01,0.9780071,0.3725400244632219,0.01,0.01,0.01,0.01,0.337881,53.1464
424,Downham Market,0.2049858500188556,0.6398190753648443,0.01,0.9780071,0.2872149397440332,0.01,0.01,0.01,0.01,0.385472,52.606609999999996
425,King's Lynn,0.2428939396319477,0.7756922695402874,0.01,0.9780071,0.3272987782734351,0.01,0.01,0.01,0.01,0.4022963,52.75168000000001
426,Bexhill,0.12940752526306562,0.5122012920402432,0.01,0.9780071,0.11327088420041224,0.01,0.01,0.01,0.01,0.4662071,50.849909999999994
427,Chelmsford,0.23031825052809746,0.4871996547298769,0.01,0.9780071,0.2565815668212092,0.01,0.037871426993516234,0.01,0.07782870513019748,0.4685497,51.73559
428,Mildenhall,0.10497663861248438,0.6332252585846573,0.01,0.9780071,0.2704301504418505,0.01,0.01,0.01,0.01,0.5156095,52.34757000000001
429,Medway,0.3047600387676962,0.5051001666009289,0.01,0.9780071,0.2306690516790177,0.01,0.03635451903375022,0.01,0.07471135084817354,0.5417860999999999,51.404740000000004
430,Braintree,0.2628283883290982,0.4034534922910277,0.01,0.9780071,0.2489133723490116,0.01,0.042765814313942434,0.01,0.07030964080953019,0.5509269,51.88009
431,Gillingham,0.3243996939647371,0.4985968250160419,0.01,0.9780071,0.22656456613793186,0.01,0.03588644283091222,0.01,0.07374941586980811,0.551438,51.38632
432,Hastings,0.104406339997996,0.4866780701960946,0.01,0.9780071,0.11764025206559102,0.01,0.01,0.01,0.01,0.573453,50.85426
433,Maldon,0.2663591246656279,0.417309461225547,0.01,0.9780071,0.24143089312426802,0.01,0.041235585608483005,0.01,0.06779385020116534,0.6714479999999999,51.7318
434,Southend,0.3460660900953195,0.5185132706764704,0.01,0.9780071,0.2474194955652449,0.01,0.03686480977366493,0.01,0.06060802227225544,0.7077123000000001,51.54593
435,Bury St Edmunds,0.22029065869712602,0.450677073828348,0.01,0.9780071,0.21133341583376056,0.01,0.01,0.01,0.01,0.7104931999999999,52.24292
436,Thetford,0.22140279531631685,0.5960946652380981,0.01,0.9780071,0.2735147497490017,0.01,0.01,0.01,0.01,0.751657,52.412859999999995
437,Ashford,0.1529532299568471,0.436586748750493,0.01,0.9780071,0.21495063694675087,0.01,0.0462779168629631,0.01,0.019020939190847432,0.8750190000000001,51.14647
438,Faversham,0.2463192042969181,0.5052348675728658,0.01,0.9780071,0.2262520049955021,0.01,0.03776283932059113,0.01,0.04656333208672754,0.889358,51.31599
439,Colchester,0.29400210637008645,0.4341615793532587,0.01,0.9780071,0.2548090576421437,0.01,0.0372227485066755,0.01,0.06119649568127285,0.891874,51.89593
440,New Romney,0.14841153642803107,0.471589335332937,0.01,0.9780071,0.1970429251627672,0.01,0.04507130076604424,0.01,0.01852500132324304,0.939473,50.98512
441,Canterbury,0.2398476392066664,0.5182971273113671,0.01,0.9780071,0.21455783729356212,0.01,0.03684944050749854,0.01,0.04543706678833758,1.0789089,51.280229999999996
442,Ipswich,0.2497091336365973,0.4632320433044676,0.01,0.9780071,0.21164615554854369,0.01,0.01,0.01,0.01,1.14822,52.05674000000001
443,Clacton,0.3265304283279028,0.5094405108113995,0.01,0.9780071,0.19083033346660785,0.01,0.03807717996081288,0.01,0.07825155219703021,1.153035,51.78953
444,Folkestone,0.13083944301411182,0.4332492479410362,0.01,0.9780071,0.22175561266299407,0.01,0.04431276902818517,0.01,0.018213233053662767,1.169456,51.0814
445,Sheringham,0.2443341925302903,0.7422705705051599,0.01,0.9780071,0.26952211002521265,0.01,0.01,0.01,0.01,1.2109589,52.944419999999994
446,Harwich,0.3387668341924412,0.4900817808932871,0.01,0.9780071,0.2206752499254014,0.01,0.03759420640228394,0.01,0.046355397674194776,1.260297,51.93473
447,Norwich,0.2172993203755988,0.6835393278270646,0.01,0.9780071,0.23591312645488105,0.01,0.01,0.01,0.01,1.297355,52.63089
448,Cromer,0.24999163813748784,0.6814731341284651,0.01,0.9780071,0.2303755977783933,0.01,0.01,0.01,0.01,1.301866,52.93145
449,Dover,0.21642154743861808,0.5070682136612762,0.01,0.9780071,0.25563852622332034,0.01,0.0351927344319992,0.01,0.043394275777813546,1.3134027,51.12788
450,Felixstowe,0.2872855271316347,0.4737947739996585,0.01,0.9780071,0.2075314318592007,0.01,0.049325123242236035,0.01,0.020273388116190044,1.3512549999999999,51.961729999999996
451,Margate,0.2349183613285641,0.4620477160072292,0.01,0.9780071,0.2223796635137337,0.01,0.03453489659183949,0.01,0.04258312901037031,1.3868339,51.38965
452,Ramsgate,0.2351963420529304,0.46254913770773604,0.01,0.9780071,0.21504170884694465,0.01,0.03457237593630457,0.01,0.04262934057603415,1.4198950000000001,51.33555
453,Great Yarmouth,0.2242370837898518,0.6375181575879952,0.01,0.9780071,0.2212923959784792,0.01,0.01,0.01,0.01,1.728047,52.59823000000001
454,Lowestoft,0.21598311512879456,0.6237191817716213,0.01,0.9780071,0.20018032236238367,0.01,0.01,0.01,0.01,1.7534490000000005,52.48114
455,Swaffham,0.1758215436414955,0.6846620444229897,0.01,0.9780071,0.298058210182398,0.01,0.01,0.01,0.01,0.687481,52.64747
456,Dereham,0.2334166812442693,0.7189767950808574,0.01,0.9780071,0.2636642225468667,0.01,0.01,0.01,0.01,0.9378270000000001,52.681619999999995
457,Ely,0.20554423364714453,0.4359649755396869,0.01,0.9780071,0.3097966043038437,0.01,0.01,0.01,0.01,0.262363,52.39954
458,March,0.2443533384348709,0.4633250020604355,0.01,0.9780071,0.2994839913754315,0.01,0.01,0.01,0.01,0.088622,52.551719999999996
459,St Neots,0.15296026496364648,0.4273431015147144,0.01,0.9780071,0.23572479214624506,0.01,0.01,0.01,0.01,-0.26510300000000003,52.23008
460,Banham,0.23352521626056155,0.6857911262929233,0.01,0.9780071,0.24730122114322856,0.01,0.01,0.01,0.01,1.0402849,52.45125
461,Holt,0.1845363141529839,0.7520999333301936,0.01,0.9780071,0.2742580869317597,0.01,0.01,0.01,0.01,1.086747,52.90936
462,Hunstanton,0.29219277386186143,0.8633393331253274,0.01,0.9780071,0.30008214923493953,0.01,0.01,0.01,0.01,0.49103199999999997,52.93891
463,Horncastle,0.17180786744579635,0.7865313009589856,0.8727471682817604,0.9780071,0.3984560515283621,0.01,0.01,0.01,0.01,-0.11245,53.20731
464,Market Weighton,0.13001780765037574,0.6835318035580777,0.7692924370036144,0.9780071,0.4790041472238577,0.01,0.01,0.01,0.017548743977536006,-0.6677465,53.86484
465,Hawes,0.1558851002082398,0.6572831612379095,0.01,0.9780071,0.6419723125947139,0.01,0.05925676877953125,0.01,0.01,-2.1968695,54.30383000000001
466,Reeth,0.1966894397851328,0.5593478280066169,0.01,0.9780071,0.6865700435472493,0.01,0.01,1.0,0.01,-1.9428115000000001,54.38946
467,Aysgarth,0.16192099356095624,0.4064077153007941,0.01,0.9780071,0.5240198565313999,0.01,0.01,0.01,0.01,-1.9967433999999997,54.29159
468,Stanhope,0.18023822777100806,0.5951955610860261,0.01,0.9780071,0.6835489564737627,0.01,0.07279655601022045,0.01,0.05485426797267436,-2.011302,54.74946
469,Keswick,0.08613861798769669,0.4697424492396993,0.01,0.9780071,0.6158853917874456,0.01,0.0570537941529831,0.01,0.01,-3.134706,54.60128
470,Oxenholme,0.043406722168061566,0.5736330482083041,0.01,0.9780071,0.6493852081257802,0.01,0.05308349870801369,0.01,0.01,-2.7243327999999996,54.30134
