placename,where_is_x,where_is_x_at,where_to_is_x,where_x_to,longitude,latitude
Dingle,0.9957262,0.0042738425,0.00000000000,0.00000000000,-10.2640135,52.14094
Tralee,0.9964440,0.0035560071,0.00000000000,0.00000000000, -9.6999325,52.27131
Killarney,0.9967739,0.0032261125,0.00000000000,0.00000000000, -9.5044265,52.05994
Bantry,0.9965264,0.0034735976,0.00000000000,0.00000000000, -9.4539805,51.68035
Mayo,0.9939912,0.0060088320,0.00000000000,0.00000000000, -9.4289369,54.01526
Ballycastle,0.9938320,0.0061679608,0.00000000000,0.00000000000, -9.3724643,54.27967
Abbeyfeale,0.9967942,0.0032058334,0.00000000000,0.00000000000, -9.2970823,52.38618
Ennistymon,0.9959617,0.0040382890,0.00000000000,0.00000000000, -9.2934951,52.94037
Galway,0.9954422,0.0045577765,0.00000000000,0.00000000000, -9.0567905,53.27067
Claremorris,0.9926177,0.0073823110,0.00000000000,0.00000000000, -9.0017356,53.72388
Clare,0.9961138,0.0038862341,0.00000000000,0.00000000000, -8.9811351,52.90453
Adare,0.9969421,0.0030578579,0.00000000000,0.00000000000, -8.7925892,52.56363
Charleville,0.9968697,0.0031302747,0.00000000000,0.00000000000, -8.6810176,52.36206
Mallow,0.9969152,0.0030848329,0.00000000000,0.00000000000, -8.6539164,52.13898
Limerick,0.9953511,0.0046489016,0.00000000000,0.00000000000, -8.6267343,52.66384
Loughrea,0.9961741,0.0038259497,0.00000000000,0.00000000000, -8.5660931,53.19891
Sligo,0.9944212,0.0055788323,0.00000000000,0.00000000000, -8.4760888,54.27661
Cork,0.9966173,0.0033827224,0.00000000000,0.00000000000, -8.4756035,51.89851
Nenagh,0.9974496,0.0025504330,0.00000000000,0.00000000000, -8.1983400,52.86350
Roscommon,0.9939543,0.0060456785,0.00000000000,0.00000000000, -8.1890955,53.62759
Tipperary,0.9969707,0.0030293171,0.00000000000,0.00000000000, -8.1618514,52.47379
Donegal,0.9921815,0.0078184749,0.00000000000,0.00000000000, -8.1096143,54.65383
Leitrim,0.9956339,0.0043661363,0.00000000000,0.00000000000, -8.0020132,54.12469
Athlone,0.9935746,0.0064253587,0.00000000000,0.00000000000, -7.9406898,53.42393
Longford,0.9943291,0.0056708631,0.00000000000,0.00000000000, -7.7932573,53.72763
Offaly,0.9950707,0.0049293045,0.00000000000,0.00000000000, -7.7122229,53.23569
Fermanagh,0.9942657,0.0057343416,0.00000000000,0.00000000000, -7.6318728,54.34383
Enniskillen,0.9942657,0.0057343416,0.00000000000,0.00000000000, -7.6315336,54.34382
Doon,0.9934899,0.0065101199,0.00000000000,0.00000000000, -7.6096400,54.18593
Westmeath,0.9963592,0.0036408303,0.00000000000,0.00000000000, -7.4653217,53.53453
Strabane,0.9858708,0.0133952211,0.00073398472,0.00000000000, -7.4633103,54.82739
Balivanich,0.9962000,0.0038000046,0.00000000000,0.00000000000, -7.3743509,57.47227
Cavan,0.9957106,0.0042894376,0.00000000000,0.00000000000, -7.3633319,53.98972
Mullingar,0.9953309,0.0046690557,0.00000000000,0.00000000000, -7.3401868,53.52582
Laois,0.9957154,0.0042846000,0.00000000000,0.00000000000, -7.3323007,52.99430
Omagh,0.9877868,0.0122132400,0.00000000000,0.00000000000, -7.3099597,54.59771
Derry,0.9851276,0.0141469102,0.00072548258,0.00000000000, -7.3085748,54.99661
Derry,0.9851276,0.0141469102,0.00072548258,0.00000000000, -7.3085748,54.99661
Kilkenny,0.9964488,0.0035511737,0.00000000000,0.00000000000, -7.2447879,52.65415
Tyrone,0.9870544,0.0129456005,0.00000000000,0.00000000000, -7.1312320,54.49121
Waterford,0.9965324,0.0034675681,0.00000000000,0.00000000000, -7.1100702,52.25932
Western Isles,0.9939527,0.0060473480,0.00000000000,0.00000000000, -7.0194034,57.75989
Monaghan,0.9948226,0.0051774297,0.00000000000,0.00000000000, -6.9683132,54.24920
Carlow,0.9946950,0.0053049545,0.00000000000,0.00000000000, -6.9341359,52.83651
Kildare,0.9935783,0.0064216641,0.00000000000,0.00000000000, -6.8194708,53.21204
Dungannon,0.9878450,0.0121549885,0.00000000000,0.00000000000, -6.7669352,54.50827
Cookstown,0.9870588,0.0129411765,0.00000000000,0.00000000000, -6.7443895,54.64182
Coleraine,0.9813351,0.0178164902,0.00084840429,0.00000000000, -6.6646103,55.13258
Meath,0.9953647,0.0046353089,0.00000000000,0.00000000000, -6.6564169,53.60555
Armagh,0.9911553,0.0088446656,0.00000000000,0.00000000000, -6.6527920,54.35028
Armagh,0.9911553,0.0088446656,0.00000000000,0.00000000000, -6.6527920,54.35028
Magherafelt,0.9827366,0.0172634271,0.00000000000,0.00000000000, -6.6079805,54.75537
Dunvegan,0.9962343,0.0037656617,0.00000000000,0.00000000000, -6.5813982,57.43660
Louth,0.9950120,0.0049879655,0.00000000000,0.00000000000, -6.4889423,53.92523
Wexford,0.9949489,0.0050510989,0.00000000000,0.00000000000, -6.4633381,52.33692
Craigavon,0.9937057,0.0062942565,0.00000000000,0.00000000000, -6.4175653,54.44293
Stornoway,0.9935981,0.0064018624,0.00000000000,0.00000000000, -6.3848692,58.20943
Drogheda,0.9965314,0.0034686170,0.00000000000,0.00000000000, -6.3560985,53.71786
Rosslare,0.9953110,0.0044284929,0.00000000000,0.00026049958, -6.3414908,52.25131
Newry,0.9958848,0.0041152263,0.00000000000,0.00000000000, -6.3402300,54.17510
Scilly Isles,0.9939729,0.0033902562,0.00037669513,0.00226017077, -6.3274966,49.92773
Ballymena,0.9833585,0.0158850227,0.00075642965,0.00000000000, -6.2802213,54.86529
Banbridge,0.9985401,0.0014598540,0.00000000000,0.00000000000, -6.2704803,54.34873
Dublin,0.9955945,0.0041776418,0.00022787137,0.00000000000, -6.2603097,53.34981
Antrim,0.9952054,0.0046028154,0.00019178397,0.00000000000, -6.2072498,54.71953
Antrim,0.9952054,0.0046028154,0.00019178397,0.00000000000, -6.2072498,54.71953
Portree,0.9946520,0.0053480269,0.00000000000,0.00000000000, -6.1960231,57.41247
Islay,0.9904612,0.0087093016,0.00082945730,0.00000000000, -6.1770670,55.73625
Wicklow,0.9949657,0.0050343151,0.00000000000,0.00000000000, -6.0445890,52.98082
Kilkeel,0.9969141,0.0030858906,0.00000000000,0.00000000000, -6.0070040,54.06312
Mull,0.9940325,0.0059674503,0.00000000000,0.00000000000, -6.0008870,56.43920
Belfast,0.9962054,0.0036048343,0.00018972812,0.00000000000, -5.9301200,54.59728
Broadford,0.9976249,0.0023751260,0.00000000000,0.00000000000, -5.9096592,57.24139
Down,0.9948445,0.0051555250,0.00000000000,0.00000000000, -5.7156922,54.32875
Kyle of Lochalsh,0.9976637,0.0023362832,0.00000000000,0.00000000000, -5.7143293,57.28261
Campbeltown,0.9963380,0.0036619516,0.00000000000,0.00000000000, -5.6053740,55.42412
Penzance,0.9938402,0.0035465406,0.00037332006,0.00223992036, -5.5375920,50.11880
Oban,0.9940233,0.0059766969,0.00000000000,0.00000000000, -5.4710470,56.41516
Lochgilphead,0.9940843,0.0059156571,0.00000000000,0.00000000000, -5.4323449,56.03829
Helston,0.9938402,0.0035465406,0.00037332006,0.00223992036, -5.2749960,50.10159
Redruth,0.9938310,0.0035518445,0.00037387836,0.00224327019, -5.2266660,50.23302
Ullapool,0.9945078,0.0054921541,0.00000000000,0.00000000000, -5.1613130,57.89542
Ballachulish,0.9969192,0.0030808010,0.00000000000,0.00000000000, -5.1337200,56.67393
Fort William,0.9968710,0.0031290001,0.00000000000,0.00000000000, -5.1052179,56.81982
Achnasheen,0.9943761,0.0056238588,0.00000000000,0.00000000000, -5.0787658,57.57859
Newquay,0.9944713,0.0028596848,0.00038129131,0.00228774784, -5.0737190,50.41550
Falmouth,0.9938402,0.0035465406,0.00037332006,0.00223992036, -5.0662700,50.15257
Rothesay,0.9936246,0.0063754427,0.00000000000,0.00000000000, -5.0557930,55.83596
Truro,0.9938745,0.0035267912,0.00037124118,0.00222744710, -5.0510410,50.26320
Milford Haven,0.9931663,0.0055912197,0.00000000000,0.00124249327, -5.0426971,51.71431
Stranraer,0.9925788,0.0068027211,0.00061842919,0.00000000000, -5.0240550,54.90337
Fishguard,0.9927687,0.0059165114,0.00000000000,0.00131478032, -4.9759890,51.99393
Inchnadamph,0.9938582,0.0061418202,0.00000000000,0.00000000000, -4.9742950,58.15221
Haverfordwest,0.9930541,0.0056830141,0.00000000000,0.00126289202, -4.9713190,51.80047
Dunoon,0.9912884,0.0087115712,0.00000000000,0.00000000000, -4.9262140,55.95097
Pembroke,0.9932460,0.0055259926,0.00000000000,0.00122799836, -4.9086370,51.67404
Girvan,0.9967957,0.0032043227,0.00000000000,0.00000000000, -4.8542179,55.24016
Wadebridge,0.9944642,0.0028633240,0.00038177653,0.00229065920, -4.8364560,50.51665
Invergarry,0.9972741,0.0027259210,0.00000000000,0.00000000000, -4.8002610,57.07095
St Austell,0.9936983,0.0036282623,0.00038192234,0.00229153405, -4.7834252,50.34038
Greenock,0.9921087,0.0078912758,0.00000000000,0.00000000000, -4.7719830,55.95648
Helensburgh,0.9919158,0.0080841781,0.00000000000,0.00000000000, -4.7340140,56.00232
Bodmin,0.9930746,0.0041083027,0.00023476015,0.00258236169, -4.7188629,50.47150
Tenby,0.9932626,0.0055124541,0.00000000000,0.00122498979, -4.7035790,51.67274
Camelford,0.9939580,0.0041339835,0.00063599746,0.00127199491, -4.6823640,50.62206
Irvine,0.9978289,0.0021711295,0.00000000000,0.00000000000, -4.6696364,55.61157
Cardigan,0.9915229,0.0072661217,0.00000000000,0.00121102028, -4.6608640,52.08370
Holyhead,0.9924932,0.0061419472,0.00000000000,0.00136487716, -4.6330380,53.30944
Ayr,0.9968746,0.0031253830,0.00000000000,0.00000000000, -4.6291790,55.45856
Dumbarton,0.9930043,0.0069957248,0.00000000000,0.00000000000, -4.5645540,55.94529
Bude,0.9962059,0.0024549918,0.00000000000,0.00133908645, -4.5436780,50.82664
Isle of Man,0.9842795,0.0157205240,0.00000000000,0.00000000000, -4.5126331,54.27697
Kilmarnock,0.9971796,0.0028204325,0.00000000000,0.00000000000, -4.4987920,55.61472
Newton Stewart,0.9924523,0.0075476695,0.00000000000,0.00000000000, -4.4831640,54.96030
Liskeard,0.9939334,0.0043332563,0.00000000000,0.00173330252, -4.4647190,50.45552
Altnaharra,0.9949801,0.0050198840,0.00000000000,0.00000000000, -4.4426550,58.28023
Pwllheli,0.9941020,0.0042128914,0.00000000000,0.00168515658, -4.4176339,52.88882
Lairg,0.9948581,0.0051419032,0.00000000000,0.00000000000, -4.4024140,58.02206
Launceston,0.9945294,0.0037058824,0.00000000000,0.00176470588, -4.3604516,50.63683
Carmarthen,0.9957112,0.0030634126,0.00061268253,0.00061268253, -4.3121310,51.85762
Llangefni,0.9926339,0.0060267857,0.00000000000,0.00133928571, -4.3114020,53.25579
Caernarfon,0.9934869,0.0050657339,0.00000000000,0.00144735255, -4.2739110,53.13955
Cumnock,0.9977950,0.0022050093,0.00000000000,0.00000000000, -4.2658289,55.45355
Aberaeron,0.9948626,0.0035961983,0.00000000000,0.00154122784, -4.2581619,52.24279
Alness,0.9948366,0.0051633958,0.00000000000,0.00000000000, -4.2568250,57.69595
Glasgow,0.9957172,0.0041180734,0.00016472294,0.00000000000, -4.2518060,55.86424
Dalwhinnie,0.9964115,0.0035885167,0.00000000000,0.00000000000, -4.2427830,56.93660
Inverness,0.9943746,0.0056253653,0.00000000000,0.00000000000, -4.2247210,57.47777
Saltash,0.9947811,0.0035353535,0.00000000000,0.00168350168, -4.2164300,50.40921
Bideford,0.9950836,0.0029498525,0.00000000000,0.00196656834, -4.2066660,51.01668
Invergordon,0.9948239,0.0051761226,0.00000000000,0.00000000000, -4.1728820,57.68811
Llanelli,0.9929259,0.0045274477,0.00084889643,0.00169779287, -4.1602480,51.68089
Plymouth,0.9941498,0.0035101404,0.00000000000,0.00234009360, -4.1426565,50.37546
Tavistock,0.9937470,0.0037517866,0.00000000000,0.00250119104, -4.1416540,50.55112
Porthmadog,0.9949410,0.0030354132,0.00000000000,0.00202360877, -4.1333840,52.92784
Bangor,0.9939651,0.0060348681,0.00000000000,0.00000000000, -4.1292630,53.22739
Tywyn,0.9956545,0.0021727322,0.00000000000,0.00217273221, -4.0872490,52.58701
Aberystwyth,0.9965415,0.0023056970,0.00000000000,0.00115284850, -4.0829200,52.41530
Lampeter,0.9949761,0.0035167043,0.00000000000,0.00150715901, -4.0785090,52.11290
Barnstaple,0.9952358,0.0028585040,0.00000000000,0.00190566937, -4.0583380,51.07816
Tain,0.9947723,0.0052276636,0.00000000000,0.00000000000, -4.0552300,57.81150
Okehampton,0.9954451,0.0023973150,0.00000000000,0.00215758351, -4.0042630,50.73831
Llandeilo,0.9956163,0.0031311972,0.00062623943,0.00062623943, -3.9914300,51.88469
Motherwell,0.9964193,0.0032552083,0.00000000000,0.00032552083, -3.9810968,55.78321
Golspie,0.9950335,0.0049664603,0.00000000000,0.00000000000, -3.9760860,57.97341
Airdrie,0.9954757,0.0041623937,0.00000000000,0.00036194728, -3.9625660,55.86627
Swansea,0.9942403,0.0035655513,0.00082281953,0.00137136588, -3.9436460,51.62144
Stirling,0.9950973,0.0049026891,0.00000000000,0.00000000000, -3.9369029,56.11652
Tregaron,0.9966232,0.0022511959,0.00000000000,0.00112559797, -3.9343850,52.22000
Tregaron,0.9966232,0.0022511959,0.00000000000,0.00112559797, -3.9343850,52.22000
Castle Douglas,0.9872192,0.0127807901,0.00000000000,0.00000000000, -3.9314140,54.94042
Dolgellau,0.9957012,0.0021493821,0.00000000000,0.00214938205, -3.8844000,52.74215
Aberfeldy,0.9975540,0.0024459845,0.00000000000,0.00000000000, -3.8669690,56.62175
Machynlleth,0.9967573,0.0021617727,0.00000000000,0.00108088633, -3.8534850,52.59027
Brora,0.9943468,0.0056532260,0.00000000000,0.00000000000, -3.8525480,58.01216
Llandudno,0.9955943,0.0044057485,0.00000000000,0.00000000000, -3.8276090,53.32406
Llandudno,0.9955943,0.0044057485,0.00000000000,0.00000000000, -3.8276090,53.32406
Aviemore,0.9955038,0.0044962191,0.00000000000,0.00000000000, -3.8238120,57.19449
Dalbeattie,0.9890616,0.0109384495,0.00000000000,0.00000000000, -3.8225270,54.93422
Falkirk,0.9956439,0.0043561481,0.00000000000,0.00000000000, -3.7839131,56.00188
Kingsbridge,0.9949419,0.0030910453,0.00000000000,0.00196702885, -3.7774930,50.28395
Pitlochry,0.9976209,0.0023790642,0.00000000000,0.00000000000, -3.7297110,56.70436
Colwyn Bay,0.9955494,0.0044505669,0.00000000000,0.00000000000, -3.7276400,53.29318
Totnes,0.9955004,0.0025959042,0.00000000000,0.00190366311, -3.6857970,50.43374
Grantown-on-Spey,0.9962294,0.0037706098,0.00000000000,0.00000000000, -3.6096280,57.33041
Dumfries,0.9895935,0.0104065271,0.00000000000,0.00000000000, -3.6051200,55.07086
Whitehaven,0.9858629,0.0141371466,0.00000000000,0.00000000000, -3.5892330,54.54970
Dartmouth,0.9954989,0.0025968030,0.00000000000,0.00190432223, -3.5788070,50.35252
Bridgend,0.9917967,0.0033778350,0.00289528712,0.00193019141, -3.5769450,51.50429
Paignton,0.9967287,0.0017614494,0.00000000000,0.00150981379, -3.5642350,50.43508
Workington,0.9885045,0.0114955435,0.00000000000,0.00000000000, -3.5427520,54.64357
Llanidloes,0.9950709,0.0024645718,0.00000000000,0.00246457178, -3.5401950,52.44779
Exeter,0.9962228,0.0020338983,0.00000000000,0.00174334140, -3.5338990,50.71841
Torquay,0.9964965,0.0020020020,0.00000000000,0.00150150150, -3.5253150,50.46192
Thurso,0.9935826,0.0064174451,0.00000000000,0.00000000000, -3.5220800,58.59357
Livingston,1.0000000,0.0000000000,0.00000000000,0.00000000000, -3.5180680,55.90071
Rhyl,0.9945548,0.0054452274,0.00000000000,0.00000000000, -3.4916340,53.31914
Tiverton,0.9952110,0.0035917390,0.00000000000,0.00119724633, -3.4912070,50.90205
Tiverton,0.9952110,0.0035917390,0.00000000000,0.00119724633, -3.4912070,50.90205
Minehead,0.9916877,0.0050797191,0.00138537793,0.00184717058, -3.4811520,51.20428
Dunfermline,0.9994769,0.0005231494,0.00000000000,0.00000000000, -3.4521510,56.07174
Perth,0.9983137,0.0016863406,0.00000000000,0.00000000000, -3.4308381,56.39499
Prestatyn,0.9942167,0.0057832792,0.00000000000,0.00000000000, -3.4076130,53.33651
Builth Wells,0.9961661,0.0038338658,0.00000000000,0.00000000000, -3.4045920,52.15002
Braemar,0.9941378,0.0058622374,0.00000000000,0.00000000000, -3.3979439,57.00647
Brecon,0.9926814,0.0042691604,0.00000000000,0.00304940028, -3.3914630,51.94895
Merthyr Tydfil,0.9906905,0.0037238169,0.00093095423,0.00465477114, -3.3816460,51.74873
Llandrindod Wells,0.9924623,0.0037688442,0.00000000000,0.00376884422, -3.3777420,52.24170
Corwen,0.9974384,0.0025616394,0.00000000000,0.00000000000, -3.3692420,52.98005
Cockermouth,0.9881434,0.0118566219,0.00000000000,0.00000000000, -3.3679850,54.66326
Lockerbie,0.9907927,0.0092073293,0.00000000000,0.00000000000, -3.3490080,55.12224
Blairgowrie,0.9974609,0.0025391452,0.00000000000,0.00000000000, -3.3378318,56.58941
Elgin,0.9939176,0.0060824238,0.00000000000,0.00000000000, -3.3184850,57.64945
Newtown,0.9896694,0.0061983471,0.00000000000,0.00413223140, -3.3131060,52.51211
Ruthin,0.9965977,0.0034023249,0.00000000000,0.00000000000, -3.3103108,53.11487
Ruthin,0.9965977,0.0034023249,0.00000000000,0.00000000000, -3.3103108,53.11487
Sidmouth,0.9963148,0.0019843145,0.00000000000,0.00170084097, -3.2375600,50.67865
Barrow-in-Furness,0.9887640,0.0112360475,0.00000000000,0.00000000000, -3.2188940,54.10897
Peebles,0.9964860,0.0035140236,0.00000000000,0.00000000000, -3.1936420,55.65307
Edinburgh,0.9983859,0.0014988038,0.00011529260,0.00000000000, -3.1882670,55.95325
Cardiff,0.9918972,0.0032267900,0.00172095464,0.00315508351, -3.1790900,51.48158
Llangollen,0.9968000,0.0032000000,0.00000000000,0.00000000000, -3.1716600,52.96921
Kirkcaldy,0.9981665,0.0017188858,0.00011459239,0.00000000000, -3.1581370,56.11682
Welshpool,0.9878215,0.0100605397,0.00000000000,0.00211800837, -3.1464070,52.66035
Mold,0.9936759,0.0063241107,0.00000000000,0.00000000000, -3.1419030,53.16720
Mold,0.9936759,0.0063241107,0.00000000000,0.00000000000, -3.1419030,53.16720
Taunton,0.9924650,0.0043057051,0.00000000000,0.00322927879, -3.1068490,51.01534
Wick,0.9914355,0.0085645325,0.00000000000,0.00000000000, -3.0937160,58.43894
John o' Groats,0.9914501,0.0085498873,0.00000000000,0.00000000000, -3.0688997,58.63734
Dalkeith,0.9984150,0.0014717675,0.00011321289,0.00000000000, -3.0666060,55.89312
Oswestry,0.9903793,0.0088510333,0.00000000000,0.00076965507, -3.0564120,52.85715
Blackpool,0.9887167,0.0112832712,0.00000000000,0.00000000000, -3.0356748,53.81751
Birkenhead,0.9947972,0.0050363226,0.00000000000,0.00016649000, -3.0230090,53.38999
Cupar,0.9982851,0.0017149390,0.00000000000,0.00000000000, -3.0101370,56.32023
Southport,0.9915589,0.0084411034,0.00000000000,0.00000000000, -3.0101130,53.64571
Bridgwater,0.9931321,0.0042924596,0.00000000000,0.00257547575, -3.0036320,51.12789
Langholm,0.9917524,0.0082475699,0.00000000000,0.00000000000, -2.9989130,55.15306
Newport,0.9960378,0.0004952783,0.00247639173,0.00099055669, -2.9976640,51.58415
Axminster,0.9942085,0.0043436293,0.00000000000,0.00144787645, -2.9949370,50.78273
Wrexham,0.9931283,0.0068716715,0.00000000000,0.00000000000, -2.9924940,53.04304
Liverpool,0.9947418,0.0050899220,0.00000000000,0.00016826188, -2.9915726,53.40837
Weston-super-Mare,0.9923428,0.0034686436,0.00157070652,0.00261784420, -2.9772550,51.34741
Dundee,0.9975160,0.0024839578,0.00000000000,0.00000000000, -2.9707210,56.46202
Kirkwall,0.9914647,0.0085352921,0.00000000000,0.00000000000, -2.9622491,58.98467
Ambleside,0.9870334,0.0129666012,0.00000000000,0.00000000000, -2.9613330,54.42874
Orkney Islands,0.9914647,0.0085352921,0.00000000000,0.00000000000, -2.9605206,58.98094
Lyme Regis,0.9936468,0.0050825921,0.00000000000,0.00127064803, -2.9366390,50.72516
Carlisle,0.9900165,0.0099835193,0.00000000000,0.00000000000, -2.9329310,54.89247
Chester,0.9923175,0.0076824584,0.00000000000,0.00000000000, -2.8930750,53.19339
Forfar,0.9985101,0.0014899429,0.00000000000,0.00000000000, -2.8890620,56.64356
Morecambe,0.9868008,0.0131991607,0.00000000000,0.00000000000, -2.8649680,54.07417
Selkirk,0.9939202,0.0060797973,0.00000000000,0.00000000000, -2.8385240,55.55066
Galashiels,0.9957422,0.0042578356,0.00000000000,0.00000000000, -2.8144490,55.62373
Lancaster,0.9905128,0.0094871660,0.00000000000,0.00000000000, -2.8007399,54.04657
St Andrews,0.9973535,0.0026465399,0.00000000000,0.00000000000, -2.7967214,56.33978
Hawick,0.9917535,0.0082464781,0.00000000000,0.00000000000, -2.7809140,55.42706
Bridport,0.9952153,0.0037214248,0.00000000000,0.00106326422, -2.7583010,50.73358
Shrewsbury,0.9876797,0.0115503080,0.00000000000,0.00077002053, -2.7553268,52.70730
Penrith,0.9898351,0.0101649085,0.00000000000,0.00000000000, -2.7527080,54.66410
Kendal,0.9882249,0.0117751329,0.00000000000,0.00000000000, -2.7462900,54.32801
Street,0.9938473,0.0016780088,0.00000000000,0.00447469003, -2.7429190,51.12468
Glastonbury,0.9940982,0.0016095860,0.00000000000,0.00429222928, -2.7184540,51.14743
Hereford,0.9936252,0.0050998725,0.00000000000,0.00127496813, -2.7159740,52.05640
Ludlow,0.9964689,0.0021186441,0.00000000000,0.00141242938, -2.7139129,52.36775
Preston,0.9873609,0.0126390533,0.00000000000,0.00000000000, -2.7030900,53.76320
Whitchurch,0.9912136,0.0087863811,0.00000000000,0.00000000000, -2.6820450,52.96872
Wells,0.9936822,0.0012635569,0.00000000000,0.00505422765, -2.6445979,51.20935
Yeovil,0.9943396,0.0018867925,0.00000000000,0.00377358491, -2.6333080,50.94206
Wigan,0.9901406,0.0098594265,0.00000000000,0.00000000000, -2.6325074,53.54506
Warrington,0.9885234,0.0114765632,0.00000000000,0.00000000000, -2.5969501,53.39004
Arbroath,0.9984522,0.0015477880,0.00000000000,0.00000000000, -2.5915430,56.55911
Bristol,0.9884337,0.0055809439,0.00008088325,0.00590447689, -2.5879100,51.45451
Guernsey,0.9961909,0.0025394138,0.00000000000,0.00126970691, -2.5852780,49.46569
Ross-on-Wye,0.9928255,0.0064570130,0.00000000000,0.00071744589, -2.5824460,51.91445
Jedburgh,0.9957502,0.0042497934,0.00000000000,0.00000000000, -2.5549369,55.47772
Sedbergh,0.9885722,0.0114277652,0.00000000000,0.00000000000, -2.5281740,54.32363
Sedbergh,0.9885722,0.0114277652,0.00000000000,0.00000000000, -2.5281740,54.32363
Nantwich,0.9903457,0.0096542981,0.00000000000,0.00000000000, -2.5241020,53.06719
Banff,0.9936500,0.0063499530,0.00000000000,0.00000000000, -2.5240380,57.66651
Dunbar,0.9976717,0.0023282887,0.00000000000,0.00000000000, -2.5167370,56.00209
Cinderford,0.9920435,0.0071608540,0.00000000000,0.00079565044, -2.5009579,51.82530
Banchory,0.9962339,0.0037660843,0.00000000000,0.00000000000, -2.4909599,57.05386
Blackburn,0.9885302,0.0114697629,0.00000000000,0.00000000000, -2.4875290,53.74858
Market Drayton,0.9910426,0.0089574203,0.00000000000,0.00000000000, -2.4834850,52.90355
Telford,0.9885496,0.0107116474,0.00000000000,0.00073873430, -2.4672611,52.67759
Montrose,0.9966777,0.0033222591,0.00000000000,0.00000000000, -2.4661150,56.70692
Turriff,0.9934790,0.0065209930,0.00000000000,0.00000000000, -2.4623000,57.53893
Weymouth,0.9924242,0.0059808612,0.00000000000,0.00159489633, -2.4576210,50.61443
Crewe,0.9907274,0.0092726457,0.00000000000,0.00000000000, -2.4438209,53.10041
Fortuneswell,0.9941116,0.0043522785,0.00000000000,0.00153609831, -2.4422190,50.55919
Dorchester,0.9940429,0.0043685465,0.00000000000,0.00158856235, -2.4411810,50.71116
Alston,0.9887793,0.0112207459,0.00000000000,0.00000000000, -2.4386850,54.81217
Kelso,0.9951215,0.0048785446,0.00000000000,0.00000000000, -2.4322070,55.60003
Wincanton,0.9948435,0.0022099448,0.00000000000,0.00294659300, -2.4160070,51.05569
Clitheroe,0.9875155,0.0124844641,0.00000000000,0.00000000000, -2.3930830,53.87110
Sark,0.9954924,0.0028684606,0.00000000000,0.00163912034, -2.3666256,49.43007
Bath,0.9919443,0.0040278286,0.00036616624,0.00366166239, -2.3590167,51.38106
Kidderminster,0.9938055,0.0061945075,0.00000000000,0.00000000000, -2.2496839,52.38860
Manchester,0.9901046,0.0096461076,0.00000000000,0.00024925343, -2.2426305,53.48076
Burnley,0.9887361,0.0109118886,0.00035199641,0.00000000000, -2.2405035,53.78929
Gloucester,0.9929782,0.0070218144,0.00000000000,0.00000000000, -2.2381560,51.86424
Newcastle-under-Lyme,0.9923990,0.0076009501,0.00000000000,0.00000000000, -2.2273002,53.01321
Worcester,0.9960422,0.0039577836,0.00000000000,0.00000000000, -2.2215750,52.19364
Trowbridge,0.9924389,0.0049437767,0.00029081039,0.00232648313, -2.2088530,51.31966
Shaftesbury,0.9916936,0.0069220120,0.00000000000,0.00138440240, -2.1980830,51.00460
Alderney,0.9957790,0.0028880332,0.00000000000,0.00133293839, -2.1973557,49.71500
Stoke-on-Trent,0.9946827,0.0053173130,0.00000000000,0.00000000000, -2.1794040,53.00267
Colne,0.9882585,0.0113221563,0.00041933912,0.00000000000, -2.1769910,53.85564
Blandford Forum,0.9949002,0.0034893084,0.00000000000,0.00161045003, -2.1653530,50.85691
Rochdale,0.9928631,0.0068331892,0.00030369730,0.00000000000, -2.1561000,53.60971
Jersey,0.9957212,0.0031118314,0.00000000000,0.00116693679, -2.1312500,49.21444
Wolverhampton,0.9933811,0.0066188817,0.00000000000,0.00000000000, -2.1288200,52.58697
Stafford,0.9964143,0.0035857050,0.00000000000,0.00000000000, -2.1206600,52.80669
Macclesfield,0.9932089,0.0067910676,0.00000000000,0.00000000000, -2.1192870,53.25866
Hexham,0.9876089,0.0120038722,0.00000000000,0.00038722168, -2.1121439,54.97266
Aberdeen,0.9944450,0.0055549504,0.00000000000,0.00000000000, -2.0942780,57.14972
Dudley,0.9931947,0.0068052677,0.00000000000,0.00000000000, -2.0811120,52.51226
Cheltenham,0.9927945,0.0072054762,0.00000000000,0.00000000000, -2.0782533,51.89939
Bromsgrove,0.9927039,0.0072961373,0.00000000000,0.00000000000, -2.0619060,52.33559
Skipton,0.9889926,0.0110074071,0.00000000000,0.00000000000, -2.0162787,53.96285
Fraserburgh,0.9936320,0.0063680036,0.00000000000,0.00000000000, -2.0076310,57.69335
Berwick,0.9950182,0.0049818371,0.00000000000,0.00000000000, -2.0053950,55.77024
Poole,0.9956095,0.0028409091,0.00000000000,0.00154958678, -1.9872480,50.71505
Walsall,0.9931304,0.0068696264,0.00000000000,0.00000000000, -1.9829190,52.58621
Cirencester,0.9938201,0.0061798666,0.00000000000,0.00000000000, -1.9682430,51.71849
Evesham,0.9959379,0.0040620769,0.00000000000,0.00000000000, -1.9467700,52.09215
Buxton,0.9916478,0.0083522175,0.00000000000,0.00000000000, -1.9148300,53.25908
Keighley,0.9914010,0.0085989751,0.00000000000,0.00000000000, -1.9123580,53.86780
Birmingham,0.9921860,0.0078139754,0.00000000000,0.00000000000, -1.8904010,52.48624
Bournemouth,0.9950239,0.0032198263,0.00000000000,0.00175626890, -1.8807690,50.71916
Halifax,0.9900237,0.0099763009,0.00000000000,0.00000000000, -1.8575400,53.72702
Salisbury,0.9948692,0.0051308038,0.00000000000,0.00000000000, -1.7944720,51.06878
Ringwood,0.9949975,0.0032368808,0.00000000000,0.00176557136, -1.7888170,50.84495
Huddersfield,0.9893214,0.0106785517,0.00000000000,0.00000000000, -1.7850351,53.64579
Peterhead,0.9936702,0.0063298168,0.00000000000,0.00000000000, -1.7840660,57.50812
Swindon,0.9944058,0.0045770470,0.00000000000,0.00101712155, -1.7797176,51.55577
Bradford,0.9914271,0.0085728657,0.00000000000,0.00000000000, -1.7593980,53.79598
Ashbourne,0.9887123,0.0110055498,0.00028219358,0.00000000000, -1.7321790,53.01663
Marlborough,0.9949955,0.0042345695,0.00000000000,0.00076992172, -1.7270620,51.42007
Stratford-upon-Avon,0.9964835,0.0035165408,0.00000000000,0.00000000000, -1.7082980,52.19173
Alnwick,0.9925100,0.0072176601,0.00000000000,0.00027236453, -1.7062990,55.41274
Otley,0.9927707,0.0072293458,0.00000000000,0.00000000000, -1.6917860,53.90583
Bishop Auckland,0.9813619,0.0186380802,0.00000000000,0.00000000000, -1.6787880,54.66382
Burton upon Trent,0.9900352,0.0093786635,0.00058616647,0.00000000000, -1.6371359,52.81403
Newcastle,0.9891419,0.0107228943,0.00000000000,0.00013516253, -1.6177800,54.97825
Durham,0.9793249,0.0206751055,0.00000000000,0.00000000000, -1.5848520,54.77525
Ashington,0.9914179,0.0083469510,0.00000000000,0.00023512538, -1.5659829,55.18298
Darlington,0.9851866,0.0148134080,0.00000000000,0.00000000000, -1.5594580,54.52361
Leeds,0.9929950,0.0070049705,0.00000000000,0.00000000000, -1.5490774,53.80076
Harrogate,0.9961560,0.0038439978,0.00000000000,0.00000000000, -1.5418120,53.99212
Leamington Spa,0.9941736,0.0058263519,0.00000000000,0.00000000000, -1.5200789,52.28519
Coventry,0.9920395,0.0079605366,0.00000000000,0.00000000000, -1.5196930,52.40682
Blyth,0.9898653,0.0099434942,0.00000000000,0.00019122104, -1.5102770,55.12696
Wakefield,0.9900058,0.0099942063,0.00000000000,0.00000000000, -1.5059240,53.68330
Andover,0.9963621,0.0036378851,0.00000000000,0.00000000000, -1.4919233,51.21120
Witney,0.9956173,0.0043826722,0.00000000000,0.00000000000, -1.4850544,51.78594
Barnsley,0.9912252,0.0087747806,0.00000000000,0.00000000000, -1.4797260,53.55263
Derby,0.9894986,0.0105013899,0.00000000000,0.00000000000, -1.4746186,52.92253
Sheffield,0.9904884,0.0095116251,0.00000000000,0.00000000000, -1.4700850,53.38113
Nuneaton,0.9921765,0.0078234647,0.00000000000,0.00000000000, -1.4653820,52.52049
Northallerton,0.9900662,0.0099337748,0.00000000000,0.00000000000, -1.4299590,54.33796
South Shields,0.9893398,0.0103430656,0.00000000000,0.00031716385, -1.4274060,54.99942
Chesterfield,0.9910822,0.0089178134,0.00000000000,0.00000000000, -1.4216290,53.23505
Southampton,0.9960679,0.0032482848,0.00017096236,0.00051288708, -1.4043509,50.90970
Wetherby,0.9928117,0.0068100132,0.00000000000,0.00037833407, -1.3848160,53.92706
Sunderland,0.9880224,0.0115298507,0.00000000000,0.00044776119, -1.3838010,54.90687
Rotherham,0.9910006,0.0089993513,0.00000000000,0.00000000000, -1.3635009,53.43260
Castleford,0.9902881,0.0097118809,0.00000000000,0.00000000000, -1.3459680,53.72347
Thirsk,0.9954664,0.0045336244,0.00000000000,0.00000000000, -1.3413770,54.23385
Banbury,0.9990599,0.0009401442,0.00000000000,0.00000000000, -1.3397750,52.06290
Stockton,0.9851354,0.0143812440,0.00000000000,0.00048340316, -1.3289821,54.57046
Newbury,0.9984889,0.0015111447,0.00000000000,0.00000000000, -1.3231139,51.40141
Isle of Wight,0.9943206,0.0052230649,0.00000000000,0.00045638431, -1.3047340,50.69385
Isle of Wight,0.9943206,0.0052230649,0.00000000000,0.00045638431, -1.3047340,50.69385
Abingdon,0.9954739,0.0045261195,0.00000000000,0.00000000000, -1.2879529,51.67078
Shetland Islands,0.9916778,0.0083221950,0.00000000000,0.00000000000, -1.2659409,60.52965
Rugby,0.9980651,0.0019348597,0.00000000000,0.00000000000, -1.2650320,52.37088
Oxford,0.9955715,0.0044284982,0.00000000000,0.00000000000, -1.2577263,51.75202
Middlesbrough,0.9854997,0.0140209315,0.00000000000,0.00047934809, -1.2349560,54.57423
Hartlepool,0.9860420,0.0134051962,0.00000000000,0.00055279160, -1.2129260,54.69174
Loughborough,0.9931271,0.0068728522,0.00000000000,0.00000000000, -1.2061660,52.77210
Mansfield,0.9914871,0.0085128562,0.00000000000,0.00000000000, -1.1986740,53.14720
Nottingham,0.9921007,0.0078993320,0.00000000000,0.00000000000, -1.1581086,52.95478
Bicester,0.9962243,0.0037757221,0.00000000000,0.00000000000, -1.1535899,51.89960
Leicester,0.9923797,0.0076203378,0.00000000000,0.00000000000, -1.1397592,52.63688
Doncaster,0.9850091,0.0149909098,0.00000000000,0.00000000000, -1.1284620,53.52282
Worksop,0.9900772,0.0099228225,0.00000000000,0.00000000000, -1.1227450,53.30930
Basingstoke,0.9946022,0.0053978409,0.00000000000,0.00000000000, -1.0923964,51.26654
Portsmouth,0.9921772,0.0078227518,0.00000000000,0.00000000000, -1.0879769,50.81977
York,0.9913539,0.0083917862,0.00000000000,0.00025429655, -1.0872979,53.95997
Selby,0.9896683,0.0097879282,0.00000000000,0.00054377379, -1.0671890,53.78352
Helmsley,0.9938235,0.0061764933,0.00000000000,0.00000000000, -1.0562636,54.24651
Towcester,0.9945513,0.0047675805,0.00000000000,0.00068108292, -0.9896880,52.13511
Reading,0.9968941,0.0027608421,0.00000000000,0.00034510526, -0.9781303,51.45426
Retford,0.9903712,0.0096288027,0.00000000000,0.00000000000, -0.9455030,53.32136
Petersfield,0.9924375,0.0075625364,0.00000000000,0.00000000000, -0.9389900,51.00759
Northampton,0.9946640,0.0046690012,0.00000000000,0.00066700017, -0.9026560,52.24048
Melton Mowbray,0.9924433,0.0075566751,0.00000000000,0.00000000000, -0.8871260,52.76640
Aylesbury,0.9930289,0.0069711324,0.00000000000,0.00000000000, -0.8084000,51.81561
Newark-on-Trent,0.9941470,0.0058530241,0.00000000000,0.00000000000, -0.8065700,53.07004
Malton,0.9908440,0.0091560216,0.00000000000,0.00000000000, -0.7978970,54.13684
Chichester,0.9934769,0.0065231089,0.00000000000,0.00000000000, -0.7749360,50.83761
Gainsborough,0.9902369,0.0097631378,0.00000000000,0.00000000000, -0.7744650,53.40058
Milton Keynes,0.9981295,0.0018705362,0.00000000000,0.00000000000, -0.7594171,52.04062
Aldershot,0.9964606,0.0035393590,0.00000000000,0.00000000000, -0.7557509,51.24837
High Wycombe,0.9970018,0.0029982011,0.00000000000,0.00000000000, -0.7482290,51.62861
Midhurst,0.9962768,0.0037232392,0.00000000000,0.00000000000, -0.7372740,50.98690
Kettering,0.9928560,0.0071439911,0.00000000000,0.00000000000, -0.7302490,52.39632
Wellingborough,0.9937148,0.0056866364,0.00000000000,0.00059859331, -0.6939640,52.30242
Corby,0.9937565,0.0062434964,0.00000000000,0.00000000000, -0.6842333,52.49230
Bognor Regis,0.9942765,0.0053195270,0.00040401471,0.00000000000, -0.6730610,50.78300
Scunthorpe,0.9915752,0.0084247818,0.00000000000,0.00000000000, -0.6544130,53.58865
Grantham,0.9900870,0.0099130435,0.00000000000,0.00000000000, -0.6435820,52.91252
Whitby,0.9883508,0.0111256545,0.00000000000,0.00052356021, -0.6133470,54.48633
Slough,0.9964396,0.0035604083,0.00000000000,0.00000000000, -0.5950406,51.51054
Guildford,0.9959095,0.0040905372,0.00000000000,0.00000000000, -0.5704090,51.23622
Woking,0.9951878,0.0048122287,0.00000000000,0.00000000000, -0.5600349,51.31677
Lincoln,0.9884306,0.0115694452,0.00000000000,0.00000000000, -0.5405790,53.23069
Bedford,0.9976517,0.0023483366,0.00000000000,0.00000000000, -0.4667782,52.13864
Heathrow,0.9947758,0.0052242055,0.00000000000,0.00000000000, -0.4542955,51.47002
Driffield,0.9902540,0.0097460130,0.00000000000,0.00000000000, -0.4433770,54.00600
Beverley,0.9895444,0.0104555639,0.00000000000,0.00000000000, -0.4350930,53.84196
Luton,0.9950450,0.0049549550,0.00000000000,0.00000000000, -0.4200255,51.87867
Scarborough,0.9880279,0.0119720652,0.00000000000,0.00000000000, -0.3997520,54.28311
Worthing,0.9976858,0.0020249611,0.00028928016,0.00000000000, -0.3728820,50.81787
Dorking,0.9928214,0.0071785947,0.00000000000,0.00000000000, -0.3323780,51.23220
Hull,0.9911332,0.0088667820,0.00000000000,0.00000000000, -0.3274198,53.76762
Horsham,0.9977810,0.0022189933,0.00000000000,0.00000000000, -0.3258580,51.06288
Biggleswade,0.9978098,0.0021901807,0.00000000000,0.00000000000, -0.2642200,52.08694
Peterborough,0.9905122,0.0094877965,0.00000000000,0.00000000000, -0.2405299,52.56950
Welwyn Garden City,0.9947364,0.0052636439,0.00000000000,0.00000000000, -0.2086610,51.80317
Bridlington,0.9901286,0.0098713730,0.00000000000,0.00000000000, -0.1988020,54.08535
Stevenage,0.9952995,0.0047004753,0.00000000000,0.00000000000, -0.1966120,51.90376
Crawley,0.9984212,0.0015787812,0.00000000000,0.00000000000, -0.1872275,51.10914
Huntingdon,0.9948409,0.0051590714,0.00000000000,0.00000000000, -0.1825520,52.33146
Hove,0.9982694,0.0017305953,0.00000000000,0.00000000000, -0.1687490,50.82793
Spalding,0.9919480,0.0080519620,0.00000000000,0.00000000000, -0.1537024,52.79010
Brighton,0.9983267,0.0016733057,0.00000000000,0.00000000000, -0.1371630,50.82253
London,0.9956511,0.0042298580,0.00007438203,0.00004462922, -0.1277583,51.50735
Grimsby,0.9927156,0.0072844051,0.00000000000,0.00000000000, -0.0807840,53.56747
Boston,0.9939360,0.0060640362,0.00000000000,0.00000000000, -0.0265770,52.97894
Royston,0.9977745,0.0022255193,0.00000000000,0.00000000000, -0.0240660,52.04814
Louth_Lincs,0.9929438,0.0070561671,0.00000000000,0.00000000000, -0.0077110,53.36596
Lewes,0.9983261,0.0016738513,0.00000000000,0.00000000000,  0.0087800,50.87387
Chatteris,0.9917589,0.0082411463,0.00000000000,0.00000000000,  0.0540120,52.45610
Uckfield,0.9993991,0.0006009027,0.00000000000,0.00000000000,  0.0959130,50.96641
Cambridge,0.9955051,0.0044949251,0.00000000000,0.00000000000,  0.1218170,52.20534
Bishop's Stortford,0.9986836,0.0013163668,0.00000000000,0.00000000000,  0.1536502,51.87216
Wisbech,0.9903019,0.0096980669,0.00000000000,0.00000000000,  0.1587970,52.66632
Sevenoaks,0.9963597,0.0029122679,0.00000000000,0.00072806698,  0.1908980,51.27241
Tunbridge Wells,0.9975701,0.0024298876,0.00000000000,0.00000000000,  0.2636950,51.13238
Eastbourne,0.9966296,0.0033704069,0.00000000000,0.00000000000,  0.2904720,50.76803
Brentwood,0.9925116,0.0068372358,0.00000000000,0.00065116531,  0.3071749,51.62047
Skegness,0.9929589,0.0070411136,0.00000000000,0.00000000000,  0.3378810,53.14640
Downham Market,0.9915314,0.0084685956,0.00000000000,0.00000000000,  0.3854720,52.60661
King's Lynn,0.9923922,0.0076077768,0.00000000000,0.00000000000,  0.4022963,52.75168
Bexhill,0.9934327,0.0065673457,0.00000000000,0.00000000000,  0.4662071,50.84991
Chelmsford,0.9926477,0.0066683765,0.00000000000,0.00068393605,  0.4685497,51.73559
Mildenhall,0.9935015,0.0064984709,0.00000000000,0.00000000000,  0.5156095,52.34757
Medway,0.9955330,0.0044670444,0.00000000000,0.00000000000,  0.5417861,51.40474
Braintree,0.9947866,0.0052134246,0.00000000000,0.00000000000,  0.5509269,51.88009
Gillingham,0.9956863,0.0043137047,0.00000000000,0.00000000000,  0.5514380,51.38632
Hastings,0.9921079,0.0078921282,0.00000000000,0.00000000000,  0.5734530,50.85426
Maldon,0.9917020,0.0082980379,0.00000000000,0.00000000000,  0.6714480,51.73181
Southend,0.9936424,0.0060474492,0.00000000000,0.00031012560,  0.7077123,51.54593
Bury St Edmunds,0.9928344,0.0071656051,0.00000000000,0.00000000000,  0.7104932,52.24292
Thetford,0.9937389,0.0062611418,0.00000000000,0.00000000000,  0.7516570,52.41286
Ashford,0.9947496,0.0052504296,0.00000000000,0.00000000000,  0.8750190,51.14647
Faversham,0.9962670,0.0037329974,0.00000000000,0.00000000000,  0.8893580,51.31599
Colchester,0.9964758,0.0035242291,0.00000000000,0.00000000000,  0.8918740,51.89593
New Romney,0.9920077,0.0079923274,0.00000000000,0.00000000000,  0.9394730,50.98512
Canterbury,0.9942420,0.0053151045,0.00000000000,0.00044292537,  1.0789089,51.28023
Ipswich,0.9966062,0.0033938128,0.00000000000,0.00000000000,  1.1482200,52.05674
Clacton,0.9964420,0.0035580154,0.00000000000,0.00000000000,  1.1530350,51.78953
Folkestone,0.9949290,0.0050710296,0.00000000000,0.00000000000,  1.1694560,51.08140
Sheringham,0.9935205,0.0064794816,0.00000000000,0.00000000000,  1.2109589,52.94442
Harwich,0.9966091,0.0033908621,0.00000000000,0.00000000000,  1.2602970,51.93473
Norwich,0.9939210,0.0060790274,0.00000000000,0.00000000000,  1.2973550,52.63089
Cromer,0.9935345,0.0064655172,0.00000000000,0.00000000000,  1.3018660,52.93145
Dover,0.9959598,0.0036728922,0.00000000000,0.00036728922,  1.3134027,51.12788
Felixstowe,0.9966038,0.0033961771,0.00000000000,0.00000000000,  1.3512550,51.96173
Margate,0.9966343,0.0029917167,0.00000000000,0.00037396459,  1.3868339,51.38965
Ramsgate,0.9965636,0.0030545427,0.00000000000,0.00038181783,  1.4198950,51.33555
Great Yarmouth,0.9948409,0.0051590714,0.00000000000,0.00000000000,  1.7280470,52.59823
Lowestoft,0.9947871,0.0052128584,0.00000000000,0.00000000000,  1.7534490,52.48114
Swaffham,0.9940814,0.0059186190,0.00000000000,0.00000000000,  0.6874810,52.64747
Dereham,0.9942263,0.0057737148,0.00000000000,0.00000000000,  0.9378270,52.68162
Ely,0.9950654,0.0049346267,0.00000000000,0.00000000000,  0.2623630,52.39954
March,0.9914186,0.0085813684,0.00000000000,0.00000000000,  0.0886220,52.55172
St Neots,0.9965517,0.0034482759,0.00000000000,0.00000000000, -0.2651030,52.23008
Banham,0.9942005,0.0057994721,0.00000000000,0.00000000000,  1.0402849,52.45125
Holt,0.9942687,0.0057312906,0.00000000000,0.00000000000,  1.0867470,52.90936
Cromer,0.9935345,0.0064655172,0.00000000000,0.00000000000,  1.3018660,52.93145
Hunstanton,0.9926056,0.0073943662,0.00000000000,0.00000000000,  0.4910320,52.93891
Horncastle,0.9914794,0.0085205971,0.00000000000,0.00000000000, -0.1124500,53.20731
Market Weighton,0.9893115,0.0106885409,0.00000000000,0.00000000000, -0.6677465,53.86484
Hawes,0.9897820,0.0102179837,0.00000000000,0.00000000000, -2.1968695,54.30383
Reeth,0.9807356,0.0192644483,0.00000000000,0.00000000000, -1.9428115,54.38946
Aysgarth,0.9901840,0.0098159509,0.00000000000,0.00000000000, -1.9967434,54.29159
Stanhope,0.9780784,0.0219216418,0.00000000000,0.00000000000, -2.0113020,54.74946
Keswick,0.9872699,0.0127300588,0.00000000000,0.00000000000, -3.1347060,54.60128
Oxenholme,0.9891909,0.0108091414,0.00000000000,0.00000000000, -2.7243328,54.30134
