index,placename,longitude,latitude,where_is_x,where_is_x_at,where_to_is_x,where_x_about,where_x_to
0,Dingle,-10.264013499999999,52.14094,0.08819284573714249,0.06938594373179877,0.01,0.01,0.01
1,Tralee,-9.6999325,52.27131,0.1562379416703131,0.10630526168804574,0.01,0.01,0.01
2,Killarney,-9.5044265,52.059940000000005,0.2651490768082836,0.1610523457102609,0.01,0.01,0.01
3,Bantry,-9.4539805,51.68035,0.0966092804583041,0.06690914118503605,0.01,0.01,0.01
4,Mayo,-9.4289369,54.01526,0.14636181018780137,0.14076029390196865,0.01,0.01,0.01
5,Ballycastle,-9.3724643,54.279669999999996,0.01,0.05477879356828027,0.01,0.01,0.01
6,Abbeyfeale,-9.2970823,52.386179999999996,0.01,0.014936191012920872,0.01,0.01,0.01
7,Ennistymon,-9.2934951,52.940369999999994,0.01,0.022091004327062888,0.01,0.01,0.01
8,Galway,-9.0567905,53.270669999999996,0.3704938594738414,0.25242184005546076,0.01,0.01,0.01
9,Claremorris,-9.0017356,53.72388,0.2385868492551008,0.18818427563459997,0.01,0.01,0.01
10,Clare,-8.9811351,52.90453,0.23314731824515603,0.1660853267586532,0.01,0.01,0.01
11,Adare,-8.7925892,52.56363,0.07885608815049766,0.05646239884707502,0.01,0.01,0.01
12,Charleville,-8.681017599999999,52.36206,0.01,0.017823886903799862,0.01,0.01,0.01
13,Mallow,-8.6539164,52.13898,0.12737148700367124,0.08665323564202221,0.01,0.01,0.01
14,Limerick,-8.6267343,52.66384,0.3455584394840768,0.1996717154638728,0.01,0.01,0.01
15,Loughrea,-8.5660931,53.19891,0.01,0.025444079946331213,0.01,0.01,0.01
16,Sligo,-8.476088800000001,54.27661,0.24981279818074648,0.3592797301843183,0.01,0.01,0.01
17,Cork,-8.4756035,51.898509999999995,0.44783021171071097,0.2604543570710354,0.01,0.01,0.01
18,Nenagh,-8.19834,52.8635,0.17618055433644011,0.10607797846473678,0.01,0.01,0.01
19,Roscommon,-8.1890955,53.627590000000005,0.1865701489037846,0.18074703512606352,0.01,0.01,0.01
20,Tipperary,-8.161851400000002,52.47379,0.24479860270216283,0.14597604835382003,0.01,0.01,0.01
21,Donegal,-8.1096143,54.653830000000006,0.27455422997786455,0.4840708770076199,0.17073916426969873,0.01,0.01
22,Leitrim,-8.0020132,54.12469,0.15831671097652258,0.19801417568357682,0.01,0.01,0.01
23,Athlone,-7.9406898,53.423930000000006,0.16703372755944323,0.11529695242442661,0.01,0.01,0.01
24,Longford,-7.7932573000000005,53.727630000000005,0.180790725997769,0.15581296933135086,0.01,0.01,0.01
25,Offaly,-7.7122229,53.235690000000005,0.2357346198470197,0.16967511430572718,0.01,0.01,0.01
26,Fermanagh,-7.6318728,54.343830000000004,0.12178348671652865,0.22516757772267507,0.01,0.01,0.01
27,Enniskillen,-7.631533599999999,54.343819999999994,0.16724476975026842,0.2821587225179048,0.01,0.01,0.01
28,Doon,-7.60964,54.185930000000006,0.0814599777976987,0.11950470226186018,0.01,0.01,0.01
29,Westmeath,-7.4653217000000005,53.534530000000004,0.16906998491399836,0.1525443724421047,0.01,0.01,0.01
30,Strabane,-7.4633103,54.82739,0.1758321303057303,0.39085876993986457,0.13278535368080696,0.01,0.01
31,Balivanich,-7.3743509000000005,57.472269999999995,0.012266704459254938,0.05168209080189569,0.01,0.031747991141108614,0.01
32,Cavan,-7.3633319,53.98972,0.20484587610835436,0.18144826958791585,0.01,0.01,0.01
33,Mullingar,-7.340186800000001,53.525819999999996,0.16454059670275217,0.12192624572418068,0.05183406793329833,0.01,0.01
34,Laois,-7.332300699999999,52.9943,0.22713923872806605,0.20417606793793092,0.01,0.01,0.01
35,Omagh,-7.309959700000001,54.59771,0.18977912956964219,0.3890268698455881,0.14194527124166328,0.01,0.01
36,Derry,-7.308574799999999,54.99661,0.31036886002583935,0.6066497701648359,0.21840420329931592,0.01,0.01
37,Derry,-7.308574799999999,54.99661,0.31036886002583935,0.6066497701648359,0.21840420329931592,0.01,0.01
38,Kilkenny,-7.2447879,52.65415,0.2671566430768309,0.16876997193464172,0.01,0.01,0.01
39,Tyrone,-7.131232000000001,54.491209999999995,0.12798394252992673,0.24819433313626865,0.01,0.01,0.01
40,Waterford,-7.110070200000001,52.25932,0.30314065822269576,0.1642922733091926,0.01,0.01,0.01
41,Western Isles,-7.0194034,57.759890000000006,0.10996782322862844,0.10353256358325906,0.01,0.06566757696211392,0.01
42,Monaghan,-6.9683132,54.2492,0.1952504841248983,0.2627867646835459,0.01,0.01,0.01
43,Carlow,-6.934135899999999,52.83651,0.23992615936302672,0.16490806047978984,0.0658026080473591,0.01,0.01
44,Kildare,-6.8194707999999995,53.21204,0.3085629808958423,0.2064617691939414,0.07676907016184885,0.01,0.01
45,Dungannon,-6.7669352,54.508269999999996,0.13301578533986308,0.2930950903801992,0.01,0.01,0.01
46,Cookstown,-6.7443895000000005,54.641819999999996,0.17478753329507152,0.18342059925650042,0.01,0.04336408870811806,0.01
47,Coleraine,-6.6646103000000005,55.132580000000004,0.2651087232736778,0.3894004927831746,0.16871120944944187,0.05571140033433148,0.01
48,Meath,-6.656416900000001,53.60555,0.26661333219520894,0.18358294507671824,0.07021113380664612,0.01,0.01
49,Armagh,-6.652792,54.350280000000005,0.19341275455211657,0.3061238281813051,0.01,0.01,0.01
50,Armagh,-6.652792,54.350280000000005,0.19341275455211657,0.3061238281813051,0.01,0.01,0.01
51,Magherafelt,-6.607980499999999,54.75536999999999,0.19002024694212089,0.21653336782499025,0.12742904101633026,0.042079304250317355,0.01
52,Dunvegan,-6.581398200000001,57.4366,0.01,0.03415079903752111,0.01,0.027466626044872326,0.01
53,Louth,-6.4889423,53.925230000000006,0.2691361286533484,0.17999256556132864,0.01,0.01,0.01
54,Wexford,-6.4633381,52.33692,0.2844489870765891,0.1963636256472859,0.07446202514577518,0.01,0.01
55,Craigavon,-6.4175653,54.442930000000004,0.22798891721905876,0.22511164545688606,0.01,0.04822537057766035,0.01
56,Stornoway,-6.384869200000001,58.209430000000005,0.17088307746641962,0.12989970170357606,0.01,0.07888030998305585,0.01
57,Drogheda,-6.3560985,53.717859999999995,0.1921956456749409,0.13651349647406083,0.054555667680459004,0.01,0.01
58,Rosslare,-6.3414908,52.25131,0.01,0.026258819996264744,0.01,0.01,0.01
59,Newry,-6.34023,54.1751,0.22813470895296706,0.1642786090061818,0.01,0.04960402006495477,0.01
60,Scilly Isles,-6.327496599999999,49.92773,0.11511715621951993,0.06758293058119126,0.03946882300524706,0.039099893657076217,0.1510636240590881
61,Ballymena,-6.2802213,54.86529,0.218375038401537,0.2732685716296402,0.04681399719045472,0.04637640984546472,0.01
62,Banbridge,-6.2704803,54.34873,0.18254739895270303,0.12556110728792022,0.01,0.04545553665863306,0.01
63,Dublin,-6.2603097000000005,53.34981,0.6366385542332629,0.4033738719229467,0.14735135492238274,0.01,0.01
64,Antrim,-6.2072498,54.719530000000006,0.2422857795124543,0.25888588101377147,0.053905203041158194,0.053401331633126915,0.01
65,Antrim,-6.2072498,54.719530000000006,0.2422857795124543,0.25888588101377147,0.053905203041158194,0.053401331633126915,0.01
66,Portree,-6.1960231,57.41246999999999,0.16552872785951483,0.16090259321184902,0.01,0.0839253770151659,0.01
67,Islay,-6.177067,55.73625,0.11831072629980102,0.18035514965516922,0.08518213720470516,0.01,0.01
68,Wicklow,-6.044589,52.980819999999994,0.267133096494633,0.1759506841403657,0.07057286052205436,0.01,0.01
69,Kilkeel,-6.007004,54.06312,0.11172054392867674,0.07634543915544614,0.01,0.03084085366157909,0.01
70,Mull,-6.0008870000000005,56.4392,0.12026122210075894,0.15509265085803867,0.01,0.01,0.01
71,Belfast,-5.93012,54.597280000000005,0.5082745182275163,0.30718317962283737,0.09674324366319322,0.09583894961267517,0.01
72,Broadford,-5.9096592,57.24139,0.01,0.041907469921393534,0.01,0.027829492333114034,0.01
73,Down,-5.7156921999999994,54.32875,0.24676236065671167,0.15044280802461527,0.05334281419274211,0.0528441996364603,0.01
74,Kyle of Lochalsh,-5.7143293,57.28261,0.01,0.040790256220990986,0.01,0.027381619099212433,0.01
75,Campbeltown,-5.605373999999999,55.424119999999995,0.13154585777824157,0.16989794995923105,0.10144212323943913,0.01,0.01
76,Penzance,-5.537592,50.1188,0.23911219109678378,0.1279516888817978,0.06452448711157457,0.06392135341873639,0.20896792210930185
77,Oban,-5.471047,56.41516,0.18693944621865152,0.20250690048127098,0.01,0.01,0.01
78,Lochgilphead,-5.4323449,56.03829,0.09195042095502842,0.10537793647133839,0.01,0.01,0.01
79,Helston,-5.274996,50.10159,0.1611606080790253,0.09012084558349877,0.04882303681455346,0.04836667025035874,0.1581174676422824
80,Redruth,-5.226666000000001,50.23302,0.18947611131383482,0.10375319046040128,0.05448105639205256,0.0539718022747026,0.17644143577430602
81,Ullapool,-5.161313,57.895419999999994,0.1104407136587958,0.10956884958097407,0.01,0.06105990886314235,0.01
82,Ballachulish,-5.133719999999999,56.673930000000006,0.01,0.03249293754956142,0.01,0.01,0.01
83,Fort William,-5.1052179,56.81981999999999,0.17822515830829902,0.16279155197883008,0.01,0.01,0.01
84,Achnasheen,-5.078765799999999,57.578590000000005,0.01,0.026657704295164963,0.01,0.02714511396089401,0.01
85,Newquay,-5.0737190000000005,50.4155,0.2303970915548717,0.12458307670883899,0.06312636672816255,0.06253630177166972,0.24161089908089764
86,Falmouth,-5.066269999999999,50.152570000000004,0.2547420442521392,0.13581030910325673,0.06778615294074669,0.06715253127900842,0.2195310972751368
87,Rothesay,-5.055793,55.83596,0.17229231506638207,0.1533013435794936,0.01,0.01,0.01
88,Truro,-5.051041000000001,50.2632,0.38274335980237345,0.1983046635016527,0.09372403026285137,0.09284795789078643,0.3035330714613238
89,Milford Haven,-5.0426971,51.71431,0.14901140492659995,0.11983058158506296,0.16261371560236274,0.01,0.11171110070052896
90,Stranraer,-5.024055000000001,54.903369999999995,0.15730745033068314,0.0977543788153071,0.03620822352468221,0.035869772177865786,0.01
91,Fishguard,-4.975989,51.99393,0.10376536273573192,0.07993348196571262,0.10869991899705304,0.01,0.09600919845081382
92,Inchnadamph,-4.974295,58.15221,0.01,0.03502542469911039,0.01,0.025070584223389772,0.01
93,Haverfordwest,-4.971319,51.800470000000004,0.17157651357051001,0.13509830447397797,0.17166099433957452,0.01,0.11792632961945367
94,Dunoon,-4.926214,55.95097,0.15119253348754824,0.11489799816471533,0.01,0.01903010028616093,0.01
95,Pembroke,-4.908637000000001,51.674040000000005,0.2389243661749968,0.17435236302179674,0.22278608390416335,0.01,0.15304784377531422
96,Girvan,-4.8542179,55.240159999999996,0.14450263444109793,0.11033814801761355,0.01,0.01,0.01
97,Wadebridge,-4.836456,50.51665,0.17989317812188219,0.10042959035026168,0.053101624532686284,0.052605264463295505,0.2032420351504496
98,Invergarry,-4.800261,57.07095,0.01,0.033938633816348325,0.01,0.027372120602422143,0.01
99,St Austell,-4.7834252,50.340379999999996,0.20104412276657194,0.10979425401152486,0.056988370736792304,0.05645567984640401,0.18456158012241108
100,Greenock,-4.7719830000000005,55.956480000000006,0.2749430739967457,0.20156605495762403,0.05297183346128666,0.02623834525299811,0.01
101,Helensburgh,-4.734014,56.00232,0.1641643242216975,0.12554710415815545,0.01,0.02115840253727025,0.01
102,Bodmin,-4.7188629,50.4715,0.16203982625719376,0.09119458335705671,0.04926869346279069,0.0488081611848953,0.18857181382658678
103,Tenby,-4.703579,51.672740000000005,0.17161900217439952,0.1288906178460981,0.17261274153602035,0.01,0.11858015347601791
104,Camelford,-4.682364,50.62206,0.10552430432477938,0.061776869001809315,0.03211784610432107,0.06363525798609929,0.13238440381462813
105,Irvine,-4.6696364,55.61156999999999,0.3004977435682749,0.18757745271318776,0.01,0.01,0.01
106,Cardigan,-4.660864,52.0837,0.13594158642120618,0.0944657949625172,0.13462015886485254,0.01,0.09248030498026955
107,Holyhead,-4.633038,53.30944,0.1534713200824357,0.09851785282234395,0.01,0.01,0.054601407210499414
108,Ayr,-4.629179,55.45856,0.32896417079168994,0.20149144047613177,0.01,0.01,0.01
109,Dumbarton,-4.564554,55.94529,0.2560003785442909,0.18628263204857343,0.05089176873052609,0.025208032490854244,0.01
110,Bude,-4.543678,50.826640000000005,0.17258872505362455,0.10296964638712784,0.04493783244679317,0.0890355617963245,0.19845668764841962
111,Isle of Man,-4.5126330999999995,54.27697,0.30567179244251086,0.4011702101684259,0.01,0.05728416898933399,0.01
112,Kilmarnock,-4.498792,55.61472,0.2819241512848531,0.15941037986145953,0.01,0.01,0.01
113,Newton Stewart,-4.483164,54.9603,0.11569098592845331,0.18732135288815407,0.01,0.01,0.01
114,Liskeard,-4.4647190000000005,50.45552,0.17896618669431924,0.08656735632660219,0.05275940561878555,0.05226624439322197,0.20193221488933935
115,Altnaharra,-4.442655,58.28023,0.01,0.04255353271690117,0.01,0.025534992238076936,0.01
116,Pwllheli,-4.417633900000001,52.888819999999996,0.13618004311682935,0.08321697346831443,0.01,0.01,0.08118416133854209
117,Lairg,-4.402414,58.022059999999996,0.01,0.031862312375337445,0.01,0.026447269947732457,0.01
118,Launceston,-4.360451599999999,50.636829999999996,0.16026686566357032,0.07801559699782729,0.0363437115350597,0.036003993732860326,0.16050291185651605
119,Carmarthen,-4.312131,51.857620000000004,0.22995449567975373,0.15278372288891917,0.21888028006008936,0.01,0.15036466617806027
120,Llangefni,-4.311401999999999,53.255790000000005,0.21543073165636398,0.10469558618660932,0.01,0.01,0.07000624402550895
121,Caernarfon,-4.273911,53.13955,0.20019192690318824,0.10978088831844576,0.01,0.01,0.07269899510869926
122,Cumnock,-4.265828900000001,55.45355,0.2070053170103055,0.11317836650269868,0.01,0.01,0.016353220545853156
123,Aberaeron,-4.2581619,52.24279,0.12230602866768711,0.07181192411465574,0.01,0.01,0.06454700214457912
124,Alness,-4.256825,57.69595,0.16807371854076322,0.1584234116218838,0.01,0.08282108692879422,0.01
125,Glasgow,-4.251806,55.86424,0.630717942986699,0.3894538522774176,0.10464048940322605,0.10366237694361007,0.015403950174670701
126,Dalwhinnie,-4.242783,56.9366,0.01,0.01,0.01,0.01,0.01
127,Inverness,-4.224721,57.47776999999999,0.31897688419622366,0.2762740835232021,0.01,0.13531503818984003,0.01
128,Saltash,-4.21643,50.409209999999995,0.16343231107394063,0.07263220404306583,0.033081946504673575,0.03277271759864389,0.16557788511787488
129,Bideford,-4.206666,51.01668,0.19335446226171374,0.07102509195910243,0.01,0.056431880629748084,0.13417001637612203
130,Invergordon,-4.1728819999999995,57.688109999999995,0.17097102089310104,0.16338844928672164,0.01,0.0850326466276398,0.01
131,Llanelli,-4.160248,51.680890000000005,0.2677424744070205,0.14621657671089755,0.23434196584810646,0.01,0.18398447351263478
132,Plymouth,-4.1426565,50.37546,0.40931052246601995,0.17372804267025602,0.01,0.01,0.2573033614270843
133,Tavistock,-4.141654,50.551120000000004,0.19340207353637132,0.0737150859719313,0.01,0.037749478111301304,0.1570651978711801
134,Porthmadog,-4.1333839999999995,52.92784,0.17670436094893233,0.10130295047496927,0.01,0.01,0.09444433169019689
135,Bangor,-4.129263,53.22739,0.28559826328950416,0.13632854468755953,0.01,0.01,0.08675637502087702
136,Tywyn,-4.087249,52.58701,0.0889848903204995,0.03789742915221886,0.01,0.01,0.08906303635954843
137,Aberystwyth,-4.08292,52.4153,0.2549263515827821,0.13594927529668963,0.01,0.01,0.21638888142614518
138,Lampeter,-4.0785089999999995,52.1129,0.13833860216386842,0.06216707176004734,0.06598268795767137,0.01,0.09713201149273237
139,Barnstaple,-4.058338,51.07816,0.2583001789318268,0.10370672665165098,0.01,0.06575486505418324,0.19541993149734893
140,Tain,-4.05523,57.8115,0.10659790446648855,0.12736810522800143,0.01,0.06208936945594632,0.01
141,Okehampton,-4.004263,50.73831,0.1342728270496803,0.06014119848320258,0.01,0.030555760104120883,0.13621512272827602
142,Llandeilo,-3.9914300000000003,51.88469,0.1901962766376476,0.12016980055676013,0.18872304404495177,0.01,0.16668962012564878
143,Motherwell,-3.9810968,55.78321,0.3659194408213279,0.20428635440857643,0.06413780779376785,0.06353828853221512,0.01
144,Golspie,-3.976086,57.97341,0.01,0.037783384983533425,0.01,0.02492972583348832,0.01
145,Airdrie,-3.9625660000000003,55.86626999999999,0.3105507572258486,0.17523164810705316,0.05515566586911973,0.08196015889989079,0.01
146,Swansea,-3.9436459999999998,51.62144,0.4263037713143247,0.24580667529577116,0.7373564420302695,0.01,0.4031671711167191
147,Stirling,-3.9369029,56.116519999999994,0.33800199229235733,0.1620014611797893,0.01,0.7878719754991081,0.01
148,Tregaron,-3.934385,52.22,0.1344005319887437,0.07085727453264883,0.01,0.01,0.07813252935366634
149,Tregaron,-3.934385,52.22,0.1344005319887437,0.07085727453264883,0.01,0.01,0.07813252935366634
150,Castle Douglas,-3.9314139999999997,54.940419999999996,0.13569096889327392,0.2261917341773271,0.01,0.01,0.01
151,Dolgellau,-3.8844,52.74215,0.09704014484743788,0.06979427904781517,0.01,0.01,0.07728823842429812
152,Aberfeldy,-3.866969,56.62175,0.16839149545897045,0.08127540710407645,0.01,0.1585872842019381,0.01
153,Machynlleth,-3.853485,52.59027,0.12769214024986258,0.07415359955676716,0.01,0.01,0.16150143837489273
154,Brora,-3.8525480000000005,58.012159999999994,0.08428469558980603,0.11660402755003689,0.01,0.05023844636287897,0.01
155,Llandudno,-3.827609,53.324059999999996,0.23721837263481954,0.2047032058680208,0.01,0.01,0.01
156,Llandudno,-3.827609,53.324059999999996,0.23721837263481954,0.2047032058680208,0.01,0.01,0.01
157,Aviemore,-3.823812,57.19449,0.14726603603761965,0.14597671123811362,0.01,0.07727698611897281,0.01
158,Dalbeattie,-3.8225269999999996,54.934219999999996,0.09112257154684551,0.21380942115479232,0.01,0.03869695913644099,0.01
159,Falkirk,-3.7839131,56.00188000000001,0.33877363817405226,0.1637716267657599,0.01,0.7435926732279351,0.01
160,Kingsbridge,-3.777493,50.28395,0.17203145312065068,0.06546570842720384,0.01,0.01,0.1317327313848221
161,Pitlochry,-3.729711,56.70436,0.11310579640007638,0.025934713607404996,0.01,0.01,0.01
162,Colwyn Bay,-3.72764,53.29318000000001,0.21673540551346052,0.17115417085151377,0.01,0.01,0.01
163,Totnes,-3.685797,50.43374,0.18009717101671624,0.07176051716465133,0.01,0.01,0.14065126539567416
164,Grantown-on-Spey,-3.609628,57.33041,0.09558472419427608,0.0974389239277129,0.01,0.11131380623364676,0.01
165,Dumfries,-3.60512,55.070859999999996,0.2515897666920201,0.43818658459596155,0.01,0.07778825911503351,0.01
166,Whitehaven,-3.589233,54.5497,0.21280492993781394,0.5341216157097417,0.01,0.060040190860539855,0.01
167,Dartmouth,-3.578807,50.35252,0.14372103564563987,0.05728868480078184,0.01,0.01,0.12014744056938001
168,Bridgend,-3.576945,51.504290000000005,0.32183701299677914,0.1498242959310695,0.8832308159349451,0.01,0.422561523312118
169,Paignton,-3.564235,50.43508,0.2692136218182011,0.10238654581970455,0.01,0.01,0.1891548087392384
170,Workington,-3.5427519999999997,54.64357,0.20984456435711613,0.5073162583087266,0.01,0.06916285638024329,0.01
171,Llanidloes,-3.5401949999999998,52.447790000000005,0.10999891754382222,0.0659358651166196,0.01,0.01,0.09896481001114507
172,Exeter,-3.533899,50.71841,0.4439167116273876,0.15731113795999122,0.01,0.09261635748860804,0.22020067759586076
173,Torquay,-3.525315,50.46192,0.2763381693671022,0.10572309139881328,0.01,0.01,0.19401338856346573
174,Thurso,-3.5220800000000003,58.59356999999999,0.1541489451352303,0.17339440904952336,0.01,0.07003533121256982,0.01
175,Livingston,-3.518068,55.90071,0.3340967081130658,0.06724830722774143,0.04036494989423409,0.43986408081484957,0.01
176,Rhyl,-3.4916339999999995,53.319140000000004,0.21326943583643826,0.15028871559438087,0.01,0.02568573179924617,0.015267322610641563
177,Tiverton,-3.491207,50.90205,0.1914608245949712,0.08862414267115651,0.01,0.05173056272043384,0.15374046259732832
178,Tiverton,-3.491207,50.90205,0.1914608245949712,0.08862414267115651,0.01,0.05173056272043384,0.15374046259732832
179,Minehead,-3.481152,51.20428,0.14457995225127396,0.08643556208646999,0.38326156611596945,0.023729942456908952,0.16925788174550618
180,Dunfermline,-3.452151,56.071740000000005,0.31671911366473837,0.0503413314684582,0.03938123151580629,0.5266771171149217,0.01
181,Perth,-3.4308381000000003,56.39499,0.20182510029932185,0.06665685688178814,0.01,0.6921042993201784,0.01
182,Prestatyn,-3.4076129999999996,53.33651,0.17915354046453108,0.12984090244860472,0.01,0.02273177828432721,0.013511524426385629
183,Builth Wells,-3.4045919999999996,52.15002,0.1584667177259354,0.09362563394174232,0.01,0.01,0.19983490807994553
184,Braemar,-3.3979439,57.00646999999999,0.01,0.01,0.01,0.028595129920703004,0.01
185,Brecon,-3.391463,51.94895,0.19081641222748563,0.09761025637044839,0.20253275936135784,0.01,0.29814508584258936
186,Merthyr Tydfil,-3.381646,51.74873,0.36933211551256145,0.12887330663277574,0.2812636731282653,0.01,0.5796609636312661
187,Llandrindod Wells,-3.377742,52.2417,0.13550659107421956,0.08889568457164461,0.01,0.01,0.08534764773476342
188,Corwen,-3.369242,52.98005,0.09957981025311999,0.1179257832240299,0.01,0.01,0.01
189,Cockermouth,-3.367985,54.66326,0.1529398995183079,0.40117567393413667,0.01,0.05543700071795754,0.01
190,Lockerbie,-3.349008,55.122240000000005,0.22116676828690668,0.42239153840412774,0.01,0.22084874704371277,0.01
191,Blairgowrie,-3.3378318,56.58941,0.15369380720507403,0.057872012288711305,0.01,0.5134415513841104,0.01
192,Elgin,-3.318485,57.64945,0.2850050766224408,0.2670346950318843,0.01,0.22491354691759283,0.01
193,Newtown,-3.313106,52.51211,0.11786357920261543,0.14578615854020843,0.01,0.01,0.11261985001868549
194,Ruthin,-3.3103108,53.114869999999996,0.17360758926895353,0.17492188241485254,0.01,0.01,0.01
195,Ruthin,-3.3103108,53.114869999999996,0.17360758926895353,0.17492188241485254,0.01,0.01,0.01
196,Sidmouth,-3.2375599999999998,50.67865,0.17423674730753946,0.0694165934742784,0.01,0.01,0.09898489535586366
197,Barrow-in-Furness,-3.2188939999999997,54.10896999999999,0.26608061601444727,0.4922480438285787,0.01,0.01,0.01
198,Peebles,-3.1936419999999996,55.65306999999999,0.16824470515698095,0.037002887070301256,0.02610735020369224,0.25863315096257355,0.01
199,Edinburgh,-3.1882669999999997,55.95325,0.5812725308382936,0.11205274567135637,0.06644424052594754,0.8886126824871662,0.01
200,Cardiff,-3.17909,51.48158,0.5417205870569565,0.23284214141420906,1.0,0.01,0.5047142608289028
201,Llangollen,-3.1716599999999997,52.96921,0.12997296512082995,0.1664711945112443,0.01,0.01,0.01
202,Kirkcaldy,-3.158137,56.11682,0.35341933611432214,0.07419278970755053,0.043323058390111156,0.7725258093955545,0.01
203,Welshpool,-3.146407,52.66035,0.17142215100160377,0.2792074425701449,0.01,0.01,0.09135724397010704
204,Mold,-3.1419029999999997,53.1672,0.25932319904534745,0.230768794747111,0.01,0.03340037016691021,0.01
205,Mold,-3.1419029999999997,53.1672,0.25932319904534745,0.230768794747111,0.01,0.03340037016691021,0.01
206,Taunton,-3.106849,51.01534,0.2895813848584048,0.1517836304782848,0.01,0.01,0.284820193369806
207,Wick,-3.093716,58.43894,0.14459946932695728,0.1610749676726975,0.01,0.06574082044466095,0.01
208,John o' Groats,-3.0688997000000002,58.63734,0.01,0.0399197465227604,0.01,0.02350665000289545,0.01
209,Dalkeith,-3.066606,55.893119999999996,0.28845904847470155,0.05100697033823604,0.03971794113044877,0.49183351348445553,0.01
210,Oswestry,-3.056412,52.85715,0.2240111925237297,0.3331734837224007,0.01,0.01,0.040926147510632484
211,Blackpool,-3.0356748,53.81751,0.3871970671811932,0.6762791645091198,0.01,0.01,0.01
212,Birkenhead,-3.023009,53.389990000000004,0.38053441323709875,0.29249121167870035,0.01,0.03745539524960227,0.022263085327014678
213,Cupar,-3.010137,56.32023,0.1600653853503683,0.02602340343603278,0.022804537046875253,0.3388706061696326,0.01
214,Southport,-3.010113,53.64571,0.3152941420725949,0.47196097447255647,0.01,0.01,0.01
215,Bridgwater,-3.003632,51.12789,0.34215486656487637,0.14666257948140884,0.35241538668728184,0.01,0.41502783469675447
216,Langholm,-2.998913,55.153059999999996,0.09391080481362823,0.22646316540689282,0.01,0.13280228823148935,0.01
217,Newport,-2.997664,51.58415,0.3754720054235632,0.1471604948382377,0.9068963462214488,0.01,0.4240673797474603
218,Axminster,-2.9949369999999997,50.78273,0.18754444600860587,0.11417297019100078,0.01,0.01,0.18415145476469075
219,Wrexham,-2.9924939999999998,53.043040000000005,0.3125790612829752,0.3734134950658042,0.01,0.01,0.01
220,Liverpool,-2.9915726,53.40837,0.5986657969619008,0.46468879770558286,0.01,0.05297077142452134,0.03148526078817032
221,Weston-super-Mare,-2.977255,51.347409999999996,0.30386290585557973,0.12448573695039578,0.5004107232931927,0.01,0.36832312464687195
222,Dundee,-2.9707209999999997,56.462019999999995,0.38878766131839165,0.09721140589256068,0.01,1.0,0.01
223,Kirkwall,-2.9622491,58.984669999999994,0.15441526677697834,0.16754417185611842,0.01,0.06799596080683873,0.01
224,Ambleside,-2.961333,54.428740000000005,0.23309684579694473,0.6134243225533716,0.01,0.07447593523152128,0.01
225,Orkney Islands,-2.9605206,58.980940000000004,0.1598723273253813,0.17208931169138064,0.01,0.06958037650069848,0.01
226,Lyme Regis,-2.936639,50.725159999999995,0.16672631337358143,0.09210795951419233,0.01,0.01,0.15547314596189987
227,Carlisle,-2.932931,54.892469999999996,0.36236542853496123,0.676551929970982,0.01,0.10263595608245399,0.01
228,Chester,-2.893075,53.19339,0.3906708305612715,0.3935354858753791,0.01,0.01,0.01
229,Forfar,-2.889062,56.64356,0.2016227994772037,0.07475503271255468,0.01,0.6149639122352126,0.01
230,Morecambe,-2.864968,54.074169999999995,0.22266617856581172,0.46005660218386957,0.01,0.01,0.01
231,Selkirk,-2.838524,55.55066,0.20869893803803946,0.05593867569902261,0.032161957452025325,0.35047462087573333,0.01
232,Galashiels,-2.814449,55.62373,0.19585034072313645,0.05200562462973271,0.030646162934208097,0.3643164291603862,0.01
233,Lancaster,-2.8007399,54.046569999999996,0.31468090392979226,0.6479382732707372,0.01,0.01,0.01
234,St Andrews,-2.7967214,56.339780000000005,0.23175956180260726,0.050723651903653584,0.030152099716826888,0.4779241383558631,0.01
235,Hawick,-2.780914,55.42706,0.17064758062610438,0.14424155136305747,0.01,0.40802180957572654,0.01
236,Bridport,-2.758301,50.733579999999996,0.17533095157047776,0.10739127190966476,0.01,0.01,0.17144077832054455
237,Shrewsbury,-2.7553267999999997,52.7073,0.36819971486808356,0.49778578233842724,0.01,0.01,0.14725765020507314
238,Penrith,-2.752708,54.6641,0.31375510335954515,0.5875921390696974,0.01,0.10721141414151995,0.01
239,Kendal,-2.74629,54.32801,0.2736455248068731,0.6525056812455742,0.01,0.08793842248535333,0.01
240,Street,-2.7429189999999997,51.12468,0.1358720854750874,0.08695023234965964,0.01,0.01,0.27274416040897154
241,Glastonbury,-2.718454,51.14743,0.16889950727998526,0.11453854976100829,0.01,0.01,0.3159166341107922
242,Hereford,-2.715974,52.0564,0.31279369702133475,0.27203246857135827,0.01,0.01,0.05287120436439057
243,Ludlow,-2.7139129,52.36775,0.20700773435551276,0.255851938544614,0.01,0.01,0.06138236343185608
244,Preston,-2.70309,53.7632,0.4433010781715828,0.7132195943246467,0.01,0.01,0.01
245,Whitchurch,-2.682045,52.96872,0.16708375630072086,0.2949760358238151,0.01,0.01,0.021955187079072343
246,Wells,-2.6445979,51.20935,0.19867779747493147,0.1469994042163773,0.04441469518453302,0.01,0.4289067758238472
247,Yeovil,-2.633308,50.94206,0.26454563887940397,0.17583358238150368,0.01,0.01,0.2850216993260151
248,Wigan,-2.6325074,53.54506,0.470226551701355,0.731534212196539,0.01,0.01,0.01
249,Warrington,-2.5969501,53.39004,0.4887051315223641,0.6622265558017943,0.01,0.01,0.01
250,Arbroath,-2.591543,56.55911,0.2230544523056397,0.07549051264782715,0.01,0.7570278306458741,0.01
251,Bristol,-2.58791,51.45451,0.5664093925454006,0.4032026219955031,0.11172851806478244,0.01,1.0
252,Guernsey,-2.5852779999999997,49.46569,0.01,0.01,0.01,0.01,0.044686053394281916
253,Ross-on-Wye,-2.582446,51.91445,0.23980373590216433,0.2520689512111858,0.01,0.01,0.03918775442161186
254,Jedburgh,-2.5549369,55.47772,0.12812088450467202,0.1599244598866664,0.01,0.5090178452378084,0.01440736934225231
255,Sedbergh,-2.5281740000000004,54.32363,0.13582893631937545,0.3244076004781867,0.01,0.060033847275724694,0.01
256,Sedbergh,-2.5281740000000004,54.32363,0.13582893631937545,0.3244076004781867,0.01,0.060033847275724694,0.01
257,Nantwich,-2.524102,53.067190000000004,0.22414413318883242,0.321580183971774,0.01,0.01,0.01
258,Banff,-2.524038,57.666509999999995,0.1456994762135407,0.1503728414808845,0.01,0.08643833534845828,0.01
259,Dunbar,-2.516737,56.00209,0.24692922983368137,0.05862810105240397,0.033198446239720854,0.690650713728984,0.01
260,Cinderford,-2.5009579,51.8253,0.21978631893483214,0.23511422521663197,0.01,0.01,0.0379267805104164
261,Banchory,-2.4909599,57.05386,0.18086437448063336,0.1390728131329025,0.01,0.05342528577193104,0.01
262,Blackburn,-2.487529,53.748580000000004,0.35390048002925867,0.6426045968803419,0.05679051007962081,0.01,0.01
263,Market Drayton,-2.483485,52.90355,0.13589191810993448,0.2320827172862949,0.01,0.01,0.019953816794470502
264,Telford,-2.4672611,52.67759,0.32133855577941295,0.3902275715253276,0.01,0.01,0.039815945436373644
265,Montrose,-2.4661150000000003,56.70692,0.19843556417465746,0.09927036545214324,0.01,0.31463348190292184,0.01
266,Turriff,-2.4623,57.53893000000001,0.1554795864846772,0.1425228592372416,0.01,0.06491875385026565,0.01
267,Weymouth,-2.457621,50.61443,0.24922553440639947,0.12185884088833228,0.01,0.01,0.16749412937394492
268,Crewe,-2.4438209,53.10041,0.3007085896813357,0.41111021680352333,0.01,0.01,0.01
269,Fortuneswell,-2.4422189999999997,50.55919,0.11979222226111073,0.06239239114184186,0.01,0.01,0.10081287355332891
270,Dorchester,-2.4411810000000003,50.71116,0.32405058427456557,0.1571884931630397,0.01,0.01,0.20711017794024764
271,Alston,-2.438685,54.812169999999995,0.08842223270092302,0.25845335107291345,0.01,0.04679162182193959,0.01
272,Kelso,-2.432207,55.600030000000004,0.16286102858959195,0.04895854253731035,0.025787851093314114,0.3576552355814546,0.01
273,Wincanton,-2.416007,51.055690000000006,0.1493174546677424,0.07197605364745781,0.05367980796794224,0.01,0.1580422978021525
274,Clitheroe,-2.3930830000000003,53.8711,0.23022347371734012,0.4629868951402469,0.05671120773334909,0.01,0.01
275,Sark,-2.3666256000000003,49.43007,0.01,0.01,0.01,0.01,0.03241312794921294
276,Bath,-2.3590167,51.38106,0.3944934615133533,0.32673095037698463,0.0809892019033965,0.01,0.8107153533348715
277,Kidderminster,-2.2496839,52.3886,0.2615122800590592,0.27577620869443953,0.01,0.01,0.01
278,Manchester,-2.2426305,53.48076,0.7198335459481598,1.0,0.0399488489369286,0.01,0.06664910908593277
279,Burnley,-2.2405035,53.78929,0.32498716301682684,0.49296219064415,0.08259578777206207,0.01,0.01
280,Gloucester,-2.238156,51.86424,0.3968057088552379,0.37271059344895374,0.01,0.01,0.05960368041239502
281,Newcastle-under-Lyme,-2.2273002,53.01321,0.2663169692731198,0.32163795238303233,0.01,0.01,0.01
282,Worcester,-2.221575,52.19364,0.4016736746857298,0.3871311454597952,0.01,0.01,0.01
283,Trowbridge,-2.208853,51.31966,0.3803447755133266,0.2214228385434643,0.11851306397678728,0.01,0.5582755174717079
284,Shaftesbury,-2.198083,51.0046,0.17056645540151744,0.1777500262420201,0.01,0.01,0.1778558110733243
285,Alderney,-2.1973557,49.715,0.01,0.012126941190451795,0.01,0.01,0.02464017043036758
286,Stoke-on-Trent,-2.179404,53.002669999999995,0.3917935619777817,0.4320106175176443,0.01,0.01,0.01
287,Colne,-2.176991,53.85564,0.21883636768154657,0.3608731091461526,0.07143959126329386,0.01,0.01
288,Blandford Forum,-2.165353,50.85691,0.14425999995065744,0.09939248030948324,0.01,0.01,0.10517976321453137
289,Rochdale,-2.1561,53.60971,0.3947422182622572,0.5688909919286353,0.04648703252533549,0.01,0.03193529857449964
290,Jersey,-2.13125,49.21444,0.01,0.011227421123132774,0.01,0.01,0.03210802837164875
291,Wolverhampton,-2.12882,52.586969999999994,0.3652833641242667,0.4340356350396926,0.01,0.01,0.01
292,Stafford,-2.12066,52.80669,0.36619686987558636,0.32522062975246824,0.01,0.01,0.01
293,Macclesfield,-2.119287,53.25866,0.3408678232838292,0.3149750823342462,0.01,0.01,0.01
294,Hexham,-2.1121439,54.97266,0.28924829962046494,0.49248037815684037,0.01,0.01,0.022205165298568003
295,Aberdeen,-2.094278,57.149719999999995,0.4294598073460572,0.2595821323035901,0.01,0.1000799838029114,0.01
296,Dudley,-2.081112,52.51226,0.3498813037336895,0.4464867263694158,0.01,0.01,0.01
297,Cheltenham,-2.0782533,51.899390000000004,0.3731848567098312,0.3611086707969655,0.01,0.01,0.01
298,Bromsgrove,-2.061906,52.33559,0.29672178090349177,0.3116692647742738,0.01,0.01,0.01
299,Skipton,-2.0162787,53.96285,0.2185660946068997,0.3727127627645428,0.01,0.01,0.01
300,Fraserburgh,-2.007631,57.69335,0.1647341106762625,0.14495188050858807,0.01,0.06584614210633642,0.01
301,Berwick,-2.005395,55.77024,0.19209735439403391,0.07077909797208991,0.03099389009175852,0.36845016301215716,0.01
302,Poole,-1.987248,50.71505,0.32077045445580377,0.16073088044377076,0.01,0.01,0.14951665814455245
303,Walsall,-1.9829189999999999,52.586209999999994,0.355847326657823,0.44120125953792216,0.01,0.01,0.01
304,Cirencester,-1.968243,51.71849,0.34153166579694294,0.32136668083074665,0.01,0.01,0.04493598447413424
305,Evesham,-1.9467700000000001,52.09215,0.23252593017691534,0.19353811975692495,0.01,0.01,0.01
306,Buxton,-1.91483,53.259080000000004,0.2720379095704529,0.3279340781968936,0.01,0.01,0.01
307,Keighley,-1.9123580000000002,53.8678,0.2785929859149064,0.425555105262643,0.01,0.01,0.01
308,Birmingham,-1.8904009999999998,52.48624,0.6387893498595258,0.7339643728334186,0.01,0.01,0.01
309,Bournemouth,-1.880769,50.719159999999995,0.3991177956277077,0.1949442374426066,0.0600140620960769,0.01,0.1590222521811123
310,Halifax,-1.8575400000000002,53.727019999999996,0.2738820264522108,0.4315181552675783,0.01,0.01,0.01
311,Salisbury,-1.794472,51.06878,0.2967495225615525,0.13596503664957776,0.07151797508119899,0.01,0.06316824982695428
312,Ringwood,-1.7888169999999999,50.84495,0.24837620395007654,0.09333881896310849,0.04657588842467017,0.01,0.12341445469582477
313,Huddersfield,-1.7850351000000002,53.645790000000005,0.38979028181538283,0.6250909350889705,0.01,0.01,0.01
314,Peterhead,-1.784066,57.50812,0.2057655450836872,0.18473721548230973,0.01,0.07398937967670592,0.01
315,Swindon,-1.7797176,51.55577,0.3624409679037112,0.2676430364254386,0.01,0.01,0.21099062886051856
316,Bradford,-1.759398,53.79598000000001,0.4259913387963376,0.5004560260876153,0.01,0.01,0.01
317,Ashbourne,-1.7321790000000001,53.016630000000006,0.32854938249801785,0.4771201581669563,0.07854173871294191,0.01,0.01
318,Marlborough,-1.7270619999999999,51.42007,0.21755270832450915,0.13622057747642335,0.01,0.01,0.09753660583687782
319,Stratford-upon-Avon,-1.7082979999999999,52.19173,0.2861252713689918,0.26461840949757093,0.01,0.01,0.01
320,Alnwick,-1.7062990000000002,55.41274,0.18792613166506825,0.3379010053056321,0.01,0.05772959071988931,0.014297437386586937
321,Otley,-1.691786,53.90583,0.20913497048466015,0.2546790187190394,0.01,0.01,0.01
322,Bishop Auckland,-1.6787880000000002,54.663819999999994,0.23673040907690382,0.7276619411690777,0.01,0.01,0.032132908633098436
323,Burton upon Trent,-1.6371358999999999,52.81403,0.3111129807542492,0.4832102312505725,0.1758918860346229,0.01,0.01
324,Newcastle,-1.61778,54.97825,0.5480516473898227,0.9410255934610663,0.01,0.01,0.06332513561383178
325,Durham,-1.5848520000000001,54.77525,0.3653405663506436,0.9844446282836955,0.01,0.17734576319686823,0.052706210041640694
326,Ashington,-1.5659829,55.18298000000001,0.22127410792195187,0.3956925489541699,0.01,0.01,0.016397082385607938
327,Darlington,-1.559458,54.52361,0.2972033521901837,0.7658549562704229,0.01,0.01,0.03959057232377062
328,Leeds,-1.5490774,53.80076,0.5664028935549814,0.6772494063940012,0.01,0.01,0.01
329,Harrogate,-1.5418120000000002,53.99211999999999,0.37704324776947723,0.3889638200229363,0.01,0.01,0.012888147720369466
330,Leamington Spa,-1.5200789,52.28519,0.3689583993741508,0.3122427065222067,0.01,0.01,0.01
331,Coventry,-1.519693,52.40682,0.424735845250192,0.4197563878396211,0.01,0.01,0.01
332,Blyth,-1.510277,55.12696,0.23464247862662452,0.414026333826773,0.01,0.01,0.03709350414451235
333,Wakefield,-1.505924,53.6833,0.3539676652156868,0.47039652875534094,0.01,0.01,0.01
334,Andover,-1.4919233,51.2112,0.25819775206291573,0.13757310330174513,0.01,0.01,0.01
335,Witney,-1.4850543999999999,51.785940000000004,0.2610866547881123,0.1378238697417501,0.01,0.01,0.01
336,Barnsley,-1.479726,53.55263000000001,0.34612739931066144,0.5400896829783992,0.01,0.01,0.01
337,Derby,-1.4746186000000001,52.92253,0.4120285184810693,0.723398716362642,0.23374571437778188,0.01,0.01
338,Sheffield,-1.470085,53.381130000000006,0.5347146790725235,0.7839315007453974,0.01,0.01,0.01
339,Nuneaton,-1.465382,52.52049,0.3499731964824398,0.48161739030279693,0.01,0.01,0.01
340,Northallerton,-1.429959,54.337959999999995,0.19466042371515704,0.40662930713516215,0.01,0.01,0.01
341,South Shields,-1.427406,54.99941999999999,0.32678418082485433,0.5568918767745211,0.01,0.07986783049253524,0.03560443588632395
342,Chesterfield,-1.421629,53.23505,0.33764601189647336,0.5776219068087414,0.04209941900644128,0.01,0.01
343,Southampton,-1.4043508999999998,50.9097,0.5069843422215988,0.36269551099442254,0.06743255938933904,0.01,0.05955980535035121
344,Wetherby,-1.384816,53.92706,0.19219178977474596,0.22444963118538797,0.01,0.01,0.01
345,Sunderland,-1.383801,54.90687,0.3691153362621311,0.6784295525418472,0.01,0.08303225584168936,0.03701511044859946
346,Rotherham,-1.3635008999999998,53.4326,0.35127423954135445,0.5788531016556677,0.01,0.01,0.01
347,Castleford,-1.345968,53.72346999999999,0.29092919633450437,0.3680896269809029,0.01,0.01,0.01
348,Thirsk,-1.341377,54.23385,0.17202471408266787,0.23006122979724283,0.01,0.01,0.012034344108991575
349,Banbury,-1.339775,52.0629,0.2706993840849543,0.10162527816420162,0.01,0.01,0.01
350,Stockton,-1.3289821000000002,54.57046,0.30175678879893186,0.8119086374342199,0.01,0.01,0.04020477077644622
351,Newbury,-1.3231138999999998,51.40141,0.3430611402029344,0.08126999314201411,0.01,0.01,0.028801021125647475
352,Isle of Wight,-1.304734,50.69385,0.31903633753369465,0.21938322025916718,0.04954252078961928,0.01,0.0729307144956437
353,Isle of Wight,-1.304734,50.69385,0.31903633753369465,0.21938322025916718,0.04954252078961928,0.01,0.0729307144956437
354,Abingdon,-1.2879528999999998,51.67078,0.27974676546039295,0.14702970234111273,0.01,0.01,0.01
355,Shetland Islands,-1.2659409,60.52965,0.08435764721100333,0.10899033959480908,0.01,0.03126971404928209,0.01
356,Rugby,-1.265032,52.37088,0.32475496558617056,0.28823709090068467,0.01,0.01,0.01
357,Oxford,-1.2577263,51.75202,0.48087282392209874,0.2517472839189528,0.01,0.01,0.01
358,Middlesbrough,-1.234956,54.57423000000001,0.3762028992296694,0.871440804886096,0.01,0.13535282539807,0.0402261340590412
359,Hartlepool,-1.212926,54.69174,0.2856966606178877,0.7097746693974991,0.01,0.1041647143779208,0.06191438933712463
360,Loughborough,-1.206166,52.7721,0.36675681368142904,0.47991651327770224,0.01,0.01,0.01
361,Mansfield,-1.198674,53.1472,0.3081070569156,0.4346783457997529,0.01,0.01,0.01
362,Nottingham,-1.1581086,52.95478000000001,0.5323637781796821,0.6750457508978777,0.01,0.01,0.01
363,Bicester,-1.1535898999999998,51.8996,0.21888496628049414,0.169110426073813,0.01,0.01,0.01
364,Leicester,-1.1397591999999999,52.636880000000005,0.46428860569627556,0.5059346627047246,0.01,0.01,0.01
365,Doncaster,-1.128462,53.522819999999996,0.36575943319188653,0.7295961682376565,0.01,0.01,0.01
366,Worksop,-1.122745,53.3093,0.24248328258144175,0.43785044160468906,0.01,0.01,0.01
367,Basingstoke,-1.0923964,51.26654,0.31479116467192264,0.141494598473455,0.01,0.01,0.022372965132025174
368,Portsmouth,-1.0879769,50.81977,0.44357177294649175,0.34718748027366575,0.057398986442300196,0.01,0.050697650735452
369,York,-1.0872979,53.95997,0.43598841750079437,0.4635564785959473,0.01,0.01,0.02925319661852967
370,Selby,-1.067189,53.783519999999996,0.2215619584463071,0.32246112653360465,0.01,0.01,0.01895280845743965
371,Helmsley,-1.0562636,54.24651,0.08479743849207506,0.1735832745965617,0.01,0.01,0.01
372,Towcester,-0.9896879999999999,52.13511,0.2302065968518519,0.11372224942117344,0.01,0.01,0.036382379043409616
373,Reading,-0.9781303,51.45426,0.4294628592172502,0.18294251991714996,0.01,0.01,0.03857509201807621
374,Retford,-0.9455030000000001,53.32136,0.1859026003160582,0.39820015211251036,0.01,0.01,0.01
375,Petersfield,-0.93899,51.00759,0.21025409292438518,0.24388483903098057,0.01,0.01,0.01
376,Northampton,-0.9026559999999999,52.24048,0.4163516314849767,0.27470323125426227,0.01,0.01,0.05434906823467908
377,Melton Mowbray,-0.887126,52.7664,0.22427275977488645,0.32513639648724435,0.01,0.01,0.01
378,Aylesbury,-0.8084,51.81561,0.35053158098384396,0.23492181427787234,0.01,0.01,0.01
379,Newark-on-Trent,-0.80657,53.070040000000006,0.31103348552250565,0.43095201058582955,0.01,0.01,0.01
380,Malton,-0.7978970000000001,54.13684,0.18569978721577393,0.2934036742381347,0.01,0.01,0.01529369893387043
381,Chichester,-0.774936,50.83761,0.2760030512521843,0.26375069790494166,0.1198625307588848,0.01,0.01
382,Gainsborough,-0.774465,53.400580000000005,0.18047514336535483,0.4147362093014652,0.01,0.01,0.01
383,Milton Keynes,-0.7594171,52.040620000000004,0.4055447248987239,0.24245166889327668,0.01,0.01,0.05251229861146977
384,Aldershot,-0.7557509,51.24837,0.3533121683146258,0.29225211942735263,0.01,0.01,0.01
385,High Wycombe,-0.748229,51.628609999999995,0.3248559623195423,0.16427933249984483,0.31044795796093444,0.01,0.01
386,Midhurst,-0.737274,50.9869,0.2037869964010802,0.15988716839826483,0.09681016494509183,0.01,0.01
387,Kettering,-0.7302489999999999,52.39632,0.29057848705475686,0.24749992966213075,0.01,0.01,0.05698302405153624
388,Wellingborough,-0.693964,52.30242,0.2567485698848112,0.2322761567009947,0.01,0.01,0.04421637664447293
389,Corby,-0.6842333,52.4923,0.2762743212485368,0.3264330766634019,0.01,0.01,0.01
390,Bognor Regis,-0.673061,50.783,0.260248024189904,0.19565696186347978,0.07322391874808376,0.01,0.01
391,Scunthorpe,-0.654413,53.58865,0.28436360445600406,0.5208937104420465,0.01,0.01,0.01
392,Grantham,-0.643582,52.912519999999994,0.2549946045082827,0.2610207957673942,0.01,0.01,0.01
393,Whitby,-0.613347,54.48633,0.19942594808016673,0.48226845926735334,0.01,0.01,0.03217788440712074
394,Slough,-0.5950406,51.51054,0.36636219420929805,0.23553787646406277,0.01,0.01,0.01
395,Guildford,-0.570409,51.23622,0.34756426391519485,0.26684992725414197,0.01,0.01,0.01
396,Woking,-0.5600349,51.31677,0.4230193285440066,0.2954421564657191,0.01,0.01,0.01
397,Lincoln,-0.540579,53.23069,0.38580656227335175,0.48604580080939486,0.01,0.01,0.01
398,Bedford,-0.46677820000000003,52.13864,0.3565145971751168,0.1219523714415843,0.01,0.01,0.01
399,Heathrow,-0.4542955,51.47002,0.46139784044463134,0.2177179903743745,0.01,0.01,0.01
400,Driffield,-0.443377,54.006,0.1627433540804391,0.2706459812686546,0.01,0.01,0.01
401,Beverley,-0.435093,53.84196,0.28862629659718847,0.3725350426732503,0.01,0.01,0.01
402,Luton,-0.4200255,51.87867,0.37945783071755873,0.2900312718266794,0.01,0.0821281239015606,0.01
403,Scarborough,-0.399752,54.28311,0.27576135409989705,0.38531203290016647,0.01,0.01,0.01
404,Worthing,-0.372882,50.81787,0.3597692089356207,0.11105304871721372,0.10680581053974711,0.01,0.01
405,Dorking,-0.332378,51.2322,0.33568308338264,0.16694439903001615,0.01,0.01,0.07128549289623887
406,Hull,-0.3274198,53.767619999999994,0.4334245692449668,0.525110332626199,0.01,0.01,0.01
407,Horsham,-0.325858,51.06288,0.2626830036223033,0.04158455920416696,0.01,0.01,0.01
408,Biggleswade,-0.26421999999999995,52.086940000000006,0.2124540823669263,0.1965808399783711,0.01,0.01,0.01
409,Peterborough,-0.2405299,52.5695,0.3752940261130019,0.5036941948284199,0.01,0.01,0.01
410,Welwyn Garden City,-0.208661,51.80317,0.48120672798512326,0.3654947636294676,0.01,0.10503383909107195,0.01
411,Bridlington,-0.198802,54.08535,0.20115768490855845,0.3024270144973573,0.01,0.01,0.01
412,Stevenage,-0.19661199999999998,51.90376,0.3290413996714049,0.23694056939377273,0.01,0.01,0.01
413,Crawley,-0.18722750000000002,51.109140000000004,0.31871337604921995,0.1767800576507509,0.01,0.01,0.01
414,Huntingdon,-0.182552,52.33146,0.22117049543299483,0.18510125093693167,0.01,0.01,0.01
415,Hove,-0.168749,50.82793,0.2865946101912702,0.06711175823034744,0.0850921015531442,0.01,0.01
416,Spalding,-0.1537024,52.7901,0.23905305973190427,0.3624926836006531,0.01,0.01,0.01
417,Brighton,-0.137163,50.82253,0.5061283416119693,0.12333712580387761,0.13565335987392255,0.01,0.01
418,London,-0.12775830000000002,51.50735,1.0,0.6114155451959136,0.08814322817261679,0.03492773100898287,0.015570499835779999
419,Grimsby,-0.08078400000000001,53.56746999999999,0.3110911601259189,0.446257971478553,0.01,0.01,0.01
420,Boston,-0.026576999999999996,52.97894,0.3133713784844826,0.45874251394614585,0.01,0.01,0.01
421,Royston,-0.024066,52.048140000000004,0.1838763037740705,0.1790430667220868,0.01,0.01,0.01
422,Louth_Lincs,-0.007711,53.36596,0.2018509419463519,0.2797720049972342,0.01,0.01,0.01
423,Lewes,0.00878,50.873870000000004,0.26536913113348226,0.054839818299238056,0.08886765815329892,0.01,0.01
424,Chatteris,0.054012,52.4561,0.13618077037166512,0.15918040435462116,0.01,0.01,0.01
425,Uckfield,0.095913,50.966409999999996,0.2794282190253573,0.057606028231614405,0.01,0.01,0.01
426,Cambridge,0.12181700000000001,52.20534,0.4815332408643276,0.3634510011031969,0.01,0.01,0.01
427,Bishop's Stortford,0.15365020000000001,51.87216,0.2997761964262,0.26430522909407184,0.01,0.01,0.01
428,Wisbech,0.158797,52.66631999999999,0.17958687610788618,0.26075821789838516,0.01,0.01,0.01
429,Sevenoaks,0.190898,51.27241,0.3593371043135996,0.09592361969252589,0.01,0.01,0.036765765756644246
430,Tunbridge Wells,0.26369499999999996,51.13238,0.3244264859326336,0.09243978709936707,0.01,0.01,0.01
431,Eastbourne,0.29047199999999995,50.768029999999996,0.2994209379533528,0.1312019205142531,0.01,0.01,0.01
432,Brentwood,0.30717490000000003,51.620470000000005,0.5194460744775615,0.5019057383281977,0.01,0.01,0.10173445231400394
433,Skegness,0.337881,53.1464,0.19235167070550424,0.23851138308369524,0.01,0.01,0.01
434,Downham Market,0.385472,52.606609999999996,0.14534630735256113,0.20947158106147962,0.01,0.01,0.01
435,King's Lynn,0.4022963,52.75168000000001,0.2545235827205111,0.27458291486963243,0.01,0.01,0.01
436,Bexhill,0.4662071,50.849909999999994,0.2059398995655032,0.11501199446321997,0.01,0.01,0.01
437,Chelmsford,0.4685497,51.73559,0.30247110418204015,0.3044823739734734,0.01,0.01,0.06732625622749724
438,Mildenhall,0.5156095,52.347570000000005,0.24160151497327603,0.2468911988773673,0.01,0.01,0.01
439,Medway,0.5417860999999999,51.404740000000004,0.2902418222900143,0.22480420542037996,0.01,0.03966668400413589,0.023577451652527493
440,Braintree,0.5509269,51.88009,0.24944069479558695,0.18582558586450057,0.01,0.01,0.05648289891194667
441,Gillingham,0.551438,51.38632,0.45206971997815715,0.3377790876011452,0.01,0.0574274428364137,0.034134254522610215
442,Hastings,0.573453,50.85426,0.2784917324024168,0.21911229829469336,0.01,0.01,0.01
443,Maldon,0.6714479999999999,51.731809999999996,0.25789887148768315,0.24421551062499167,0.01,0.04110631443631816,0.048866306198310235
444,Southend,0.7077123000000001,51.54593,0.35472520523687856,0.35894131793402334,0.01,0.053421927834294274,0.06350684219364328
445,Bury St Edmunds,0.7104931999999999,52.24292,0.3594155846105392,0.2959900786349245,0.01,0.01,0.01
446,Thetford,0.751657,52.412859999999995,0.19627931153046488,0.18515263960607214,0.01,0.01,0.01
447,Ashford,0.8750190000000001,51.14647,0.2660877791107753,0.1618094548354495,0.01,0.01,0.01
448,Faversham,0.889358,51.31599,0.25043675951606614,0.16866587805593275,0.01,0.052430023315234546,0.015581921843113248
449,Colchester,0.891874,51.89593,0.36065495009816,0.24635799568326386,0.01,0.01,0.01
450,New Romney,0.939473,50.98512,0.15540355650622384,0.16102134577437738,0.01,0.01,0.01
451,Canterbury,1.0789089,51.280229999999996,0.34281737965712145,0.1779782111829571,0.01,0.06102088315348493,0.018135079329996567
452,Ipswich,1.14822,52.056740000000005,0.37021296036804446,0.257337925918983,0.01,0.01,0.01
453,Clacton,1.153035,51.78953,0.20415034743452895,0.1521219161162882,0.01,0.04966399683990304,0.014759873603777942
454,Folkestone,1.169456,51.0814,0.255149929757235,0.1895934697402428,0.01,0.01,0.015676493013979564
455,Sheringham,1.2109589,52.944419999999994,0.13059649017315858,0.12799057083699295,0.01,0.01,0.01
456,Harwich,1.260297,51.93473,0.1556403044914015,0.12863124299012027,0.01,0.01,0.01
457,Norwich,1.297355,52.63089,0.45739079940349947,0.3177692531647098,0.01,0.01,0.01
458,Cromer,1.301866,52.93145,0.18860221189350448,0.17091961891286472,0.01,0.01,0.01
459,Cromer,1.301866,52.93145,0.18860221189350448,0.17091961891286472,0.01,0.01,0.01
460,Dover,1.3134027,51.12788,0.2281040205464226,0.16871839518463383,0.01,0.01,0.014169174509312717
461,Felixstowe,1.3512549999999999,51.961729999999996,0.2087404261493561,0.177490036776985,0.01,0.01,0.01
462,Margate,1.3868339,51.38965,0.2557344411175835,0.15675096583266615,0.01,0.07035096936650874,0.020907930932345605
463,Ramsgate,1.4198950000000001,51.33555,0.25182627368191923,0.18064127481227168,0.01,0.06953814446940942,0.020666363730618687
464,Great Yarmouth,1.728047,52.59823000000001,0.2571527690878217,0.18841973973856213,0.01,0.01,0.01
465,Lowestoft,1.7534490000000003,52.48114,0.27116051906478367,0.19068264912437322,0.01,0.01,0.01
466,Swaffham,0.687481,52.64747,0.14348281057233295,0.17699472551625398,0.01,0.01,0.01
467,Dereham,0.9378270000000001,52.681619999999995,0.3449520643451417,0.34151762434741106,0.01,0.01,0.01
468,Ely,0.262363,52.39954,0.219856192692831,0.21886830137796603,0.01,0.01,0.01
469,March,0.088622,52.551719999999996,0.16644527641194054,0.24516271745235574,0.01,0.01,0.01
470,St Neots,-0.26510300000000003,52.23008,0.200529205205219,0.12398259537538618,0.01,0.01,0.01
471,Banham,1.0402849,52.45125,0.2133487292941837,0.1986586754394737,0.01,0.01,0.01
472,Holt,1.086747,52.90936,0.18833746216785396,0.18950236804674375,0.01,0.01,0.01
473,Hunstanton,0.49103199999999997,52.93891,0.11097116799233055,0.11402646217643192,0.01,0.01,0.01
474,Horncastle,-0.11245,53.20731,0.15249675037815033,0.192571515032038,0.01,0.01,0.01
475,Market Weighton,-0.6677465,53.86484,0.1468868892595616,0.24174759487211356,0.01,0.01,0.01
476,Hawes,-2.1968695,54.303830000000005,0.01,0.09299165118966907,0.01,0.01,0.01
477,Reeth,-1.9428115000000001,54.38946,0.17713917999536521,0.5555650892052103,0.01,0.01,0.01
478,Aysgarth,-1.9967433999999997,54.29159,0.08060126772956161,0.23698460284227155,0.01,0.01,0.01
479,Stanhope,-2.011302,54.74946,0.25661373407932087,0.8381126921428431,0.01,0.01,0.01
480,Keswick,-3.134706,54.60128,0.14857899651765086,0.40348151054117487,0.01,0.05316279229537343,0.01
481,Oxenholme,-2.7243327999999996,54.30134,0.107787928341858,0.3332164260930535,0.01,0.046648663928629014,0.01
