index,placename,longitude,latitude,needs to be Xed,needs Xed,needs Xing
0,Dingle,-10.264013499999999,52.14094,0.8881178926924767,0.06261718325212041,0.11760648400372724
1,Tralee,-9.6999325,52.27131,0.9147261143735091,0.0664430748435772,0.12279866723521984
2,Killarney,-9.5044265,52.059940000000005,0.9453243993392219,0.06618274250126084,0.13264873443897698
3,Bantry,-9.4539805,51.68035,0.8892851834547847,0.05833534452832367,0.12502206780432712
4,Mayo,-9.4289369,54.01526,0.8228468505615291,0.13960801533533035,0.12861828352513596
5,Ballycastle,-9.3724643,54.279669999999996,0.7027640695183547,0.18716932580385826,0.09256400781021394
6,Abbeyfeale,-9.2970823,52.386179999999996,0.8295342328909456,0.06176935635977697,0.10194019110939541
7,Ennistymon,-9.2934951,52.940369999999994,0.8055143627318022,0.05878202849087008,0.12498979235511878
8,Galway,-9.0567905,53.270669999999996,0.9541585118621533,0.0795537239957794,0.13814002487820612
9,Claremorris,-9.0017356,53.72388,0.8875120258730558,0.10433864235565653,0.1385829487606103
10,Clare,-8.9811351,52.90453,0.9206753947793335,0.07476055645594293,0.1363823887865983
11,Adare,-8.7925892,52.56363,0.8819042146746744,0.06578204601454114,0.11468679224832039
12,Charleville,-8.681017599999999,52.36206,0.8236618733845229,0.05617544849169781,0.11208949429452292
13,Mallow,-8.6539164,52.13898,0.8995323160293107,0.05985226085558115,0.1296967873734346
14,Limerick,-8.6267343,52.66384,0.962106850257017,0.06808728897380648,0.13657420304570222
15,Loughrea,-8.5660931,53.19891,0.8206758292709397,0.06680209149037493,0.10474713545029399
16,Sligo,-8.476088800000001,54.27661,0.6192482726114253,0.38700135275085834,0.10628369084606187
17,Cork,-8.4756035,51.898509999999995,0.9804122474009749,0.05253305911222261,0.15621547679055972
18,Nenagh,-8.19834,52.8635,0.9020009568705276,0.07250787942614849,0.13540391926252782
19,Roscommon,-8.1890955,53.627590000000005,0.8928524644299638,0.10046364586379108,0.121056409701884
20,Tipperary,-8.161851400000002,52.47379,0.9398854064569099,0.052890008910171184,0.1438422494202352
21,Donegal,-8.1096143,54.653830000000006,0.3645386905781166,0.6585631786609243,0.07629941095180255
22,Leitrim,-8.0020132,54.12469,0.6391077749774009,0.31406539807095574,0.12670082279560227
23,Athlone,-7.9406898,53.423930000000006,0.8748171863376872,0.08393861985586931,0.14440167933234785
24,Longford,-7.7932573000000005,53.727630000000005,0.8290766874222177,0.10653573771301686,0.16716308514287864
25,Offaly,-7.7122229,53.235690000000005,0.8668886492642294,0.06353874257700118,0.19298014760687293
26,Fermanagh,-7.6318728,54.343830000000004,0.3467021730107515,0.623774422150428,0.0709230147397074
27,Enniskillen,-7.631533599999999,54.343819999999994,0.35771205097599107,0.6303815764958676,0.07427202933390092
28,Doon,-7.60964,54.185930000000006,0.48102487454495957,0.46358663969574493,0.08559945325484887
29,Westmeath,-7.4653217000000005,53.534530000000004,0.8539616254594405,0.08009137808222766,0.1664381017871546
30,Strabane,-7.4633103,54.82739,0.21595006177008008,0.7697202468115681,0.06808806247338563
31,Balivanich,-7.3743509000000005,57.472269999999995,0.12766244271285618,0.6487821201854441,0.1617940168845036
32,Cavan,-7.3633319,53.98972,0.6751208313093561,0.27392199225957337,0.15001857185360576
33,Mullingar,-7.340186800000001,53.525819999999996,0.8570725257491184,0.0740369103116512,0.16766986605446266
34,Laois,-7.332300699999999,52.9943,0.8845201251355329,0.059261926810329976,0.1795625973260116
35,Omagh,-7.309959700000001,54.59771,0.21040699219705666,0.7775714402033602,0.07036459615208629
36,Derry,-7.308574799999999,54.99661,0.20931876627689863,0.7973488405628536,0.08776622685024346
37,Derry,-7.308574799999999,54.99661,0.20931876627689863,0.7973488405628536,0.08776622685024346
38,Kilkenny,-7.2447879,52.65415,0.9200477168177983,0.04944807413980466,0.17007917798385241
39,Tyrone,-7.131232000000001,54.491209999999995,0.15464271099750584,0.8166562808661245,0.05686164661157089
40,Waterford,-7.110070200000001,52.25932,0.9541972155768422,0.05958513648576025,0.14113211247354657
41,Western Isles,-7.0194034,57.759890000000006,0.16055879729970365,0.6713894992936961,0.17797868986347826
42,Monaghan,-6.9683132,54.2492,0.27231274682272993,0.7240444115548464,0.06928650628038908
43,Carlow,-6.934135899999999,52.83651,0.9261676534503023,0.05294483826534289,0.15401306944836912
44,Kildare,-6.8194707999999995,53.21204,0.946511898239809,0.05764381560310858,0.15084233079313358
45,Dungannon,-6.7669352,54.508269999999996,0.10674368885933352,0.8651431853313938,0.054615031598916036
46,Cookstown,-6.7443895000000005,54.641819999999996,0.10329059389389089,0.8979754489405937,0.04319675458678873
47,Coleraine,-6.6646103000000005,55.132580000000004,0.10665135401579355,0.9003675443869309,0.06686879644708084
48,Meath,-6.656416900000001,53.60555,0.9391700123282336,0.060088782831842366,0.14396002842484837
49,Armagh,-6.652792,54.350280000000005,0.1426514221215115,0.847411754410947,0.06372440277249367
50,Armagh,-6.652792,54.350280000000005,0.1426514221215115,0.847411754410947,0.06372440277249367
51,Magherafelt,-6.607980499999999,54.75536999999999,0.13360300352817023,0.8585761440382316,0.0596740238930502
52,Dunvegan,-6.581398200000001,57.4366,0.11793469756850128,0.6475325218203205,0.15896620142625997
53,Louth,-6.4889423,53.925230000000006,0.6684071892711746,0.3150166473807764,0.13657239343196426
54,Wexford,-6.4633381,52.33692,0.9210046113875703,0.04815875353281957,0.17511421831058974
55,Craigavon,-6.4175653,54.442930000000004,0.09524575805922725,0.9395878202342915,0.02907572216607308
56,Stornoway,-6.384869200000001,58.209430000000005,0.18441900666217861,0.6835352903932514,0.17218646690798717
57,Drogheda,-6.3560985,53.717859999999995,0.9157980609904133,0.06251852156167619,0.13874871555921758
58,Rosslare,-6.3414908,52.25131,0.7807803933785039,0.043759220587797285,0.15981263440483875
59,Newry,-6.34023,54.1751,0.31332850792540967,0.7035300435117774,0.063986765954236
60,Scilly Isles,-6.327496599999999,49.92773,0.28046404923196766,0.04045370999491455,0.6649057287442116
61,Ballymena,-6.2802213,54.86529,0.1146965430927376,0.912041664930256,0.0353898060497244
62,Banbridge,-6.2704803,54.34873,0.08869543437953818,0.9606199184165005,0.01
63,Dublin,-6.2603097000000005,53.34981,1.0,0.06183474758951804,0.16080490159577093
64,Antrim,-6.2072498,54.719530000000006,0.13617837708936087,0.9240758373299689,0.013245062057965924
65,Antrim,-6.2072498,54.719530000000006,0.13617837708936087,0.9240758373299689,0.013245062057965924
66,Portree,-6.1960231,57.41246999999999,0.16824092314424632,0.6846848466201891,0.18286971148214262
67,Islay,-6.177067,55.73625,0.10707310893702134,0.815945781464966,0.09314791747937333
68,Wicklow,-6.044589,52.980819999999994,0.9487106702310957,0.05661578133078318,0.13925537194384102
69,Kilkeel,-6.007004,54.06312,0.31506718395250155,0.6899428963587257,0.031055665018786406
70,Mull,-6.0008870000000005,56.4392,0.13322650711092332,0.8017162089690264,0.08505017278283335
71,Belfast,-5.93012,54.597280000000005,0.17384372146148008,0.947110680647282,0.017306072817238886
72,Broadford,-5.9096592,57.24139,0.11884866974047806,0.6428316868130051,0.16255784140457297
73,Down,-5.7156921999999994,54.32875,0.16764796251092653,0.9025766784924752,0.01
74,Kyle of Lochalsh,-5.7143293,57.28261,0.12649682378063268,0.6439104755933555,0.15510007582600818
75,Campbeltown,-5.605373999999999,55.424119999999995,0.016899792206286013,0.9235074155056459,0.0753063861241864
76,Penzance,-5.537592,50.1188,0.30196330335018134,0.03599102520010966,0.6965659789206701
77,Oban,-5.471047,56.41516,0.09487757477204624,0.8664923254043713,0.08386613680078997
78,Lochgilphead,-5.4323449,56.03829,0.08768835531166054,0.8590725795377733,0.05620889348008654
79,Helston,-5.274996,50.10159,0.28723699098441086,0.03578721871544432,0.683032951303434
80,Redruth,-5.226666000000001,50.23302,0.2960984088255037,0.043506381191054586,0.6787110225689873
81,Ullapool,-5.161313,57.895419999999994,0.1760376212751018,0.6644097326007404,0.17163597220390478
82,Ballachulish,-5.133719999999999,56.673930000000006,0.10080275772201411,0.737626360545943,0.08980704966883768
83,Fort William,-5.1052179,56.81981999999999,0.2528414149740897,0.5563487152310351,0.23520558405940936
84,Achnasheen,-5.078765799999999,57.578590000000005,0.1352039721741781,0.6423961198668845,0.14915540127649443
85,Newquay,-5.0737190000000005,50.4155,0.30261198995790906,0.042670559409390595,0.6872545191808874
86,Falmouth,-5.066269999999999,50.152570000000004,0.3043151609213046,0.0387341190621447,0.6965370233752963
87,Rothesay,-5.055793,55.83596,0.10894974262143553,0.8896755184868432,0.04511880446946553
88,Truro,-5.051041000000001,50.2632,0.324248171715552,0.04532023775127843,0.7043623063509821
89,Milford Haven,-5.0426971,51.71431,0.4672288926975358,0.04232897355179173,0.5203134891214388
90,Stranraer,-5.024055000000001,54.903369999999995,0.11788530417678401,0.9062434086830782,0.016413874417314053
91,Fishguard,-4.975989,51.99393,0.4168631956772871,0.036053188976322884,0.5483633158654211
92,Inchnadamph,-4.974295,58.15221,0.1289989758304434,0.6489252589409245,0.1483333475320686
93,Haverfordwest,-4.971319,51.800470000000004,0.45213877784310486,0.043889819577512174,0.5403112629926039
94,Dunoon,-4.926214,55.95097,0.12073734415289748,0.8815010724583491,0.03459450051175357
95,Pembroke,-4.908637000000001,51.674040000000005,0.5514797937288035,0.04569789452684152,0.4769427475451979
96,Girvan,-4.8542179,55.240159999999996,0.01,0.977490154084712,0.042968883872949275
97,Wadebridge,-4.836456,50.51665,0.31202766362046475,0.03680064756073286,0.6681546261235075
98,Invergarry,-4.800261,57.07095,0.18234532293310485,0.5903798459169389,0.15763972554209235
99,St Austell,-4.7834252,50.340379999999996,0.3202419744110091,0.03684742833443364,0.6684354025442846
100,Greenock,-4.7719830000000005,55.956480000000006,0.14371693266915186,0.9054122361447114,0.033129387769996556
101,Helensburgh,-4.734014,56.00232,0.128882386107275,0.8841807327737423,0.030297970720757166
102,Bodmin,-4.7188629,50.4715,0.3111523027406558,0.03483300781712097,0.6641045100515942
103,Tenby,-4.703579,51.672740000000005,0.5352567596051974,0.04261276238029629,0.4713313464082457
104,Camelford,-4.682364,50.62206,0.2963546394333629,0.03329285359760286,0.6535046699217724
105,Irvine,-4.6696364,55.61156999999999,0.08106011912889473,0.9473505600748657,0.05360463341429612
106,Cardigan,-4.660864,52.0837,0.4123248935188637,0.029268619642873427,0.5732785626496804
107,Holyhead,-4.633038,53.30944,0.22457777487928157,0.11240544693917241,0.661693092264789
108,Ayr,-4.629179,55.45856,0.034727957595329824,1.0,0.05070058670820294
109,Dumbarton,-4.564554,55.94529,0.1622623395349936,0.8971256890838609,0.019982497196924184
110,Bude,-4.543678,50.826640000000005,0.3135154718822969,0.04853497734827128,0.6533833814141615
111,Isle of Man,-4.5126330999999995,54.27697,0.13750520264856017,0.618476059720382,0.31287381303177625
112,Kilmarnock,-4.498792,55.61472,0.10163560398881254,0.9479526318591445,0.030902835828605115
113,Newton Stewart,-4.483164,54.9603,0.023554199744458507,0.908537412793106,0.07648821019452112
114,Liskeard,-4.4647190000000005,50.45552,0.3165760366565525,0.03202599065144478,0.6683782120637031
115,Altnaharra,-4.442655,58.28023,0.15366375838372592,0.647846224504596,0.12851390711653324
116,Pwllheli,-4.417633900000001,52.888819999999996,0.2973720041874326,0.09302124697093442,0.6111451736837711
117,Lairg,-4.402414,58.022059999999996,0.14428738872036062,0.654511532577063,0.1302427280593124
118,Launceston,-4.360451599999999,50.636829999999996,0.3313174837414605,0.030196543187018036,0.6506287294518083
119,Carmarthen,-4.312131,51.857620000000004,0.5444357507070071,0.04772377425499512,0.47829534563037096
120,Llangefni,-4.311401999999999,53.255790000000005,0.2385186524705363,0.10942750635498552,0.6745460329484186
121,Caernarfon,-4.273911,53.13955,0.2456741609346358,0.11900844835282895,0.6546945128128824
122,Cumnock,-4.265828900000001,55.45355,0.07730958734037646,0.9357788719705393,0.040918695305877315
123,Aberaeron,-4.2581619,52.24279,0.37634229070508607,0.04309414957898793,0.5846833148510902
124,Alness,-4.256825,57.69595,0.19321642843005002,0.6889810881862442,0.15874367534296874
125,Glasgow,-4.251806,55.86424,0.2771690258985866,0.8150459648566524,0.0710862027215809
126,Dalwhinnie,-4.242783,56.9366,0.14921149430705125,0.6236325761061055,0.15474631384552875
127,Inverness,-4.224721,57.47776999999999,0.21219153607789712,0.7085269138972463,0.1692419880676469
128,Saltash,-4.21643,50.409209999999995,0.33191489237248445,0.029828896246252765,0.6516618617701793
129,Bideford,-4.206666,51.01668,0.3166655025573816,0.04369756956337248,0.6623552073825605
130,Invergordon,-4.1728819999999995,57.688109999999995,0.19812801705312136,0.6893977685919526,0.15529714410666154
131,Llanelli,-4.160248,51.680890000000005,0.5642665148742552,0.043762925783325676,0.47601677689337263
132,Plymouth,-4.1426565,50.37546,0.3878672157471188,0.029372190620102007,0.6706867726124088
133,Tavistock,-4.141654,50.551120000000004,0.3385736788257134,0.02692697216081317,0.6594680390239434
134,Porthmadog,-4.1333839999999995,52.92784,0.2445029157463831,0.13978221855533593,0.6282794414424834
135,Bangor,-4.129263,53.22739,0.2489056574054345,0.11517241950313682,0.6805107299913639
136,Tywyn,-4.087249,52.58701,0.34369942934139286,0.04612753287388647,0.5929387849246249
137,Aberystwyth,-4.08292,52.4153,0.3796061988525635,0.060240051711732495,0.6130330346501492
138,Lampeter,-4.0785089999999995,52.1129,0.42048108862295075,0.03317160609110997,0.5636639592322878
139,Barnstaple,-4.058338,51.07816,0.3298687060521734,0.04531211227666316,0.6697483404602889
140,Tain,-4.05523,57.8115,0.1947697623891893,0.6741570191228112,0.14498265563583707
141,Okehampton,-4.004263,50.73831,0.3108914913861592,0.045596559805715205,0.6429488207250774
142,Llandeilo,-3.9914300000000003,51.88469,0.48884098952734656,0.04456885638681835,0.5153217182187628
143,Motherwell,-3.9810968,55.78321,0.152613991433768,0.9131706512878143,0.04003140110731225
144,Golspie,-3.976086,57.97341,0.14989525934864592,0.6548302806572002,0.12521288865614508
145,Airdrie,-3.9625660000000003,55.86626999999999,0.10142634826727494,0.9345629512514259,0.05076042562878978
146,Swansea,-3.9436459999999998,51.62144,0.5995049602136381,0.04546306430832203,0.48067133073126717
147,Stirling,-3.9369029,56.116519999999994,0.13456395303652097,0.8560761337287405,0.10217743658026701
148,Tregaron,-3.934385,52.22,0.3898255576071905,0.05169359118595656,0.5706565572351028
149,Tregaron,-3.934385,52.22,0.3898255576071905,0.05169359118595656,0.5706565572351028
150,Castle Douglas,-3.9314139999999997,54.940419999999996,0.01,0.6801920401787739,0.31165349071172166
151,Dolgellau,-3.8844,52.74215,0.32133210166408094,0.04086334070617878,0.6210380135286663
152,Aberfeldy,-3.866969,56.62175,0.15513748962415672,0.7160021684818079,0.16574265614857098
153,Machynlleth,-3.853485,52.59027,0.3696212123841461,0.05620599249094265,0.5807321396960157
154,Brora,-3.8525480000000005,58.012159999999994,0.17756384539951042,0.6856420141729848,0.13724892223910193
155,Llandudno,-3.827609,53.324059999999996,0.2084933385841976,0.1001315709455551,0.7153232615694907
156,Llandudno,-3.827609,53.324059999999996,0.2084933385841976,0.1001315709455551,0.7153232615694907
157,Aviemore,-3.823812,57.19449,0.23240274322271307,0.6104133936475464,0.1904787079475478
158,Dalbeattie,-3.8225269999999996,54.934219999999996,0.01,0.6471630809096242,0.3269173543390353
159,Falkirk,-3.7839131,56.00188000000001,0.11495568986115771,0.8998860454711571,0.07823629432272534
160,Kingsbridge,-3.777493,50.28395,0.30961738774790065,0.04084976967619642,0.6633829089738924
161,Pitlochry,-3.729711,56.70436,0.13153016789842834,0.8312205649848692,0.055332764123716585
162,Colwyn Bay,-3.72764,53.29318000000001,0.1922989811303147,0.10221821346243462,0.720750662506311
163,Totnes,-3.685797,50.43374,0.32827424685093864,0.04226932647936827,0.6492594280397591
164,Grantown-on-Spey,-3.609628,57.33041,0.18631020470130089,0.6748889183356511,0.14582783546714165
165,Dumfries,-3.60512,55.070859999999996,0.026439594172299574,0.6760583123125525,0.33910484786718786
166,Whitehaven,-3.589233,54.5497,0.11091183475405768,0.4751498728867948,0.44293077086286553
167,Dartmouth,-3.578807,50.35252,0.3242261734284935,0.04205018633025236,0.6389063013997428
168,Bridgend,-3.576945,51.504290000000005,0.4374261678927571,0.0513032918327216,0.5900349948440997
169,Paignton,-3.564235,50.43508,0.34633237527966976,0.04932754977880452,0.6550815959074603
170,Workington,-3.5427519999999997,54.64357,0.04936976674300574,0.5997569440061545,0.37822936849208943
171,Llanidloes,-3.5401949999999998,52.447790000000005,0.35853942363267727,0.04819840223599114,0.5892697647679898
172,Exeter,-3.533899,50.71841,0.3348284478803245,0.06180007527254134,0.6918788258548144
173,Torquay,-3.525315,50.46192,0.3404554230680953,0.049005104724772694,0.6622522693721384
174,Thurso,-3.5220800000000003,58.59356999999999,0.19577652858142405,0.7047309896105053,0.13667691398245724
175,Livingston,-3.518068,55.90071,0.17060156976875926,0.8658594661475726,0.06156273020556382
176,Rhyl,-3.4916339999999995,53.319140000000004,0.14584074857025595,0.025977453735759708,0.8296110990339334
177,Tiverton,-3.491207,50.90205,0.31743132278823966,0.04995510441905168,0.655318226318728
178,Tiverton,-3.491207,50.90205,0.31743132278823966,0.04995510441905168,0.655318226318728
179,Minehead,-3.481152,51.20428,0.3943599451433214,0.050544656030278745,0.5724696191837445
180,Dunfermline,-3.452151,56.071740000000005,0.04586264135625066,0.9724721101708768,0.06383161210710693
181,Perth,-3.4308381000000003,56.39499,0.07716567251383884,0.9340512969242946,0.04102687306201266
182,Prestatyn,-3.4076129999999996,53.33651,0.14692869832043925,0.022225332457759914,0.8206316627103325
183,Builth Wells,-3.4045919999999996,52.15002,0.4565608833505781,0.02800507967009481,0.5463088208553716
184,Braemar,-3.3979439,57.00646999999999,0.2174743492785255,0.5983465448793139,0.12059083140697599
185,Brecon,-3.391463,51.94895,0.5125581344150101,0.0361574878255028,0.5034059522238927
186,Merthyr Tydfil,-3.381646,51.74873,0.5179379003195601,0.04358447698961488,0.5397596029444426
187,Llandrindod Wells,-3.377742,52.2417,0.43914796180728305,0.046842951968365416,0.5340605550785532
188,Corwen,-3.369242,52.98005,0.1394245445954696,0.01,0.8095806255164827
189,Cockermouth,-3.367985,54.66326,0.043449973605002024,0.5827719912179696,0.37863603573266924
190,Lockerbie,-3.349008,55.122240000000005,0.041017382811482414,0.6261917469881585,0.36413916080837705
191,Blairgowrie,-3.3378318,56.58941,0.11340403029640087,0.845654063965173,0.07506157728462823
192,Elgin,-3.318485,57.64945,0.20578673756870114,0.704299751595049,0.17018524086396528
193,Newtown,-3.313106,52.51211,0.23222984392727689,0.03743606017325641,0.7098757431615128
194,Ruthin,-3.3103108,53.114869999999996,0.16604086970516227,0.01,0.8232213426493216
195,Ruthin,-3.3103108,53.114869999999996,0.16604086970516227,0.01,0.8232213426493216
196,Sidmouth,-3.2375599999999998,50.67865,0.30337989416882793,0.06337503617502818,0.6485217050847698
197,Barrow-in-Furness,-3.2188939999999997,54.10896999999999,0.17295223359794754,0.036526741275279946,0.8130909373735624
198,Peebles,-3.1936419999999996,55.65306999999999,0.3369987463913714,0.6132186760708574,0.10748888572577531
199,Edinburgh,-3.1882669999999997,55.95325,0.2979265212570116,0.7242375394614965,0.13063510448815055
200,Cardiff,-3.17909,51.48158,0.5780186632064455,0.03835921373119498,0.5251930451654343
201,Llangollen,-3.1716599999999997,52.96921,0.13760613606459476,0.01,0.8263579592890021
202,Kirkcaldy,-3.158137,56.11682,0.22620051667883503,0.7629577677487986,0.11455167737121874
203,Welshpool,-3.146407,52.66035,0.23169132732621267,0.01771131980378527,0.7509451925482498
204,Mold,-3.1419029999999997,53.1672,0.18780378731963562,0.016702433616994174,0.8165947461994766
205,Mold,-3.1419029999999997,53.1672,0.18780378731963562,0.016702433616994174,0.8165947461994766
206,Taunton,-3.106849,51.01534,0.35910624637623256,0.05838510766713474,0.641396621563346
207,Wick,-3.093716,58.43894,0.20443363348707194,0.693010692445413,0.13638201203491174
208,John o' Groats,-3.0688997000000002,58.63734,0.15469034090287523,0.6598316663056456,0.11652283171672324
209,Dalkeith,-3.066606,55.893119999999996,0.2649269719736623,0.7122587757762167,0.11342746853334469
210,Oswestry,-3.056412,52.85715,0.19650088339352467,0.01739350431859869,0.7985953671980173
211,Blackpool,-3.0356748,53.81751,0.12158014091696806,0.03380789858465834,0.8875312196437571
212,Birkenhead,-3.023009,53.389990000000004,0.16938221848215898,0.03267468816340952,0.8463117816716357
213,Cupar,-3.010137,56.32023,0.03326064603750556,0.9465161706727812,0.0514378550773043
214,Southport,-3.010113,53.64571,0.11740045374860417,0.027818054933580236,0.8805011735495047
215,Bridgwater,-3.003632,51.12789,0.3803862218930418,0.050948439414833104,0.6430562720993274
216,Langholm,-2.998913,55.153059999999996,0.04649580446431352,0.5697261484335637,0.36109310365310104
217,Newport,-2.997664,51.58415,0.46861291778933106,0.030211317934859018,0.5951458501159038
218,Axminster,-2.9949369999999997,50.78273,0.36137992682368664,0.07631449523606575,0.5924854138126902
219,Wrexham,-2.9924939999999998,53.043040000000005,0.18178108614884753,0.023503393478086547,0.8293363129481834
220,Liverpool,-2.9915726,53.40837,0.18407531087233533,0.034478227711187845,0.8697391246922338
221,Weston-super-Mare,-2.977255,51.347409999999996,0.5315355752218164,0.04064390726190573,0.5160032334441104
222,Dundee,-2.9707209999999997,56.462019999999995,0.12334435839686271,0.9252004358897025,0.05833830836731686
223,Kirkwall,-2.9622491,58.984669999999994,0.198128192187157,0.7042683008216222,0.13520818098444418
224,Ambleside,-2.961333,54.428740000000005,0.14133134938555153,0.26764510809742326,0.6162253554878877
225,Orkney Islands,-2.9605206,58.980940000000004,0.19919827165479048,0.7051059741973502,0.1356598415565971
226,Lyme Regis,-2.936639,50.725159999999995,0.34627008444549984,0.0671561788923424,0.606158234652032
227,Carlisle,-2.932931,54.892469999999996,0.0929748665081732,0.5779224962212376,0.40150677904098153
228,Chester,-2.893075,53.19339,0.1972304598053801,0.019620420558571217,0.8371232879299871
229,Forfar,-2.889062,56.64356,0.13737389287774374,0.8529203601386799,0.06543315093897577
230,Morecambe,-2.864968,54.074169999999995,0.2095472331615455,0.03284444601517418,0.7730749358936525
231,Selkirk,-2.838524,55.55066,0.09177926825395084,0.8355214060908059,0.12226831237722215
232,Galashiels,-2.814449,55.62373,0.06232942586587404,0.8813712144830982,0.1003271713164355
233,Lancaster,-2.8007399,54.046569999999996,0.24111528180763508,0.031020121786644022,0.7732538709768771
234,St Andrews,-2.7967214,56.339780000000005,0.06703706233777679,0.9327395654717643,0.060123712964880206
235,Hawick,-2.780914,55.42706,0.14969612320321724,0.6310217774244341,0.2503015784032001
236,Bridport,-2.758301,50.733579999999996,0.34490283868073496,0.06081238155992912,0.6164270541121996
237,Shrewsbury,-2.7553267999999997,52.7073,0.2651272200527934,0.04878728656806493,0.7483404456545608
238,Penrith,-2.752708,54.6641,0.07119835943864194,0.43838001679368577,0.538295330274872
239,Kendal,-2.74629,54.32801,0.2383205210725756,0.1184513511591531,0.6842218471889567
240,Street,-2.7429189999999997,51.12468,0.35246540215446537,0.043822635739986925,0.6104315235261764
241,Glastonbury,-2.718454,51.14743,0.34814173255945874,0.042083130067738984,0.6289032259274122
242,Hereford,-2.715974,52.0564,0.35083310298184955,0.04557884301820597,0.666051896939712
243,Ludlow,-2.7139129,52.36775,0.2791297260691268,0.04762172028541334,0.6952821490503753
244,Preston,-2.70309,53.7632,0.13895025891434373,0.027764426862228266,0.8893134959903334
245,Whitchurch,-2.682045,52.96872,0.1354968303829662,0.012208415078836866,0.8356193147390356
246,Wells,-2.6445979,51.20935,0.36024893233168426,0.03484685923505653,0.6360536149948484
247,Yeovil,-2.633308,50.94206,0.382685585306789,0.05892162366241364,0.6144500517135573
248,Wigan,-2.6325074,53.54506,0.07130369109712384,0.025674415916390903,0.9531744457473478
249,Warrington,-2.5969501,53.39004,0.07788214520422286,0.028750640099720642,0.9478432276449235
250,Arbroath,-2.591543,56.55911,0.11763722666466099,0.8946443102261927,0.050244635419032235
251,Bristol,-2.58791,51.45451,0.4693405929326161,0.049651814410725935,0.6105094747542509
252,Guernsey,-2.5852779999999997,49.46569,0.32662099331863353,0.037483258344304916,0.5490221967329159
253,Ross-on-Wye,-2.582446,51.91445,0.3085917814761348,0.04997099169192179,0.6782761128610485
254,Jedburgh,-2.5549369,55.47772,0.11665576676350013,0.6057837670545899,0.28465166595786234
255,Sedbergh,-2.5281740000000004,54.32363,0.21511466949596103,0.10203398438434971,0.6727342189176504
256,Sedbergh,-2.5281740000000004,54.32363,0.21511466949596103,0.10203398438434971,0.6727342189176504
257,Nantwich,-2.524102,53.067190000000004,0.1452364120595772,0.021814698633962962,0.8377436357800303
258,Banff,-2.524038,57.666509999999995,0.24916296907396135,0.677111039890447,0.1138052445610046
259,Dunbar,-2.516737,56.00209,0.19343985558189147,0.76168956014541,0.11670601811192952
260,Cinderford,-2.5009579,51.8253,0.32615327705822444,0.0424565525458645,0.6643593390409968
261,Banchory,-2.4909599,57.05386,0.2572536418621543,0.6934018854059226,0.10517138511049715
262,Blackburn,-2.487529,53.748580000000004,0.10270514449686972,0.028030589299493,0.9017912610284808
263,Market Drayton,-2.483485,52.90355,0.17072636117079662,0.03386719991682104,0.7732185280929542
264,Telford,-2.4672611,52.67759,0.311457256946311,0.031234360206766853,0.714832820288761
265,Montrose,-2.4661150000000003,56.70692,0.21555918352231118,0.7786241128258888,0.06730068508851589
266,Turriff,-2.4623,57.53893000000001,0.25108962480319214,0.6837706447720285,0.10986938827744998
267,Weymouth,-2.457621,50.61443,0.4211065127947868,0.042754485276660655,0.5925489659137723
268,Crewe,-2.4438209,53.10041,0.14848113563365392,0.021184338911188847,0.8567745255592067
269,Fortuneswell,-2.4422189999999997,50.55919,0.40208768151758595,0.04831864962199208,0.5569760381619179
270,Dorchester,-2.4411810000000003,50.71116,0.4130952663932573,0.041548785737341394,0.6198175558753641
271,Alston,-2.438685,54.812169999999995,0.03445850167949084,0.421739615491819,0.505800521242501
272,Kelso,-2.432207,55.600030000000004,0.10677006775564676,0.6356148610426173,0.27909073436688064
273,Wincanton,-2.416007,51.055690000000006,0.3219822820591632,0.02951888914555223,0.6548150315645098
274,Clitheroe,-2.3930830000000003,53.8711,0.11840675610741319,0.039711931420273586,0.8459482487767978
275,Sark,-2.3666256000000003,49.43007,0.3376779996946881,0.048449114455772026,0.5295102152919864
276,Bath,-2.3590167,51.38106,0.4445214520852111,0.04892472468043954,0.6023561038999099
277,Kidderminster,-2.2496839,52.3886,0.2931096317697453,0.013137702386454059,0.7316931725509898
278,Manchester,-2.2426305,53.48076,0.2360657401814074,0.04234632530779149,0.8350557954176706
279,Burnley,-2.2405035,53.78929,0.13647799024776955,0.03336839722408898,0.8615810143645921
280,Gloucester,-2.238156,51.86424,0.33183637591148557,0.05266453928239268,0.6940637630937861
281,Newcastle-under-Lyme,-2.2273002,53.01321,0.17787092973291707,0.03006186823302812,0.8146658082371436
282,Worcester,-2.221575,52.19364,0.32926753274136733,0.030272150025500325,0.7179688413502846
283,Trowbridge,-2.208853,51.31966,0.410369221792236,0.035493262418223225,0.64047177378692
284,Shaftesbury,-2.198083,51.0046,0.27820498614228956,0.04146215082401057,0.6891468604972544
285,Alderney,-2.1973557,49.715,0.3305912352450498,0.04874042465279564,0.5352221470809171
286,Stoke-on-Trent,-2.179404,53.002669999999995,0.2066868074556313,0.031894623450326044,0.8180318722165056
287,Colne,-2.176991,53.85564,0.04532013021510616,0.02028974951419454,0.9219767431119805
288,Blandford Forum,-2.165353,50.85691,0.39147931427711474,0.05366917403286181,0.5716781779314261
289,Rochdale,-2.1561,53.60971,0.0934497379700813,0.031043074093825354,0.9152345575567375
290,Jersey,-2.13125,49.21444,0.3130990253948782,0.04917746553478593,0.5495829191184353
291,Wolverhampton,-2.12882,52.586969999999994,0.3226695157582906,0.012233600512876525,0.7328793475838453
292,Stafford,-2.12066,52.80669,0.2827042923043895,0.04113081853239165,0.7398205650728472
293,Macclesfield,-2.119287,53.25866,0.1088583926560256,0.0397554678988635,0.882288599093135
294,Hexham,-2.1121439,54.97266,0.27314012676483523,0.2437732705609497,0.5422404841021503
295,Aberdeen,-2.094278,57.149719999999995,0.294692831275409,0.7244858336236657,0.10801508969154078
296,Dudley,-2.081112,52.51226,0.3291024431199309,0.010085269555946878,0.7261262171924565
297,Cheltenham,-2.0782533,51.899390000000004,0.3393447441062031,0.056258790760559486,0.6794983412358321
298,Bromsgrove,-2.061906,52.33559,0.303555585728659,0.018572913809351728,0.7271188526636861
299,Skipton,-2.0162787,53.96285,0.06453365956667222,0.023049546615354712,0.9031189482989178
300,Fraserburgh,-2.007631,57.69335,0.25297852715437885,0.6851300739979248,0.11057487786648623
301,Berwick,-2.005395,55.77024,0.0984111735288584,0.6898392328473637,0.24642077118264585
302,Poole,-1.987248,50.71505,0.4209619790791055,0.05713669343041612,0.5979017139686488
303,Walsall,-1.9829189999999999,52.586209999999994,0.3254924812094811,0.01144087603852964,0.7292125035972454
304,Cirencester,-1.968243,51.71849,0.3890966079284287,0.048564866655486,0.6377361283728008
305,Evesham,-1.9467700000000001,52.09215,0.29655164851717736,0.04115195256641016,0.6943126709342956
306,Buxton,-1.91483,53.259080000000004,0.023792548203876156,0.045716093252342285,0.9317522641530566
307,Keighley,-1.9123580000000002,53.8678,0.1417651058278454,0.014565565205630949,0.8629947563836382
308,Birmingham,-1.8904009999999998,52.48624,0.4301964023048195,0.025751350834883807,0.6759040324997723
309,Bournemouth,-1.880769,50.719159999999995,0.4236778320504281,0.05649725631359413,0.6132510696588072
310,Halifax,-1.8575400000000002,53.727019999999996,0.09681157513923958,0.01711162193471405,0.8973524270684003
311,Salisbury,-1.794472,51.06878,0.25830406577240894,0.03710724225811226,0.7478657770676396
312,Ringwood,-1.7888169999999999,50.84495,0.3811408367194823,0.05741538871142367,0.612350868336713
313,Huddersfield,-1.7850351000000002,53.645790000000005,0.05483488582606928,0.012190228815931304,0.9643888094977292
314,Peterhead,-1.784066,57.50812,0.2606494283829823,0.6895359549735499,0.1144746903958675
315,Swindon,-1.7797176,51.55577,0.3990859989730301,0.055624046788210535,0.6273688005219337
316,Bradford,-1.759398,53.79598000000001,0.14622551320360258,0.013981306689585969,0.8924664743594464
317,Ashbourne,-1.7321790000000001,53.016630000000006,0.2135667651873514,0.02952747304219709,0.8008686185580147
318,Marlborough,-1.7270619999999999,51.42007,0.34594264945639314,0.035912007225273414,0.6528629783424909
319,Stratford-upon-Avon,-1.7082979999999999,52.19173,0.28621176121548525,0.022747129515862878,0.7351119135291879
320,Alnwick,-1.7062990000000002,55.41274,0.25703618395957284,0.3151412424753161,0.45943480889837257
321,Otley,-1.691786,53.90583,0.16656189433803678,0.029675679598729042,0.8075866423326958
322,Bishop Auckland,-1.6787880000000002,54.663819999999994,0.19030618997883608,0.06844909615672295,0.7610891327626844
323,Burton upon Trent,-1.6371358999999999,52.81403,0.18892626127245407,0.03738672053407257,0.8102974257487515
324,Newcastle,-1.61778,54.97825,0.1959703569548988,0.4209489866098485,0.49402667573437764
325,Durham,-1.5848520000000001,54.77525,0.2175469321512806,0.08833501634479063,0.7519199257038404
326,Ashington,-1.5659829,55.18298000000001,0.1880441752875046,0.3951781784975548,0.4543678647636838
327,Darlington,-1.559458,54.52361,0.10485713234319544,0.02755792399411086,0.8874891641905688
328,Leeds,-1.5490774,53.80076,0.19939048478967938,0.03360661569714993,0.8531086442390458
329,Harrogate,-1.5418120000000002,53.99211999999999,0.2952612382044593,0.03719569069398368,0.7352623678319525
330,Leamington Spa,-1.5200789,52.28519,0.3195263890515758,0.03348119608245415,0.7164032030669869
331,Coventry,-1.519693,52.40682,0.36172442677309624,0.029799908916910433,0.6955191968172514
332,Blyth,-1.510277,55.12696,0.1840084565030228,0.40398683124792445,0.45369196598938455
333,Wakefield,-1.505924,53.6833,0.023271221336542348,0.01,0.9855276554749928
334,Andover,-1.4919233,51.2112,0.38573429822120747,0.03632619093424386,0.6307861780901942
335,Witney,-1.4850543999999999,51.785940000000004,0.415893652180903,0.04132586458391559,0.6014858975879431
336,Barnsley,-1.479726,53.55263000000001,0.01,0.013010830875053676,1.0
337,Derby,-1.4746186000000001,52.92253,0.1737003930492743,0.03671063268610503,0.8458631018465816
338,Sheffield,-1.470085,53.381130000000006,0.10086050506979902,0.023465671290972906,0.9409693924090861
339,Nuneaton,-1.465382,52.52049,0.37488240953960145,0.03104572193618223,0.6681026954563931
340,Northallerton,-1.429959,54.337959999999995,0.11245718752819392,0.028061807045537377,0.8503667463951098
341,South Shields,-1.427406,54.99941999999999,0.1792239432987904,0.3696458209193782,0.513929000733338
342,Chesterfield,-1.421629,53.23505,0.11212064482110229,0.014126915359831065,0.9030371408862032
343,Southampton,-1.4043508999999998,50.9097,0.4593861461272665,0.0268525213087326,0.6302718069554429
344,Wetherby,-1.384816,53.92706,0.17736644861422093,0.03430958709819218,0.7884953073944406
345,Sunderland,-1.383801,54.90687,0.20363342149360794,0.2655116280849264,0.5995132221467848
346,Rotherham,-1.3635008999999998,53.4326,0.08667712098232587,0.02373079043898804,0.9186260679646511
347,Castleford,-1.345968,53.72346999999999,0.0257300895635706,0.018426924252236302,0.9604300261712413
348,Thirsk,-1.341377,54.23385,0.20879900213035016,0.04293076352823598,0.7468625795703472
349,Banbury,-1.339775,52.0629,0.31884156212362813,0.03564487259483792,0.6912299298704074
350,Stockton,-1.3289821000000002,54.57046,0.09873571923654438,0.02351430008250647,0.8976134380039615
351,Newbury,-1.3231138999999998,51.40141,0.44086285024327476,0.0221726277939159,0.6184712464920352
352,Isle of Wight,-1.304734,50.69385,0.4425314355016419,0.038463229367083705,0.596671592543349
353,Isle of Wight,-1.304734,50.69385,0.4425314355016419,0.038463229367083705,0.596671592543349
354,Abingdon,-1.2879528999999998,51.67078,0.4109027847525409,0.04326410707522735,0.6089312347456095
355,Shetland Islands,-1.2659409,60.52965,0.18847383574896265,0.6853762705539156,0.12828580150396293
356,Rugby,-1.265032,52.37088,0.3302766104664668,0.029370044435819115,0.7012739394256045
357,Oxford,-1.2577263,51.75202,0.4277887679235152,0.04824009827136094,0.6325319728429183
358,Middlesbrough,-1.234956,54.57423000000001,0.10395958234753065,0.024129098300032115,0.90947994671286
359,Hartlepool,-1.212926,54.69174,0.09722201510989409,0.02360553565330233,0.8946498438707008
360,Loughborough,-1.206166,52.7721,0.3037119213016177,0.035225233890496435,0.7279274023618292
361,Mansfield,-1.198674,53.1472,0.08036393141392659,0.012039192376407106,0.9246182377720019
362,Nottingham,-1.1581086,52.95478000000001,0.2504486758676163,0.01982279148367546,0.8175800679987575
363,Bicester,-1.1535898999999998,51.8996,0.40184283796903447,0.04910457222724343,0.5938276783755522
364,Leicester,-1.1397591999999999,52.636880000000005,0.3436457274265348,0.03634117143094512,0.7120454131327615
365,Doncaster,-1.128462,53.522819999999996,0.03861474831685295,0.023462303009469398,0.9628059613750007
366,Worksop,-1.122745,53.3093,0.023954683952836727,0.02333784468628262,0.9444134502566989
367,Basingstoke,-1.0923964,51.26654,0.44217656904123964,0.042434858053885735,0.5920893720577289
368,Portsmouth,-1.0879769,50.81977,0.46510707610020807,0.04823583467710513,0.5945818699587933
369,York,-1.0872979,53.95997,0.20237383598528313,0.026711566860615123,0.8350879217469556
370,Selby,-1.067189,53.783519999999996,0.1353556600144556,0.02208911995613403,0.8450567259438555
371,Helmsley,-1.0562636,54.24651,0.16506075293759043,0.03498864403413935,0.7522099809105888
372,Towcester,-0.9896879999999999,52.13511,0.30924301557208617,0.0517523178847734,0.6729222006874053
373,Reading,-0.9781303,51.45426,0.4420163117939183,0.02714713957854473,0.6307899217373122
374,Retford,-0.9455030000000001,53.32136,0.08832605852279576,0.01,0.8928031402866238
375,Petersfield,-0.93899,51.00759,0.46554998919620616,0.04190740916415849,0.544172840662575
376,Northampton,-0.9026559999999999,52.24048,0.2695747614297504,0.04755290144603401,0.7550588019360244
377,Melton Mowbray,-0.887126,52.7664,0.2699714349371882,0.010521784159242072,0.7429758237034093
378,Aylesbury,-0.8084,51.81561,0.47144807402930994,0.026912780709438755,0.5901472865369243
379,Newark-on-Trent,-0.80657,53.070040000000006,0.1505091848292061,0.01764890533495433,0.8608982205091416
380,Malton,-0.7978970000000001,54.13684,0.14621813065104566,0.028333994437962026,0.8182850455729412
381,Chichester,-0.774936,50.83761,0.43384475251376414,0.04606858308535174,0.5862298784459488
382,Gainsborough,-0.774465,53.400580000000005,0.054422775446845026,0.0140516916314192,0.9074953039050577
383,Milton Keynes,-0.7594171,52.040620000000004,0.45454956250622286,0.04657235378056979,0.5976685313613221
384,Aldershot,-0.7557509,51.24837,0.45490487230505444,0.05380305089732146,0.5798576222102773
385,High Wycombe,-0.748229,51.628609999999995,0.46816281887759326,0.015500623904848899,0.5976258671080273
386,Midhurst,-0.737274,50.9869,0.377197345602044,0.05034563958067874,0.6086591296510204
387,Kettering,-0.7302489999999999,52.39632,0.2571211978453764,0.08595939790878486,0.7021492374051032
388,Wellingborough,-0.693964,52.30242,0.24202247245777647,0.08667277445552976,0.7051999113875121
389,Corby,-0.6842333,52.4923,0.25554928992073733,0.10394325626344467,0.6831875326552084
390,Bognor Regis,-0.673061,50.783,0.420855951723134,0.04108590645115072,0.5974233270986022
391,Scunthorpe,-0.654413,53.58865,0.06309259415699048,0.010542644014563665,0.9348172765606658
392,Grantham,-0.643582,52.912519999999994,0.24004114407573973,0.013124493580909552,0.7746685424090269
393,Whitby,-0.613347,54.48633,0.054600228060906926,0.022389622350672014,0.9062756949159215
394,Slough,-0.5950406,51.51054,0.4921474793464498,0.050973333733018204,0.5537764377366292
395,Guildford,-0.570409,51.23622,0.4437435402373802,0.04970921969841952,0.591770636907895
396,Woking,-0.5600349,51.31677,0.469030969515627,0.04817793097955687,0.5873791564679072
397,Lincoln,-0.540579,53.23069,0.14065068758915897,0.023780838416226437,0.8801735142348355
398,Bedford,-0.46677820000000003,52.13864,0.3445174551099492,0.033301057409203576,0.6924997183484574
399,Heathrow,-0.4542955,51.47002,0.7159107313272726,0.06732181172728592,0.36815420127528037
400,Driffield,-0.443377,54.006,0.04339681832804174,0.019630290296676962,0.9047561976189176
401,Beverley,-0.435093,53.84196,0.04397143466461917,0.016925275515866863,0.9458480268859822
402,Luton,-0.4200255,51.87867,0.47812272559538865,0.026169171992592093,0.5914903969154505
403,Scarborough,-0.399752,54.28311,0.032293456360942274,0.01893982843151096,0.9505264985098755
404,Worthing,-0.372882,50.81787,0.4242499859403176,0.045946443972785675,0.6141667100851748
405,Dorking,-0.332378,51.2322,0.5022422129739851,0.022329428729899632,0.5650116845872738
406,Hull,-0.3274198,53.767619999999994,0.07189765535858796,0.016676764459860237,0.9541359002904302
407,Horsham,-0.325858,51.06288,0.4391708676012224,0.03253044728259643,0.5902455049006147
408,Biggleswade,-0.26421999999999995,52.086940000000006,0.34392330524644527,0.032069421739271575,0.656568743690214
409,Peterborough,-0.2405299,52.5695,0.11640798142949332,0.03719234833451247,0.8860488691910907
410,Welwyn Garden City,-0.208661,51.80317,0.4296365043476065,0.041399882239571334,0.637537507499646
411,Bridlington,-0.198802,54.08535,0.04947688546195496,0.0197856529322704,0.9131224281489992
412,Stevenage,-0.19661199999999998,51.90376,0.423590665009088,0.03530659092082887,0.6179018330787609
413,Crawley,-0.18722750000000002,51.109140000000004,0.4700893065587748,0.028011868037645576,0.5828947164097232
414,Huntingdon,-0.182552,52.33146,0.26415888948981614,0.061183958678298365,0.6995905699408442
415,Hove,-0.168749,50.82793,0.41273942565657684,0.05037574827046401,0.6024274236197774
416,Spalding,-0.1537024,52.7901,0.09720101713995136,0.02873171085647784,0.8764190524922815
417,Brighton,-0.137163,50.82253,0.4387007184277676,0.05218941842254224,0.6237682856980862
418,London,-0.12775830000000002,51.50735,0.7139479214077091,0.0512819776104114,0.4526148845031857
419,Grimsby,-0.08078400000000001,53.56746999999999,0.054860791537513075,0.01900914804223259,0.940419357419992
420,Boston,-0.026576999999999996,52.97894,0.10596953358784927,0.022477922338602803,0.8946248524242891
421,Royston,-0.024066,52.048140000000004,0.3401996445259296,0.03972418950432971,0.6430158704070204
422,Louth_Lincs,-0.007711,53.36596,0.08087277985614898,0.025163695326953252,0.8818014983512464
423,Lewes,0.00878,50.873870000000004,0.44628574490214223,0.04409059025270816,0.574293802534956
424,Chatteris,0.054012,52.4561,0.18748522084359326,0.03573129245932081,0.7572117565744778
425,Uckfield,0.095913,50.966409999999996,0.5201624631493408,0.05103184273531589,0.5092335336023454
426,Cambridge,0.12181700000000001,52.20534,0.5042023693531266,0.045520310651729054,0.5708042363130378
427,Bishop's Stortford,0.15365020000000001,51.87216,0.363880806180185,0.0463896977913916,0.6510509810436412
428,Wisbech,0.158797,52.66631999999999,0.15007553393044543,0.02616450360507472,0.8147924909547415
429,Sevenoaks,0.190898,51.27241,0.43758940569549654,0.041743796538309084,0.6066928316072235
430,Tunbridge Wells,0.26369499999999996,51.13238,0.40216384805630284,0.04631144541131122,0.6244530031464093
431,Eastbourne,0.29047199999999995,50.768029999999996,0.4240482056273997,0.045465249681101,0.6007875324121844
432,Brentwood,0.30717490000000003,51.620470000000005,0.4677667261080355,0.028092474314748716,0.6242472192161279
433,Skegness,0.337881,53.1464,0.10041274629035532,0.024656505540328572,0.8624989111282202
434,Downham Market,0.385472,52.606609999999996,0.23871930562712326,0.01262876050250962,0.7393651624700555
435,King's Lynn,0.4022963,52.75168000000001,0.2169230088425383,0.02100836584722838,0.7867625089730915
436,Bexhill,0.4662071,50.849909999999994,0.3719184340564843,0.04651192130577469,0.6172415729206586
437,Chelmsford,0.4685497,51.73559,0.4063681147849004,0.024775506150876946,0.6360364053039903
438,Mildenhall,0.5156095,52.347570000000005,0.4082980810524969,0.04093995130895121,0.6029676966893677
439,Medway,0.5417860999999999,51.404740000000004,0.4394144387309517,0.02909494148673811,0.6008983774283202
440,Braintree,0.5509269,51.88009,0.40170979075279883,0.020423857382266354,0.6297465554591843
441,Gillingham,0.551438,51.38632,0.46483920184954003,0.032062709631641075,0.6113413679223962
442,Hastings,0.573453,50.85426,0.37912358318977674,0.04479695628580088,0.6341445500987777
443,Maldon,0.6714479999999999,51.731809999999996,0.4293690982261775,0.02694621273709468,0.6028426698295687
444,Southend,0.7077123000000001,51.54593,0.44308637997816097,0.02169203322646012,0.6201070689946738
445,Bury St Edmunds,0.7104931999999999,52.24292,0.3032489497807486,0.0450766676178505,0.7173137777265458
446,Thetford,0.751657,52.412859999999995,0.2943434285274664,0.03995327504201363,0.6857879524437298
447,Ashford,0.8750190000000001,51.14647,0.4329340542029056,0.030371200081668208,0.5986851228757176
448,Faversham,0.889358,51.31599,0.44428330481016726,0.03241425521850189,0.5829039553916752
449,Colchester,0.891874,51.89593,0.40225826573415313,0.033335211493585,0.6448211152353139
450,New Romney,0.939473,50.98512,0.3798833056040383,0.022797347815848367,0.6146332765426576
451,Canterbury,1.0789089,51.280229999999996,0.4532188590158894,0.03344747253724025,0.5976853831815564
452,Ipswich,1.14822,52.056740000000005,0.3816801010205675,0.035414515551026815,0.6623214049767426
453,Clacton,1.153035,51.78953,0.3820226604779289,0.03473250941316545,0.6191785384129029
454,Folkestone,1.169456,51.0814,0.4364384366959961,0.03298898191836402,0.5903506495284765
455,Sheringham,1.2109589,52.944419999999994,0.35224348788608956,0.025296809689505692,0.625317259641458
456,Harwich,1.260297,51.93473,0.3476740872417197,0.033423029778449534,0.6319610647625106
457,Norwich,1.297355,52.63089,0.39336169011656164,0.031594745183207935,0.6730148149390324
458,Cromer,1.301866,52.93145,0.35647721040616226,0.028725773078417713,0.6411078033679397
459,Cromer,1.301866,52.93145,0.35647721040616226,0.028725773078417713,0.6411078033679397
460,Dover,1.3134027,51.12788,0.4349946618928008,0.03262778619567025,0.5839832279898561
461,Felixstowe,1.3512549999999999,51.961729999999996,0.357267837151107,0.0341401595147781,0.6421475057392657
462,Margate,1.3868339,51.38965,0.44252810120328745,0.0352991235152581,0.5831844544166418
463,Ramsgate,1.4198950000000001,51.33555,0.43877434074825195,0.03483636135231114,0.5857331990623517
464,Great Yarmouth,1.728047,52.59823000000001,0.3656531754281943,0.0288847123241843,0.6544575944448765
465,Lowestoft,1.7534490000000003,52.48114,0.3706548509886278,0.02991662730855936,0.653105899003643
466,Swaffham,0.687481,52.64747,0.2678317179269132,0.022327857844309903,0.7049282328114721
467,Dereham,0.9378270000000001,52.681619999999995,0.400605894419322,0.02622936570879501,0.6495191535090131
468,Ely,0.262363,52.39954,0.44218135492148175,0.04070570836255376,0.5679865678164987
469,March,0.088622,52.551719999999996,0.15440795737538626,0.022334831344141187,0.8098573324070918
470,St Neots,-0.26510300000000003,52.23008,0.2614270065967093,0.0433785199565021,0.7116653274614271
471,Banham,1.0402849,52.45125,0.34310490744492755,0.030191109294546326,0.6592921489343037
472,Holt,1.086747,52.90936,0.36901976904496614,0.025010680288763847,0.6339234187901254
473,Hunstanton,0.49103199999999997,52.93891,0.15154966965097677,0.02536071339627738,0.7856880620673884
474,Horncastle,-0.11245,53.20731,0.08298226801279135,0.026736328175644322,0.860557706465902
475,Market Weighton,-0.6677465,53.86484,0.0575359560285456,0.018335040410026374,0.8877374865732944
476,Hawes,-2.1968695,54.303830000000005,0.0822577865634983,0.03233874974358534,0.7600795408418535
477,Reeth,-1.9428115000000001,54.38946,0.11368727833411822,0.033579227891775594,0.838523910500106
478,Aysgarth,-1.9967433999999997,54.29159,0.1254452297729966,0.04317447616108227,0.7759750170524357
479,Stanhope,-2.011302,54.74946,0.22442510838418733,0.10806277697999885,0.7013521605797708
480,Keswick,-3.134706,54.60128,0.010965295988495851,0.5156734237345428,0.4666168238269105
481,Oxenholme,-2.7243327999999996,54.30134,0.21534438512289383,0.10425775428535711,0.6578687874390187
