index,placename,longitude,latitude,needs to be Xed,needs Xed,needs Xing
0,Dingle,-10.264013499999999,52.14094,0.7700940133974478,0.27158001573284984,0.08299061429782441
1,Tralee,-9.6999325,52.27131,0.7983466947477931,0.2794691644215406,0.08237248031110196
2,Killarney,-9.5044265,52.059940000000005,0.8140822164166029,0.2819208180813501,0.10070644271107722
3,Bantry,-9.4539805,51.68035,0.7915205259332625,0.24755035728503202,0.08906320923527113
4,Mayo,-9.4289369,54.01526,0.7933612112107487,0.2653393921832695,0.09456195346062297
5,Ballycastle,-9.3724643,54.279669999999996,0.6683617716575416,0.3087464885069857,0.07510499165875512
6,Abbeyfeale,-9.2970823,52.386179999999996,0.7202353240548164,0.2548084625824967,0.07617958466439372
7,Ennistymon,-9.2934951,52.940369999999994,0.7106985749271092,0.2598286693298055,0.08001710642668905
8,Galway,-9.0567905,53.270669999999996,0.8001072240294892,0.2948851516901733,0.12568986636263582
9,Claremorris,-9.0017356,53.72388,0.8149020937677155,0.2624410025825779,0.10902619078554014
10,Clare,-8.9811351,52.90453,0.8170740524334035,0.2806844695637231,0.09060595600434697
11,Adare,-8.7925892,52.56363,0.7742607867158348,0.2617849615934185,0.08263510639274974
12,Charleville,-8.681017599999999,52.36206,0.7268954983187671,0.23387994276465343,0.0878584275780243
13,Mallow,-8.6539164,52.13898,0.7974153756518074,0.24900766403880825,0.09686515152193588
14,Limerick,-8.6267343,52.66384,0.8513289769490497,0.27976284380326066,0.09011914855231698
15,Loughrea,-8.5660931,53.19891,0.7200599884566946,0.2345078887212599,0.09305705403916381
16,Sligo,-8.476088800000001,54.27661,0.7664108845822205,0.3615498902686769,0.07129735861101108
17,Cork,-8.4756035,51.898509999999995,0.8727439989352263,0.2698281610931909,0.0999338998619645
18,Nenagh,-8.19834,52.8635,0.8074374642171671,0.2580250480347948,0.09952873635900347
19,Roscommon,-8.1890955,53.627590000000005,0.8309371888535887,0.2397445115562954,0.09861001945591352
20,Tipperary,-8.161851400000002,52.47379,0.8304124048172673,0.2581692683804394,0.10120144815198726
21,Donegal,-8.1096143,54.653830000000006,0.6999385450948564,0.4331672227536541,0.07452877048073475
22,Leitrim,-8.0020132,54.12469,0.7049233642157333,0.3385863208013538,0.11278482094969602
23,Athlone,-7.9406898,53.423930000000006,0.820433372517676,0.24598642845598742,0.09542403946613127
24,Longford,-7.7932573000000005,53.727630000000005,0.8284687238107067,0.21660674623688653,0.11776241096680311
25,Offaly,-7.7122229,53.235690000000005,0.7637100238120744,0.27164301381651845,0.14341783594498128
26,Fermanagh,-7.6318728,54.343830000000004,0.6895907032089961,0.3437853370853846,0.1069878209253125
27,Enniskillen,-7.631533599999999,54.343819999999994,0.7043078087124467,0.34825845750050394,0.1087499456811529
28,Doon,-7.60964,54.185930000000006,0.6555821262026338,0.30737345186248016,0.14594333899010298
29,Westmeath,-7.4653217000000005,53.534530000000004,0.8404312140974121,0.16399400818006873,0.14708904821804292
30,Strabane,-7.4633103,54.82739,0.7334720135569829,0.40397018342511437,0.041731834517084974
31,Balivanich,-7.3743509000000005,57.472269999999995,0.37742147075097576,0.6459941760879484,0.051993228966953964
32,Cavan,-7.3633319,53.98972,0.658075293000928,0.3351958984735566,0.17032053056490756
33,Mullingar,-7.340186800000001,53.525819999999996,0.8799570667005471,0.17119887786982674,0.10643190472341821
34,Laois,-7.332300699999999,52.9943,0.7777916377105016,0.2545145551931551,0.14339134021699662
35,Omagh,-7.309959700000001,54.59771,0.764109993498914,0.3798664059688675,0.04059527385880445
36,Derry,-7.308574799999999,54.99661,0.7663106825899196,0.41165304917660434,0.045504780544696734
37,Derry,-7.308574799999999,54.99661,0.7663106825899196,0.41165304917660434,0.045504780544696734
38,Kilkenny,-7.2447879,52.65415,0.7751818179576423,0.2632287847167267,0.14917190496367255
39,Tyrone,-7.131232000000001,54.491209999999995,0.7088002975253399,0.36754948400514625,0.07401840542798509
40,Waterford,-7.110070200000001,52.25932,0.8105584561549366,0.2695790935210037,0.12313957921186412
41,Western Isles,-7.0194034,57.759890000000006,0.487373173895222,0.601668035629647,0.05798897933357042
42,Monaghan,-6.9683132,54.2492,0.6591197878832724,0.3798782690352731,0.12980034002511895
43,Carlow,-6.934135899999999,52.83651,0.8831169644600309,0.19480840980627068,0.10806235957680353
44,Kildare,-6.8194707999999995,53.21204,0.9230601112018517,0.18577104658476767,0.09947557368328276
45,Dungannon,-6.7669352,54.508269999999996,0.5397035535117928,0.5464751881263621,0.07015747173762857
46,Cookstown,-6.7443895000000005,54.641819999999996,0.7323982510943512,0.3931504175802072,0.05064530335877167
47,Coleraine,-6.6646103000000005,55.132580000000004,0.736439425004082,0.46080718384860003,0.018674923553156995
48,Meath,-6.656416900000001,53.60555,0.901974113025948,0.18527968883709808,0.10728979929319823
49,Armagh,-6.652792,54.350280000000005,0.6447513123919136,0.3755980663291428,0.14485806838551155
50,Armagh,-6.652792,54.350280000000005,0.6447513123919136,0.3755980663291428,0.14485806838551155
51,Magherafelt,-6.607980499999999,54.75536999999999,0.5823991908353213,0.5518254747336248,0.050506239802170075
52,Dunvegan,-6.581398200000001,57.4366,0.4172254606413619,0.5975451371575894,0.04710024008853537
53,Louth,-6.4889423,53.925230000000006,0.8534765356637586,0.20952469087369516,0.12848555849372142
54,Wexford,-6.4633381,52.33692,0.8848657244498769,0.2095402109239532,0.10609093295876569
55,Craigavon,-6.4175653,54.442930000000004,0.5611948314259769,0.5501964983871531,0.08113079233038029
56,Stornoway,-6.384869200000001,58.209430000000005,0.6006258196869182,0.5011878303034498,0.07032501886347675
57,Drogheda,-6.3560985,53.717859999999995,0.8744351397533239,0.18774266482988933,0.10683561438927949
58,Rosslare,-6.3414908,52.25131,0.700798262279767,0.20853320067017678,0.13057160871430915
59,Newry,-6.34023,54.1751,0.5516704295574544,0.5418887448103277,0.0958570013108086
60,Scilly Isles,-6.327496599999999,49.92773,0.704041023052503,0.0964432159476437,0.29558812535991436
61,Ballymena,-6.2802213,54.86529,0.5871794582324524,0.5703166336799489,0.04013957580705961
62,Banbridge,-6.2704803,54.34873,0.5447339010293276,0.5456763125861243,0.08435654525499715
63,Dublin,-6.2603097000000005,53.34981,0.9778077890765284,0.19245448337069454,0.10398479327649511
64,Antrim,-6.2072498,54.719530000000006,0.5718831054877771,0.5902850957597496,0.043244041984089356
65,Antrim,-6.2072498,54.719530000000006,0.5718831054877771,0.5902850957597496,0.043244041984089356
66,Portree,-6.1960231,57.41246999999999,0.5006155780580805,0.6252210012464212,0.04993197697074133
67,Islay,-6.177067,55.73625,0.29766939769168893,0.832390638165273,0.030437526333994887
68,Wicklow,-6.044589,52.980819999999994,0.9165205226592475,0.17398418223279905,0.10455386255192593
69,Kilkeel,-6.007004,54.06312,0.5389876108200112,0.5008440651864051,0.0986098586640173
70,Mull,-6.0008870000000005,56.4392,0.3658217549120712,0.7653816711152212,0.029402608860241666
71,Belfast,-5.93012,54.597280000000005,0.6127931488724653,0.6045796665367957,0.05137993731524912
72,Broadford,-5.9096592,57.24139,0.3908876340135362,0.6275369525902618,0.04440720598715066
73,Down,-5.7156921999999994,54.32875,0.5347452874465058,0.5984907767369995,0.06854170690681234
74,Kyle of Lochalsh,-5.7143293,57.28261,0.4623331217228773,0.5647971779278123,0.03636880645566786
75,Campbeltown,-5.605373999999999,55.424119999999995,0.19284166389913088,0.9060111594396617,0.06297671126620329
76,Penzance,-5.537592,50.1188,0.740262025548912,0.10118254133596845,0.30457916840622906
77,Oban,-5.471047,56.41516,0.3515545966509994,0.8266347482723533,0.0159737024893792
78,Lochgilphead,-5.4323449,56.03829,0.3062774748951408,0.7696655404319431,0.062380999924167624
79,Helston,-5.274996,50.10159,0.724551634283338,0.09184496164884087,0.3006794325018474
80,Redruth,-5.226666000000001,50.23302,0.7327674286050627,0.09287938887556557,0.30271881733050715
81,Ullapool,-5.161313,57.895419999999994,0.5658477285299094,0.4953075916061036,0.08025544833493964
82,Ballachulish,-5.133719999999999,56.673930000000006,0.3448128503342354,0.7281693272356207,0.01
83,Fort William,-5.1052179,56.81981999999999,0.45381052849805636,0.6928315830371428,0.03773499302106171
84,Achnasheen,-5.078765799999999,57.578590000000005,0.5272840519379872,0.4710722289303076,0.05929825068243847
85,Newquay,-5.0737190000000005,50.4155,0.7414560731526245,0.09992440321726302,0.30219235433600417
86,Falmouth,-5.066269999999999,50.152570000000004,0.7489497424637689,0.09491685785194773,0.3067357101693153
87,Rothesay,-5.055793,55.83596,0.2792325724142057,0.8483841155566554,0.05346762859903017
88,Truro,-5.051041000000001,50.2632,0.7734345853788808,0.09799967457807926,0.31281351776987293
89,Milford Haven,-5.0426971,51.71431,0.8055788055355929,0.0957182514161068,0.22527931502428655
90,Stranraer,-5.024055000000001,54.903369999999995,0.4394437507480713,0.6747926292496691,0.05708867831923261
91,Fishguard,-4.975989,51.99393,0.7999291618247331,0.08438661023011443,0.22015328672124343
92,Inchnadamph,-4.974295,58.15221,0.5169277477294663,0.46984628328923833,0.06896897404019954
93,Haverfordwest,-4.971319,51.800470000000004,0.8511025949017289,0.08035322545181318,0.20810859515881713
94,Dunoon,-4.926214,55.95097,0.30231829341527533,0.8117012900712057,0.05667720713656375
95,Pembroke,-4.908637000000001,51.674040000000005,0.8315695576064546,0.09888495198223991,0.2301353592461862
96,Girvan,-4.8542179,55.240159999999996,0.144573793485676,0.9607145373657265,0.06320371910787999
97,Wadebridge,-4.836456,50.51665,0.7282614767404246,0.0982104709284957,0.2989408283317592
98,Invergarry,-4.800261,57.07095,0.5314121738878846,0.47974726951677804,0.04869645554639245
99,St Austell,-4.7834252,50.340379999999996,0.7358912624968805,0.09327270188985529,0.3034942383302005
100,Greenock,-4.7719830000000005,55.956480000000006,0.3179429926469654,0.8269207560741296,0.06901501042406366
101,Helensburgh,-4.734014,56.00232,0.2777617243273458,0.8304882291941776,0.06652027114618517
102,Bodmin,-4.7188629,50.4715,0.7396817457724687,0.1001625238556178,0.28152619918848937
103,Tenby,-4.703579,51.672740000000005,0.8302293840286072,0.08764346765830475,0.2195554418123604
104,Camelford,-4.682364,50.62206,0.7129831555367927,0.10654456064942025,0.2754038981096273
105,Irvine,-4.6696364,55.61156999999999,0.20889658327890706,0.9435953653587628,0.07020063405294201
106,Cardigan,-4.660864,52.0837,0.8086653784822689,0.0820520464045062,0.22875548281859895
107,Holyhead,-4.633038,53.30944,0.7420041014584099,0.07374061904961551,0.29805475207044324
108,Ayr,-4.629179,55.45856,0.16401839146841057,1.0,0.06772207588222658
109,Dumbarton,-4.564554,55.94529,0.41667862923647475,0.7030325944191309,0.08365017585264056
110,Bude,-4.543678,50.826640000000005,0.7056650614364807,0.16552466587835477,0.2598781963772107
111,Isle of Man,-4.5126330999999995,54.27697,0.4540968615650829,0.4850079665673069,0.24468181202380204
112,Kilmarnock,-4.498792,55.61472,0.23204067124765904,0.8920712510565959,0.08879568392021224
113,Newton Stewart,-4.483164,54.9603,0.1852358016883906,0.8604609818894766,0.10016766823738767
114,Liskeard,-4.4647190000000005,50.45552,0.7627105557978496,0.09641796665963492,0.2712621937034273
115,Altnaharra,-4.442655,58.28023,0.5152658280726081,0.46181532905605416,0.0769774187194229
116,Pwllheli,-4.417633900000001,52.888819999999996,0.7462982434235793,0.09439979017607618,0.2707330366828025
117,Lairg,-4.402414,58.022059999999996,0.49925078561248576,0.476446900523899,0.07831125554611063
118,Launceston,-4.360451599999999,50.636829999999996,0.7126790693960454,0.1560408067399478,0.2573390649280224
119,Carmarthen,-4.312131,51.857620000000004,0.8654849521867616,0.0705735040522698,0.22254096898409523
120,Llangefni,-4.311401999999999,53.255790000000005,0.756603789626855,0.06087163681742713,0.3171217585400833
121,Caernarfon,-4.273911,53.13955,0.7474449319470821,0.06178397709108115,0.3193775269395417
122,Cumnock,-4.265828900000001,55.45355,0.16615306002522764,0.9383147048530351,0.08514874521314574
123,Aberaeron,-4.2581619,52.24279,0.8298603270711636,0.08900379872845875,0.19949721483163493
124,Alness,-4.256825,57.69595,0.588297807797285,0.49818727697052656,0.0821975112026735
125,Glasgow,-4.251806,55.86424,0.47737914107614104,0.7098779259598682,0.09526213837084924
126,Dalwhinnie,-4.242783,56.9366,0.45926970734166545,0.5353918103246222,0.0631651965354914
127,Inverness,-4.224721,57.47776999999999,0.624309503385106,0.5254574808905125,0.07184027204682909
128,Saltash,-4.21643,50.409209999999995,0.6995489301560819,0.129174870718805,0.29159197360516836
129,Bideford,-4.206666,51.01668,0.7100003502178396,0.2584505925782247,0.18642065216958
130,Invergordon,-4.1728819999999995,57.688109999999995,0.5837136989975799,0.5027154399325283,0.0833264870056031
131,Llanelli,-4.160248,51.680890000000005,0.856170720916873,0.12317940479965754,0.19717416605783353
132,Plymouth,-4.1426565,50.37546,0.795617948525654,0.15681934320180324,0.25072959072030737
133,Tavistock,-4.141654,50.551120000000004,0.699151489543312,0.1968507826594734,0.24629944989502808
134,Porthmadog,-4.1333839999999995,52.92784,0.7661657186835144,0.09379729964095478,0.2696571833165353
135,Bangor,-4.129263,53.22739,0.77275681013837,0.06253013652844806,0.32122234747034145
136,Tywyn,-4.087249,52.58701,0.8009176205997496,0.09145759422405854,0.20608872933192518
137,Aberystwyth,-4.08292,52.4153,0.895099070262046,0.09709381986939226,0.18273952249000117
138,Lampeter,-4.0785089999999995,52.1129,0.7845026573810958,0.10700704044638125,0.22923910014217178
139,Barnstaple,-4.058338,51.07816,0.7361049924102785,0.27491156356296886,0.16997299328809673
140,Tain,-4.05523,57.8115,0.5501951676450585,0.5109398184464665,0.0787653471187152
141,Okehampton,-4.004263,50.73831,0.721198260059326,0.1858503596530373,0.21559539460769617
142,Llandeilo,-3.9914300000000003,51.88469,0.8166154344296453,0.1179219438665722,0.21224934434631612
143,Motherwell,-3.9810968,55.78321,0.4183791288555627,0.7051908937606404,0.1057902654074578
144,Golspie,-3.976086,57.97341,0.5123474027436888,0.4654532577415862,0.07641982058915864
145,Airdrie,-3.9625660000000003,55.86626999999999,0.41594118295044324,0.7246676830431455,0.07983640477124825
146,Swansea,-3.9436459999999998,51.62144,0.8397153688738968,0.13115462812809117,0.23838703395105584
147,Stirling,-3.9369029,56.116519999999994,0.3609876605131393,0.7405410620654544,0.1188957785394562
148,Tregaron,-3.934385,52.22,0.8170582957810653,0.09403919479266312,0.21110013317677015
149,Tregaron,-3.934385,52.22,0.8170582957810653,0.09403919479266312,0.21110013317677015
150,Castle Douglas,-3.9314139999999997,54.940419999999996,0.21630425583348326,0.7498188676021893,0.17389129019340877
151,Dolgellau,-3.8844,52.74215,0.8194563537182821,0.09728365978010486,0.18988035504546572
152,Aberfeldy,-3.866969,56.62175,0.45811908699286613,0.6437650812463429,0.07101703422942482
153,Machynlleth,-3.853485,52.59027,0.836743141081044,0.09116579102655492,0.1943665117616779
154,Brora,-3.8525480000000005,58.012159999999994,0.5584138802605515,0.48585926597991563,0.08159451014939484
155,Llandudno,-3.827609,53.324059999999996,0.5807374572402859,0.10743439061750651,0.4322467592766792
156,Llandudno,-3.827609,53.324059999999996,0.5807374572402859,0.10743439061750651,0.4322467592766792
157,Aviemore,-3.823812,57.19449,0.5688385797849745,0.5314150392796312,0.0634172927638209
158,Dalbeattie,-3.8225269999999996,54.934219999999996,0.21591875598054533,0.7010953935787371,0.19445531478336048
159,Falkirk,-3.7839131,56.00188000000001,0.3105246304829411,0.7642554823383598,0.1417102233201883
160,Kingsbridge,-3.777493,50.28395,0.7158150349921122,0.1771652653216769,0.2413955170006978
161,Pitlochry,-3.729711,56.70436,0.33717708272996183,0.7397965219713374,0.07088231075831247
162,Colwyn Bay,-3.72764,53.29318000000001,0.5326350351718214,0.10774758378509534,0.46624989904683717
163,Totnes,-3.685797,50.43374,0.7284724696221164,0.17950504910337733,0.23166614348534678
164,Grantown-on-Spey,-3.609628,57.33041,0.5877333556371105,0.4473984580083624,0.09443076829636163
165,Dumfries,-3.60512,55.070859999999996,0.2311938355814482,0.6944345017615141,0.24516610687720045
166,Whitehaven,-3.589233,54.5497,0.3295047595550158,0.47059067939100324,0.336712406017497
167,Dartmouth,-3.578807,50.35252,0.7181346691558711,0.17331521445243261,0.2321977815823591
168,Bridgend,-3.576945,51.504290000000005,0.7786392941968249,0.25062222326274547,0.1701616896973653
169,Paignton,-3.564235,50.43508,0.7616960798549437,0.17519488359974136,0.23355250075410372
170,Workington,-3.5427519999999997,54.64357,0.3335722221387352,0.5016476907555453,0.30677151520165086
171,Llanidloes,-3.5401949999999998,52.447790000000005,0.8345270339589138,0.11294907328630643,0.17046545375111738
172,Exeter,-3.533899,50.71841,0.7902673406635726,0.20747980609051825,0.2196145582761989
173,Torquay,-3.525315,50.46192,0.7632263270323162,0.17546717724710978,0.233855079461438
174,Thurso,-3.5220800000000003,58.59356999999999,0.6290875107441242,0.4172404255027518,0.1098002972954024
175,Livingston,-3.518068,55.90071,0.421486777801726,0.6877026568092636,0.11079887601184345
176,Rhyl,-3.4916339999999995,53.319140000000004,0.49803144134784255,0.09999541680384899,0.5005156701323623
177,Tiverton,-3.491207,50.90205,0.6851024737904581,0.22256475590112765,0.2362658119009201
178,Tiverton,-3.491207,50.90205,0.6851024737904581,0.22256475590112765,0.2362658119009201
179,Minehead,-3.481152,51.20428,0.8124811431142013,0.186102900014543,0.143378590599313
180,Dunfermline,-3.452151,56.071740000000005,0.40820821014823633,0.7410527271168368,0.07407772636246118
181,Perth,-3.4308381000000003,56.39499,0.3277734448535174,0.7632928686083484,0.09271137420137891
182,Prestatyn,-3.4076129999999996,53.33651,0.4940887113216934,0.09865675730736231,0.49399941791700175
183,Builth Wells,-3.4045919999999996,52.15002,0.7829731128557472,0.16446339425412915,0.1910208944057914
184,Braemar,-3.3979439,57.00646999999999,0.4828745597539703,0.49142800616821797,0.07965890875814285
185,Brecon,-3.391463,51.94895,0.8606942181867566,0.21046547241536742,0.09940037753088533
186,Merthyr Tydfil,-3.381646,51.74873,0.9125231352040049,0.1841763608612066,0.12291792525987544
187,Llandrindod Wells,-3.377742,52.2417,0.7989173960880745,0.13308406694713237,0.1945998655460208
188,Corwen,-3.369242,52.98005,0.663660787960921,0.12183531162569321,0.30120777791058817
189,Cockermouth,-3.367985,54.66326,0.3120255870710952,0.49293054497320754,0.31272437577443113
190,Lockerbie,-3.349008,55.122240000000005,0.2724055731498953,0.6624212995313153,0.22862917528427038
191,Blairgowrie,-3.3378318,56.58941,0.391504948174767,0.6958727798636174,0.07850680165587799
192,Elgin,-3.318485,57.64945,0.6697167018372774,0.429274424042598,0.10520756764802937
193,Newtown,-3.313106,52.51211,0.7084219807208801,0.137393827825981,0.2595476138936941
194,Ruthin,-3.3103108,53.114869999999996,0.5885286742587507,0.11215796349921019,0.4020960449345364
195,Ruthin,-3.3103108,53.114869999999996,0.5885286742587507,0.11215796349921019,0.4020960449345364
196,Sidmouth,-3.2375599999999998,50.67865,0.6857564176197891,0.21699854179365527,0.23444078089958648
197,Barrow-in-Furness,-3.2188939999999997,54.10896999999999,0.49995195373805923,0.05968248397615935,0.5474137598350441
198,Peebles,-3.1936419999999996,55.65306999999999,0.5412011517161212,0.5134533678911181,0.10881221184204026
199,Edinburgh,-3.1882669999999997,55.95325,0.564705862207034,0.5951151969847209,0.10999754886064826
200,Cardiff,-3.17909,51.48158,0.9417469456890873,0.17261980891629802,0.13760540028577253
201,Llangollen,-3.1716599999999997,52.96921,0.7338656491479734,0.11970080754757172,0.25789907539086904
202,Kirkcaldy,-3.158137,56.11682,0.5071408061964096,0.618831751761705,0.10010674191757529
203,Welshpool,-3.146407,52.66035,0.694775160083429,0.1323235800049642,0.2962340293529299
204,Mold,-3.1419029999999997,53.1672,0.5667747287374774,0.15540097331562303,0.41041575074786785
205,Mold,-3.1419029999999997,53.1672,0.5667747287374774,0.15540097331562303,0.41041575074786785
206,Taunton,-3.106849,51.01534,0.7708159928752916,0.22956532180740385,0.18632225371407815
207,Wick,-3.093716,58.43894,0.6209583312122398,0.4218194245874314,0.10916947540634757
208,John o' Groats,-3.0688997000000002,58.63734,0.5521604841235489,0.39594721546408906,0.10041033998956815
209,Dalkeith,-3.066606,55.893119999999996,0.5510362615613073,0.5379410165477418,0.11541823816737164
210,Oswestry,-3.056412,52.85715,0.7092437581437281,0.11814318838797225,0.3125114315250786
211,Blackpool,-3.0356748,53.81751,0.5534495169255441,0.04110525439756131,0.5449869838304381
212,Birkenhead,-3.023009,53.389990000000004,0.49031470530117155,0.10500638695361343,0.5433041497885918
213,Cupar,-3.010137,56.32023,0.3874181453222074,0.6894333452468367,0.08944237232005268
214,Southport,-3.010113,53.64571,0.6052456847095008,0.01692979466229614,0.506354823819834
215,Bridgwater,-3.003632,51.12789,0.8010590477960718,0.1816176551114075,0.2125783672566755
216,Langholm,-2.998913,55.153059999999996,0.2914248404981105,0.580075472150185,0.23252108823143378
217,Newport,-2.997664,51.58415,0.9053013441912566,0.15585581930525405,0.15356074237730472
218,Axminster,-2.9949369999999997,50.78273,0.7241281091481253,0.21275842363020525,0.21051435330836774
219,Wrexham,-2.9924939999999998,53.043040000000005,0.6100720722858897,0.1537962722032542,0.3887422807718284
220,Liverpool,-2.9915726,53.40837,0.5039918800382266,0.1071500715991523,0.5655672888468758
221,Weston-super-Mare,-2.977255,51.347409999999996,0.8752017482431967,0.16527783093417267,0.15551119936022167
222,Dundee,-2.9707209999999997,56.462019999999995,0.4395141860187034,0.7006660222505025,0.09635069583873121
223,Kirkwall,-2.9622491,58.984669999999994,0.6259776270628629,0.4204857629555412,0.10980854273033241
224,Ambleside,-2.961333,54.428740000000005,0.3078845748708056,0.4011293972839831,0.4180694622407734
225,Orkney Islands,-2.9605206,58.980940000000004,0.6275635795550165,0.42107846627538487,0.11001046147145548
226,Lyme Regis,-2.936639,50.725159999999995,0.7201647417718834,0.20558590371586483,0.21256910320107392
227,Carlisle,-2.932931,54.892469999999996,0.2981948163318842,0.589362797460945,0.30172287545141263
228,Chester,-2.893075,53.19339,0.5208091707767801,0.16174286521492567,0.473127600959876
229,Forfar,-2.889062,56.64356,0.4269543305807608,0.6731670370962116,0.08398340940403906
230,Morecambe,-2.864968,54.074169999999995,0.4543392946643495,0.06894226359805994,0.5660651661890717
231,Selkirk,-2.838524,55.55066,0.45706979933171205,0.6095269641991143,0.11332657885636355
232,Galashiels,-2.814449,55.62373,0.4509656872819558,0.607734707966648,0.11589286127737207
233,Lancaster,-2.8007399,54.046569999999996,0.4777840690428388,0.07073340679467757,0.5687523992608342
234,St Andrews,-2.7967214,56.339780000000005,0.387068379539447,0.7005927898232622,0.10362371978403781
235,Hawick,-2.780914,55.42706,0.35839602078286725,0.6221720614332651,0.17323672798824138
236,Bridport,-2.758301,50.733579999999996,0.7396736243897339,0.13424910485448258,0.2580989264766113
237,Shrewsbury,-2.7553267999999997,52.7073,0.6480673538931471,0.18101579025149236,0.34666838134935146
238,Penrith,-2.752708,54.6641,0.28721601614342807,0.5293094952485192,0.3498890683762748
239,Kendal,-2.74629,54.32801,0.39015828382996326,0.2061834069619472,0.5207118146259243
240,Street,-2.7429189999999997,51.12468,0.7414231755223091,0.20754467802047838,0.1816838456801421
241,Glastonbury,-2.718454,51.14743,0.7416105450205741,0.2045804258501608,0.19645994608466857
242,Hereford,-2.715974,52.0564,0.7640554548601302,0.1727914143962057,0.2442373195488072
243,Ludlow,-2.7139129,52.36775,0.699685061588968,0.13898558884525206,0.2981219897407494
244,Preston,-2.70309,53.7632,0.496045751268636,0.053033621787025524,0.5934070982627216
245,Whitchurch,-2.682045,52.96872,0.5929773752616484,0.11785062313763604,0.39174102032832303
246,Wells,-2.6445979,51.20935,0.7450998459794931,0.20343849852086732,0.2045587462114953
247,Yeovil,-2.633308,50.94206,0.7938918944055059,0.13868358061992678,0.2357378902588521
248,Wigan,-2.6325074,53.54506,0.41475479918825675,0.06657936672141837,0.6547769369050663
249,Warrington,-2.5969501,53.39004,0.4135439538157704,0.08421312239201427,0.6441667440025094
250,Arbroath,-2.591543,56.55911,0.44908970391490366,0.6420122423778593,0.09765257874524684
251,Bristol,-2.58791,51.45451,0.8006184924436979,0.2177945326984331,0.2222272538481074
252,Guernsey,-2.5852779999999997,49.46569,0.7114588253203229,0.08642304971547714,0.2222946932364098
253,Ross-on-Wye,-2.582446,51.91445,0.7867418929763252,0.11192375978386657,0.25712420508750133
254,Jedburgh,-2.5549369,55.47772,0.3801367823159775,0.6106569205113286,0.14850183566962852
255,Sedbergh,-2.5281740000000004,54.32363,0.38613222717470913,0.2167694952002758,0.4715544621964366
256,Sedbergh,-2.5281740000000004,54.32363,0.38613222717470913,0.2167694952002758,0.4715544621964366
257,Nantwich,-2.524102,53.067190000000004,0.41243570222914544,0.0937420999210092,0.5808026063324931
258,Banff,-2.524038,57.666509999999995,0.6391560914549138,0.4135728493701842,0.10114956615031974
259,Dunbar,-2.516737,56.00209,0.553944544277981,0.5272485012488954,0.11121727492768387
260,Cinderford,-2.5009579,51.8253,0.7901444294249756,0.10061395550889048,0.2578629488300293
261,Banchory,-2.4909599,57.05386,0.6330098616361481,0.416540203398774,0.11643684299887713
262,Blackburn,-2.487529,53.748580000000004,0.43416846664167763,0.03976963973314462,0.639182009729818
263,Market Drayton,-2.483485,52.90355,0.44175626439453897,0.07128827494075556,0.5446966475498316
264,Telford,-2.4672611,52.67759,0.6797222675408293,0.14113357199365253,0.34295760159780186
265,Montrose,-2.4661150000000003,56.70692,0.5601051669060195,0.5049574311846001,0.1102374451315374
266,Turriff,-2.4623,57.53893000000001,0.6367163942643903,0.4269015256359388,0.0958665083381371
267,Weymouth,-2.457621,50.61443,0.8474757509619404,0.11799561570568831,0.20374873941032842
268,Crewe,-2.4438209,53.10041,0.3416168948527058,0.08451691213107092,0.6676614314167646
269,Fortuneswell,-2.4422189999999997,50.55919,0.8017678205683999,0.10862811638730743,0.20575243362862122
270,Dorchester,-2.4411810000000003,50.71116,0.8093585189850473,0.16245582948445017,0.21731529581522624
271,Alston,-2.438685,54.812169999999995,0.1495611083791095,0.48238492465304217,0.4290095237852652
272,Kelso,-2.432207,55.600030000000004,0.43569194456967697,0.5701589938528617,0.14845442521528918
273,Wincanton,-2.416007,51.055690000000006,0.6777495560435506,0.1455474997819157,0.29110837198485473
274,Clitheroe,-2.3930830000000003,53.8711,0.41032434017258623,0.034645222955775865,0.6333230105996667
275,Sark,-2.3666256000000003,49.43007,0.7253432625824534,0.07672730010307349,0.21867473393097311
276,Bath,-2.3590167,51.38106,0.7640406238384096,0.22107475286606418,0.2219498285738435
277,Kidderminster,-2.2496839,52.3886,0.6477007427770666,0.21346233330610648,0.29553852156002336
278,Manchester,-2.2426305,53.48076,0.6192285730814876,0.09369840306719393,0.4958990087147578
279,Burnley,-2.2405035,53.78929,0.4295033084471466,0.04772317419794146,0.6301484699734211
280,Gloucester,-2.238156,51.86424,0.8213821938812853,0.1331249105332126,0.24653416758859203
281,Newcastle-under-Lyme,-2.2273002,53.01321,0.40628059868443556,0.0703906003595595,0.6166622587540403
282,Worcester,-2.221575,52.19364,0.7357660723765851,0.1996561533042695,0.2641989431481834
283,Trowbridge,-2.208853,51.31966,0.7673703007992602,0.21394806807204494,0.22203084542500126
284,Shaftesbury,-2.198083,51.0046,0.7853320202017381,0.1257550104544719,0.22545782629604005
285,Alderney,-2.1973557,49.715,0.7245367981684679,0.11581614095710285,0.18713389995890253
286,Stoke-on-Trent,-2.179404,53.002669999999995,0.4279560273041583,0.07134762139585418,0.6255432286605626
287,Colne,-2.176991,53.85564,0.3879687506828398,0.047485526738064256,0.6379407841032284
288,Blandford Forum,-2.165353,50.85691,0.819769969247929,0.11940887027150116,0.19194430354037156
289,Rochdale,-2.1561,53.60971,0.5617305395448162,0.084641863393235,0.5034960343090987
290,Jersey,-2.13125,49.21444,0.7415090460545355,0.09933840596181287,0.18652115239133898
291,Wolverhampton,-2.12882,52.586969999999994,0.6352517822986272,0.16846549802749136,0.36695925871881824
292,Stafford,-2.12066,52.80669,0.47227917333629943,0.10132445713624479,0.5586021947868515
293,Macclesfield,-2.119287,53.25866,0.541728878597753,0.04677471257166935,0.5402224827136792
294,Hexham,-2.1121439,54.97266,0.32780042364763184,0.5051738271151769,0.3299707934747912
295,Aberdeen,-2.094278,57.149719999999995,0.7027300593943042,0.42258350281179624,0.11301425032180237
296,Dudley,-2.081112,52.51226,0.7245412000824114,0.2087392329741524,0.2559636252629173
297,Cheltenham,-2.0782533,51.899390000000004,0.8304708503047247,0.12706534784362217,0.2393024985218033
298,Bromsgrove,-2.061906,52.33559,0.7249002090132642,0.21226319182985914,0.2407532745563327
299,Skipton,-2.0162787,53.96285,0.31979441663426283,0.07897340299202416,0.668927033803955
300,Fraserburgh,-2.007631,57.69335,0.643528750179906,0.4300703128955379,0.09092638889471873
301,Berwick,-2.005395,55.77024,0.3429652073122088,0.5635671660288701,0.24145540581500693
302,Poole,-1.987248,50.71505,0.8585615969871813,0.13994142658276257,0.19396175181243974
303,Walsall,-1.9829189999999999,52.586209999999994,0.7319796477899763,0.19931036386687978,0.25874050860488
304,Cirencester,-1.968243,51.71849,0.7838696020383239,0.17811301103858357,0.22967159976237836
305,Evesham,-1.9467700000000001,52.09215,0.760679758004024,0.1808485166598378,0.21992676116912796
306,Buxton,-1.91483,53.259080000000004,0.4627650248061811,0.03802826220999658,0.5975636222341965
307,Keighley,-1.9123580000000002,53.8678,0.34510140009168566,0.06880306857757365,0.6724094852642057
308,Birmingham,-1.8904009999999998,52.48624,0.7919729703134754,0.19324571672414648,0.2593037988767163
309,Bournemouth,-1.880769,50.719159999999995,0.8695151682349543,0.13869905735406574,0.20194830680085585
310,Halifax,-1.8575400000000002,53.727019999999996,0.23151009874755063,0.054562272016478744,0.7779750772910804
311,Salisbury,-1.794472,51.06878,0.7697966301369566,0.15624248526581486,0.24914242771614534
312,Ringwood,-1.7888169999999999,50.84495,0.8273568037188991,0.14357040795429335,0.19918514868773718
313,Huddersfield,-1.7850351000000002,53.645790000000005,0.2346692550307278,0.0447766371381058,0.8089633102715131
314,Peterhead,-1.784066,57.50812,0.699759143967353,0.3755269080487919,0.10253539988210471
315,Swindon,-1.7797176,51.55577,0.6834104266844058,0.25728915997551366,0.25279252229115456
316,Bradford,-1.759398,53.79598000000001,0.39764563105576844,0.059583355590840714,0.6669868992767172
317,Ashbourne,-1.7321790000000001,53.016630000000006,0.4580306351540653,0.031087126960215147,0.6207581809411054
318,Marlborough,-1.7270619999999999,51.42007,0.7553033077491207,0.2152162746058213,0.19173005477263574
319,Stratford-upon-Avon,-1.7082979999999999,52.19173,0.7199726617302551,0.14394953687636805,0.29855215150870484
320,Alnwick,-1.7062990000000002,55.41274,0.32871135888356656,0.5155900182690534,0.29210340536810814
321,Otley,-1.691786,53.90583,0.4177184993864233,0.06008236581231839,0.5995310706539361
322,Bishop Auckland,-1.6787880000000002,54.663819999999994,0.2221462514062759,0.1218342759768602,0.7211999593044184
323,Burton upon Trent,-1.6371358999999999,52.81403,0.5694728004085815,0.05560165960432884,0.5035060748001001
324,Newcastle,-1.61778,54.97825,0.3450407146999717,0.5521313731525583,0.32516746897969867
325,Durham,-1.5848520000000001,54.77525,0.17087941370935145,0.19895508357038644,0.7310416202070951
326,Ashington,-1.5659829,55.18298000000001,0.303068354892771,0.5401769784191234,0.30366669206975544
327,Darlington,-1.559458,54.52361,0.16835183585440774,0.05413587074012186,0.8374064789244953
328,Leeds,-1.5490774,53.80076,0.39568207421450935,0.05456307404699486,0.6952145017532371
329,Harrogate,-1.5418120000000002,53.99211999999999,0.47171092400287906,0.056642272676801046,0.5981622275028656
330,Leamington Spa,-1.5200789,52.28519,0.7626827071683405,0.11448121429006682,0.30544725179779686
331,Coventry,-1.519693,52.40682,0.7383224813902532,0.12025840469883209,0.33176316481593987
332,Blyth,-1.510277,55.12696,0.31443746565010994,0.5370028441654595,0.30064608873338267
333,Wakefield,-1.505924,53.6833,0.3066959475582462,0.03498028893745477,0.7494707626087792
334,Andover,-1.4919233,51.2112,0.7897745145357715,0.14189166619283947,0.23458660580982174
335,Witney,-1.4850543999999999,51.785940000000004,0.7633406030901608,0.1987444568686684,0.21059240734728937
336,Barnsley,-1.479726,53.55263000000001,0.01,0.04034082296369531,1.0
337,Derby,-1.4746186000000001,52.92253,0.5083045055216929,0.029858896281817655,0.5967590483484263
338,Sheffield,-1.470085,53.381130000000006,0.21373928187323551,0.020049604467286375,0.8713367607037604
339,Nuneaton,-1.465382,52.52049,0.6918958640005612,0.11080520235796655,0.36404848305637444
340,Northallerton,-1.429959,54.337959999999995,0.24627398930971922,0.06098168531435012,0.7380063268729851
341,South Shields,-1.427406,54.99941999999999,0.32879307977296457,0.4677445423279754,0.36872384891273324
342,Chesterfield,-1.421629,53.23505,0.28111061240845725,0.01,0.7964422729485876
343,Southampton,-1.4043508999999998,50.9097,0.8265863927655334,0.16097123682544917,0.23807343632657826
344,Wetherby,-1.384816,53.92706,0.4370854324237355,0.06603426491285662,0.5730689002131216
345,Sunderland,-1.383801,54.90687,0.3196657614509629,0.456610600782597,0.39455172089251644
346,Rotherham,-1.3635008999999998,53.4326,0.18654041215526265,0.016025016787916666,0.8651789417875867
347,Castleford,-1.345968,53.72346999999999,0.38257083378123974,0.056512099916439566,0.6541058184633948
348,Thirsk,-1.341377,54.23385,0.40493524438943435,0.04613839390154479,0.6096401103544364
349,Banbury,-1.339775,52.0629,0.7170989531934259,0.16243780769315333,0.2815890127083134
350,Stockton,-1.3289821000000002,54.57046,0.13887606096517516,0.04383047787432923,0.8716870582116393
351,Newbury,-1.3231138999999998,51.40141,0.8288621959043551,0.15949609905727977,0.20733168677996203
352,Isle of Wight,-1.304734,50.69385,0.82555471843927,0.1574884664138968,0.2067674603894723
353,Isle of Wight,-1.304734,50.69385,0.82555471843927,0.1574884664138968,0.2067674603894723
354,Abingdon,-1.2879528999999998,51.67078,0.8332640377647853,0.15404694365580177,0.193715247732316
355,Shetland Islands,-1.2659409,60.52965,0.5976377217120742,0.40989450862981236,0.11140071626178888
356,Rugby,-1.265032,52.37088,0.71032439023308,0.12493984520188947,0.33127798975403755
357,Oxford,-1.2577263,51.75202,0.8769739892397915,0.15801774140035862,0.19405727943282408
358,Middlesbrough,-1.234956,54.57423000000001,0.19015435586454799,0.044917942440934895,0.843841702433623
359,Hartlepool,-1.212926,54.69174,0.16479461412350993,0.08270686489179375,0.8140416336148883
360,Loughborough,-1.206166,52.7721,0.6591897345493452,0.10879965735088863,0.396479092811353
361,Mansfield,-1.198674,53.1472,0.22835210101915648,0.02108172354987767,0.8164113256233922
362,Nottingham,-1.1581086,52.95478000000001,0.49578085876294725,0.07636629779841025,0.5886013763969663
363,Bicester,-1.1535898999999998,51.8996,0.831859149782726,0.13384887656636882,0.1951468896281983
364,Leicester,-1.1397591999999999,52.636880000000005,0.6555281352416342,0.10644545192791342,0.4193209483449441
365,Doncaster,-1.128462,53.522819999999996,0.05938784135270751,0.0731317801642506,0.9276200027855248
366,Worksop,-1.122745,53.3093,0.20697044752529276,0.03986737335856638,0.802414669727437
367,Basingstoke,-1.0923964,51.26654,0.8518564618400546,0.16368961557254813,0.17853146189660804
368,Portsmouth,-1.0879769,50.81977,0.8424776526523887,0.17705673321631418,0.20111246766578433
369,York,-1.0872979,53.95997,0.45288745886166737,0.0822406680734991,0.6038541855265601
370,Selby,-1.067189,53.783519999999996,0.2975338446425242,0.08665069138636197,0.6820015248495217
371,Helmsley,-1.0562636,54.24651,0.3213595897261389,0.08772794573180555,0.6084226520380671
372,Towcester,-0.9896879999999999,52.13511,0.6862439134646704,0.10601613319067076,0.3430540693387481
373,Reading,-0.9781303,51.45426,0.8969583931576764,0.1445489870468725,0.17964205906782155
374,Retford,-0.9455030000000001,53.32136,0.11786065036658529,0.054221018536524404,0.848117044806302
375,Petersfield,-0.93899,51.00759,0.7394800612232103,0.15512279351858127,0.2524482760524715
376,Northampton,-0.9026559999999999,52.24048,0.7218099394548897,0.10583660952083931,0.35578171208980086
377,Melton Mowbray,-0.887126,52.7664,0.6474516813556634,0.0957456023601464,0.38266609926555617
378,Aylesbury,-0.8084,51.81561,0.8127389279301575,0.1400133741681706,0.23866304665291174
379,Newark-on-Trent,-0.80657,53.070040000000006,0.4772374626399754,0.07931955551558895,0.5609486663231507
380,Malton,-0.7978970000000001,54.13684,0.3844797962969409,0.0558550480571128,0.6235097160134275
381,Chichester,-0.774936,50.83761,0.7486420230748494,0.22197978541409205,0.20780054064003764
382,Gainsborough,-0.774465,53.400580000000005,0.22284586909838627,0.0960988699902653,0.7240547189242473
383,Milton Keynes,-0.7594171,52.040620000000004,0.7770342492328701,0.11935391748093815,0.2964255928772155
384,Aldershot,-0.7557509,51.24837,0.8890020196474515,0.09799785078061156,0.21018140512457512
385,High Wycombe,-0.748229,51.628609999999995,0.8405241949953632,0.15813235619331942,0.19492776941335846
386,Midhurst,-0.737274,50.9869,0.7304265489050912,0.17720726357947042,0.23967558874935146
387,Kettering,-0.7302489999999999,52.39632,0.6169646413647052,0.16032865088867254,0.37228109289335154
388,Wellingborough,-0.693964,52.30242,0.667597218808344,0.1578894451866558,0.32340823071946656
389,Corby,-0.6842333,52.4923,0.6744455865311981,0.1555213600566205,0.32477371440157754
390,Bognor Regis,-0.673061,50.783,0.7503968837949501,0.21411018858864,0.2086616276387285
391,Scunthorpe,-0.654413,53.58865,0.3335620170928211,0.04815178685290868,0.7006641430181088
392,Grantham,-0.643582,52.912519999999994,0.5090653157122785,0.02538140952814594,0.5647434888912619
393,Whitby,-0.613347,54.48633,0.17993014682084815,0.02926393409433447,0.8213319009197049
394,Slough,-0.5950406,51.51054,0.8620396941313629,0.14987602733918468,0.19255552988008337
395,Guildford,-0.570409,51.23622,0.8997212982809218,0.12098058796830825,0.18103850106795616
396,Woking,-0.5600349,51.31677,0.8775688308274341,0.14855750031317944,0.19152556995698544
397,Lincoln,-0.540579,53.23069,0.3562803899336399,0.10682055551318882,0.6551732378238687
398,Bedford,-0.46677820000000003,52.13864,0.8924719810295632,0.0877045424734905,0.21616767164393702
399,Heathrow,-0.4542955,51.47002,0.8127923726484633,0.2076933624863047,0.20353003998640531
400,Driffield,-0.443377,54.006,0.3865513222175446,0.05692334238846668,0.612948330549505
401,Beverley,-0.435093,53.84196,0.42018432604505085,0.04152111145112536,0.6344610135088525
402,Luton,-0.4200255,51.87867,0.7566591699628269,0.1647834717137947,0.2710906536429059
403,Scarborough,-0.399752,54.28311,0.4077372852159094,0.05284980823988267,0.6324029489883929
404,Worthing,-0.372882,50.81787,0.8341245031587838,0.22028815418910963,0.1563632489661639
405,Dorking,-0.332378,51.2322,0.843096971882873,0.15556978869722346,0.19724531774530193
406,Hull,-0.3274198,53.767619999999994,0.3981505401894418,0.05260289861899232,0.6736666841657657
407,Horsham,-0.325858,51.06288,0.8118218811171146,0.19544051535183862,0.17300588625224553
408,Biggleswade,-0.26421999999999995,52.086940000000006,0.8644085035559282,0.09767138264501048,0.1958867045057331
409,Peterborough,-0.2405299,52.5695,0.5534321249249835,0.20449189036067839,0.4077852922708123
410,Welwyn Garden City,-0.208661,51.80317,0.7525996910627808,0.18949012871956467,0.2723306227065421
411,Bridlington,-0.198802,54.08535,0.38293414570408274,0.03652780374628178,0.6456842383101019
412,Stevenage,-0.19661199999999998,51.90376,0.8058335715921691,0.1276709311783054,0.25001911295139034
413,Crawley,-0.18722750000000002,51.109140000000004,0.8573647885841295,0.17669052174968303,0.16413838363953137
414,Huntingdon,-0.182552,52.33146,0.7436807878720725,0.14133808557137229,0.26341933254917094
415,Hove,-0.168749,50.82793,0.837267294163386,0.20504495710117188,0.14989487383175337
416,Spalding,-0.1537024,52.7901,0.5965231099364524,0.12977014053298574,0.4014673133151339
417,Brighton,-0.137163,50.82253,0.8726620865861144,0.21960063384234874,0.15079884602879445
418,London,-0.12775830000000002,51.50735,1.0,0.1747952485531847,0.13831957979245948
419,Grimsby,-0.08078400000000001,53.56746999999999,0.41886586433694967,0.08293317163793612,0.6068218364533645
420,Boston,-0.026576999999999996,52.97894,0.5845092579097374,0.14343953713691815,0.41897558907003274
421,Royston,-0.024066,52.048140000000004,0.7730175820424602,0.14788695407835603,0.22185570059884738
422,Louth_Lincs,-0.007711,53.36596,0.4241886052250881,0.08060176827988252,0.5750261645027109
423,Lewes,0.00878,50.873870000000004,0.8657828674591105,0.18878740672452154,0.13410607753235088
424,Chatteris,0.054012,52.4561,0.6537597884924733,0.15835921478423615,0.2955281344699598
425,Uckfield,0.095913,50.966409999999996,0.8765163841985797,0.18779698307875548,0.1294893346877636
426,Cambridge,0.12181700000000001,52.20534,0.7946806455738142,0.20056611562466664,0.22804743868460778
427,Bishop's Stortford,0.15365020000000001,51.87216,0.7733613207469583,0.15048283533841383,0.25178286529522154
428,Wisbech,0.158797,52.66631999999999,0.5760019491144412,0.15262295316055102,0.38147144890201345
429,Sevenoaks,0.190898,51.27241,0.639037218790836,0.26753263424175705,0.2804584562043195
430,Tunbridge Wells,0.26369499999999996,51.13238,0.8098772583226255,0.1608827641424164,0.21801553871680865
431,Eastbourne,0.29047199999999995,50.768029999999996,0.8584857569148868,0.18891971045059885,0.14860785450699696
432,Brentwood,0.30717490000000003,51.620470000000005,0.834147268289772,0.1724736127679848,0.22435234407706606
433,Skegness,0.337881,53.1464,0.5182986946119184,0.1727437509857817,0.417287560582792
434,Downham Market,0.385472,52.606609999999996,0.6603173952984279,0.153895905796555,0.2974681301803232
435,King's Lynn,0.4022963,52.75168000000001,0.6035519923203378,0.19618391736121296,0.34486344015868925
436,Bexhill,0.4662071,50.849909999999994,0.81725243664143,0.19223874354121065,0.15521673908138986
437,Chelmsford,0.4685497,51.73559,0.8047777132552323,0.18296999927347343,0.1994839568657155
438,Mildenhall,0.5156095,52.347570000000005,0.7530506916952552,0.17728797268053034,0.2318796364009265
439,Medway,0.5417860999999999,51.404740000000004,0.8205590987247631,0.1336496084039757,0.223877935217882
440,Braintree,0.5509269,51.88009,0.7851780232511756,0.211152164324689,0.1791610860920112
441,Gillingham,0.551438,51.38632,0.8451149843856401,0.142078148798691,0.22917409745313397
442,Hastings,0.573453,50.85426,0.8836620257448825,0.11845078699267475,0.18072653397691749
443,Maldon,0.6714479999999999,51.731809999999996,0.8332226238698724,0.17019290295243591,0.1751040761783151
444,Southend,0.7077123000000001,51.54593,0.8425233602976726,0.1696426589596666,0.19044533260076396
445,Bury St Edmunds,0.7104931999999999,52.24292,0.7851506175826407,0.17638302759401633,0.23368646121609468
446,Thetford,0.751657,52.412859999999995,0.7844006467271298,0.16450890557379744,0.20268011174751577
447,Ashford,0.8750190000000001,51.14647,0.7638860448292918,0.15621390562558787,0.24652755181023261
448,Faversham,0.889358,51.31599,0.7803181065687883,0.163757354104505,0.2224989349153952
449,Colchester,0.891874,51.89593,0.821218701333753,0.18614642873518084,0.1956573804183959
450,New Romney,0.939473,50.98512,0.7147847374198237,0.1438108759184212,0.26389340142829204
451,Canterbury,1.0789089,51.280229999999996,0.7927640966243162,0.16433554381621726,0.2336331937335273
452,Ipswich,1.14822,52.056740000000005,0.8530434153939994,0.1566615168180368,0.1952914115981777
453,Clacton,1.153035,51.78953,0.8025242145732283,0.1728834740297104,0.18304386662337577
454,Folkestone,1.169456,51.0814,0.7413705231353673,0.15092248751635343,0.2669305489556122
455,Sheringham,1.2109589,52.944419999999994,0.6968668550653392,0.22487505035667302,0.20229985315887225
456,Harwich,1.260297,51.93473,0.7989690125056831,0.17022291364433112,0.17172750989764507
457,Norwich,1.297355,52.63089,0.8133551463893501,0.21177328096531622,0.19914504832278068
458,Cromer,1.301866,52.93145,0.7145947033578237,0.2287794756086858,0.2055793941044736
459,Cromer,1.301866,52.93145,0.7145947033578237,0.2287794756086858,0.2055793941044736
460,Dover,1.3134027,51.12788,0.7389600619551295,0.1562558949808752,0.2570594703676104
461,Felixstowe,1.3512549999999999,51.961729999999996,0.8109374312411751,0.17481758963109606,0.17585362464898607
462,Margate,1.3868339,51.38965,0.6948093336862216,0.23768178451261518,0.23447589763316
463,Ramsgate,1.4198950000000001,51.33555,0.7072078754788442,0.2247788938991055,0.2337492866346699
464,Great Yarmouth,1.728047,52.59823000000001,0.7900892506814715,0.19854530636237838,0.18745494204907445
465,Lowestoft,1.7534490000000003,52.48114,0.7708698541099396,0.1924450855479455,0.21217504904162238
466,Swaffham,0.687481,52.64747,0.7265093082626923,0.18982204120357876,0.21169458285188883
467,Dereham,0.9378270000000001,52.681619999999995,0.7734684991131273,0.21691874495227373,0.20711344184322952
468,Ely,0.262363,52.39954,0.709964775320989,0.18933577304087626,0.25174329864759015
469,March,0.088622,52.551719999999996,0.5895552176607606,0.1606935069438955,0.3589163047149988
470,St Neots,-0.26510300000000003,52.23008,0.796661120151674,0.13218890154849477,0.22026463303499688
471,Banham,1.0402849,52.45125,0.795133996256094,0.1319152441203338,0.22586823907048603
472,Holt,1.086747,52.90936,0.7206547617413475,0.2225874170924342,0.20557291890651988
473,Hunstanton,0.49103199999999997,52.93891,0.5804257318523088,0.21891412504472202,0.2960855086396259
474,Horncastle,-0.11245,53.20731,0.491251761729882,0.1304890959002642,0.46080469479433195
475,Market Weighton,-0.6677465,53.86484,0.3687875505306845,0.0632541167866594,0.6166417520048519
476,Hawes,-2.1968695,54.303830000000005,0.29950863090686164,0.16469085199252767,0.5022795459087974
477,Reeth,-1.9428115000000001,54.38946,0.2184504135286428,0.03640061181508077,0.7761575647193194
478,Aysgarth,-1.9967433999999997,54.29159,0.3625699219362353,0.045797590230520484,0.6065515909125919
479,Stanhope,-2.011302,54.74946,0.15483345623827716,0.2535182297942271,0.6744772665000515
480,Keswick,-3.134706,54.60128,0.31254271489314983,0.4823609166138094,0.319376603352989
481,Oxenholme,-2.7243327999999996,54.30134,0.35389210041029706,0.204535736599011,0.49667498985150177
