,placename,needs to be Xed,needs Xed,needs Xing,longitude,latitude
0,Dingle,0.9991647477227037,0.06546343286365465,0.13000141637785734,-10.264013499999999,52.14094
1,Tralee,0.9979423930878254,0.06787536177865473,0.128729555123008,-9.6999325,52.27131
2,Killarney,0.9970011846969431,0.06590727613002856,0.13135829868837262,-9.5044265,52.059940000000005
3,Bantry,0.9961668680144691,0.06081586706408881,0.13684513155616929,-9.4539805,51.68035
4,Mayo,0.9033724684850732,0.142868697414935,0.13559265433432738,-9.4289369,54.01526
5,Ballycastle,0.8564912153493687,0.20290455770447755,0.11743365382880713,-9.3724643,54.279669999999996
6,Abbeyfeale,0.9992049783000475,0.06787536177865473,0.127693564923268,-9.2970823,52.386179999999996
7,Ennistymon,0.9721641828573301,0.06465864265269694,0.15291564644598546,-9.2934951,52.940369999999994
8,Galway,0.9828592011657512,0.0779362567980732,0.13161624067215377,-9.0567905,53.270669999999996
9,Claremorris,0.9432089265101963,0.10461051883513699,0.13899100158641997,-9.0017356,53.72388
10,Clare,0.979590466756562,0.0749680842039431,0.13709808359085945,-8.9811351,52.90453
11,Adare,0.9974629007415757,0.0690122663156453,0.12805073012551255,-8.7925892,52.56363
12,Charleville,0.9925940652881458,0.061851908305273415,0.13879946430977294,-8.681017599999999,52.36206
13,Mallow,0.9931238458560753,0.06170208856611278,0.13850620884011702,-8.6539164,52.13898
14,Limerick,0.9961104984264464,0.0668676851600954,0.13118326662794974,-8.6267343,52.66384
15,Loughrea,0.9892324730928774,0.07329455112140268,0.1307650705098998,-8.5660931,53.19891
16,Sligo,0.6586021511663943,0.38792792708102575,0.10529195616368106,-8.476088800000001,54.27661
17,Cork,0.9960740102283904,0.05065976539527028,0.1465006830472621,-8.4756035,51.898509999999995
18,Nenagh,0.977348547664463,0.0736718982710338,0.140160185042666,-8.19834,52.8635
19,Roscommon,0.9640387757273958,0.10181961495859039,0.12453185641076031,-8.1890955,53.627590000000005
20,Tipperary,0.9966400450956703,0.052830147369678754,0.14398901136441714,-8.161851400000002,52.47379
21,Donegal,0.3871746322819977,0.6578030273110009,0.07345761633202655,-8.1096143,54.653830000000006
22,Leitrim,0.7030967019113032,0.3203251627552483,0.13254629041426938,-8.0020132,54.12469
23,Athlone,0.9515389950074323,0.08548260970887663,0.1501976595603394,-7.9406898,53.423930000000006
24,Longford,0.898285873336834,0.10812461885038349,0.1725372777985266,-7.7932573000000005,53.727630000000005
25,Offaly,0.9223250466920293,0.06364319323224174,0.19476788484118718,-7.7122229,53.235690000000005
26,Fermanagh,0.40084156754234435,0.6415766115332875,0.07754841498105543,-7.6318728,54.343830000000004
27,Enniskillen,0.40084156754234435,0.6415766115332875,0.07754841498105543,-7.631533599999999,54.343819999999994
28,Doon,0.560001450171974,0.4825573340282462,0.09694127635988586,-7.60964,54.185930000000006
29,Westmeath,0.9285605522816233,0.08151760579307332,0.1727919571232866,-7.4653217000000005,53.534530000000004
30,Strabane,0.24812348916054922,0.7818773135658365,0.07052506163546732,-7.4633103,54.82739
31,Balivanich,0.20238740408691216,0.6949697376538961,0.19002532207242567,-7.3743509000000005,57.472269999999995
32,Cavan,0.7282903992767852,0.27672686579649125,0.15299644523703598,-7.3633319,53.98972
33,Mullingar,0.9334745301852125,0.0754504048744665,0.1744825902595426,-7.340186800000001,53.525819999999996
34,Laois,0.943127295861981,0.05945247284672378,0.18165180365548317,-7.332300699999999,52.9943
35,Omagh,0.2396184644316085,0.7877228065015702,0.07199037937815253,-7.309959700000001,54.59771
36,Derry,0.22020206509167076,0.7925179334512642,0.08339932221137653,-7.308574799999999,54.99661
37,Derry,0.22020206509167076,0.7925179334512642,0.08339932221137653,-7.308574799999999,54.99661
38,Kilkenny,0.9700317283593994,0.04913228773683621,0.16930974034224142,-7.2447879,52.65415
39,Tyrone,0.1929339201072193,0.8385533700620605,0.0623524846299972,-7.131232000000001,54.491209999999995
40,Waterford,0.9971291272888447,0.0588746403120662,0.1378864955472381,-7.110070200000001,52.25932
41,Western Isles,0.20383687436481868,0.6928241798111969,0.1908596031762177,-7.0194034,57.759890000000006
42,Monaghan,0.30433800234132613,0.7328836950565406,0.07061065845448994,-6.9683132,54.2492
43,Carlow,0.9834954056446774,0.05294006536926394,0.1546709569993056,-6.934135899999999,52.83651
44,Kildare,0.9878197249117324,0.05688136427404971,0.14740520728056605,-6.8194707999999995,53.21204
45,Dungannon,0.1403944233870638,0.8871780450007384,0.059599376179595175,-6.7669352,54.508269999999996
46,Cookstown,0.12893081393241032,0.9126409301056834,0.044988805241135445,-6.7443895000000005,54.641819999999996
47,Coleraine,0.11895924432006243,0.9007894826746585,0.06434923195087433,-6.6646103000000005,55.132580000000004
48,Meath,0.9901336848051215,0.0597862556799699,0.14276666575824,-6.656416900000001,53.60555
49,Armagh,0.1673601373453199,0.8580159166228225,0.06497930898417303,-6.652792,54.350280000000005
50,Armagh,0.1673601373453199,0.8580159166228225,0.06497930898417303,-6.652792,54.350280000000005
51,Magherafelt,0.15843175595944664,0.8699562425844265,0.061043006835846375,-6.607980499999999,54.75536999999999
52,Dunvegan,0.19810916286483815,0.6986181728474583,0.19009441367522423,-6.581398200000001,57.4366
53,Louth,0.7062945650127299,0.31482181553647576,0.13511323537935313,-6.4889423,53.925230000000006
54,Wexford,0.9667889567065191,0.047667867442473685,0.17335198294819243,-6.4633381,52.33692
55,Craigavon,0.11209946308552152,0.9457003861190211,0.02761744900751829,-6.4175653,54.442930000000004
56,Stornoway,0.21595142391684444,0.695299776519737,0.17858413649122892,-6.384869200000001,58.209430000000005
57,Drogheda,0.9866401737399584,0.06325536704340542,0.14236113643403653,-6.3560985,53.717859999999995
58,Rosslare,0.9443194775638513,0.04848226174373207,0.191020624994962,-6.3414908,52.25131
59,Newry,0.3416923273038145,0.7080860356384595,0.06334970676372248,-6.34023,54.1751
60,Scilly Isles,0.3316260287157441,0.04197068851987885,0.6998964009800259,-6.327496599999999,49.92773
61,Ballymena,0.13391776823211182,0.9193919341146383,0.03452929618303438,-6.2802213,54.86529
62,Banbridge,0.11219395816253849,0.9748984280973196,0.01,-6.2704803,54.34873
63,Dublin,0.9891789102893209,0.058517030381908884,0.14474729170513084,-6.2603097000000005,53.34981
64,Antrim,0.15308412985588338,0.9278912284683468,0.010786158802442956,-6.2072498,54.719530000000006
65,Antrim,0.15308412985588338,0.9278912284683468,0.010786158802442956,-6.2072498,54.719530000000006
66,Portree,0.19972914529904548,0.6972087115528883,0.19009441367522423,-6.1960231,57.41246999999999
67,Islay,0.14409937888198754,0.8399488118265094,0.10110673232416088,-6.177067,55.73625
68,Wicklow,1.0,0.056304895031871235,0.1379546275444422,-6.044589,52.980819999999994
69,Kilkeel,0.37000178932509703,0.7116686054923961,0.036741762841538024,-6.007004,54.06312
70,Mull,0.1718460806178669,0.8249484029405039,0.09248793871728368,-6.0008870000000005,56.4392
71,Belfast,0.16458375971118192,0.9222531594659287,0.01,-5.93012,54.597280000000005
72,Broadford,0.19913808327027815,0.6935563696107292,0.19402457434774645,-5.9096592,57.24139
73,Down,0.18559838890571653,0.9057722556428964,0.01,-5.7156921999999994,54.32875
74,Kyle of Lochalsh,0.20774812851798272,0.6947179965411846,0.18586389645164714,-5.7143293,57.28261
75,Campbeltown,0.04451934400769068,0.947532203562682,0.08134135205357515,-5.605373999999999,55.424119999999995
76,Penzance,0.32776085260756127,0.03590660079156017,0.7087875306546007,-5.537592,50.1188
77,Oban,0.11794505953306805,0.8785348113784134,0.08617219853702367,-5.471047,56.41516
78,Lochgilphead,0.12965683551424387,0.8909400811183442,0.06486166133829666,-5.4323449,56.03829
79,Helston,0.32737936381891103,0.03653050040342266,0.7085121238490011,-5.274996,50.10159
80,Redruth,0.3307617729989673,0.0440240308175724,0.6986688735036389,-5.226666000000001,50.23302
81,Ullapool,0.22039713661204732,0.685529954618435,0.18415119238671954,-5.161313,57.895419999999994
82,Ballachulish,0.17882257730644588,0.7956301470522553,0.11441684576105741,-5.133719999999999,56.673930000000006
83,Fort William,0.28718083059769306,0.5650621060097452,0.24297981335287339,-5.1052179,56.81981999999999
84,Achnasheen,0.21755035546755752,0.6930873563026141,0.1793589220481668,-5.078765799999999,57.578590000000005
85,Newquay,0.32992558512684905,0.04270900296174274,0.7005953776950045,-5.0737190000000005,50.4155
86,Falmouth,0.3276333778130705,0.038515901901298555,0.7064311231569335,-5.066269999999999,50.152570000000004
87,Rothesay,0.1354264148825068,0.9047068527442884,0.04714254403726036,-5.055793,55.83596
88,Truro,0.3307617729989673,0.0440240308175724,0.6986688735036389,-5.051041000000001,50.2632
89,Milford Haven,0.522410887516943,0.04336608958902978,0.5420353311426177,-5.0426971,51.71431
90,Stranraer,0.1477439885108957,0.9245056238561696,0.018361285364824818,-5.024055000000001,54.903369999999995
91,Fishguard,0.48221328989054707,0.03761950657480354,0.580438938952579,-4.975989,51.99393
92,Inchnadamph,0.21056497062817003,0.7001178556174374,0.1784593877639539,-4.974295,58.15221
93,Haverfordwest,0.5003678057143792,0.04464213134948639,0.5589188238920297,-4.971319,51.800470000000004
94,Dunoon,0.1519522940200286,0.9004522000457944,0.03759561989945636,-4.926214,55.95097
95,Pembroke,0.5899093759465589,0.04566099917496387,0.4844860563549496,-4.908637000000001,51.674040000000005
96,Girvan,0.026368336664440703,1.0,0.04674661076900109,-4.8542179,55.240159999999996
97,Wadebridge,0.3496200900276118,0.037335697567359216,0.6895034885501777,-4.836456,50.51665
98,Invergarry,0.2706205683504644,0.6370768510556369,0.18864291425309856,-4.800261,57.07095
99,St Austell,0.3540042873632715,0.03714841780649618,0.6860826865271756,-4.7834252,50.340379999999996
100,Greenock,0.15666348174596031,0.9047410164468622,0.02968463137902619,-4.7719830000000005,55.956480000000006
101,Helensburgh,0.15814242326075845,0.9006582810342799,0.03232201139474062,-4.734014,56.00232
102,Bodmin,0.35263714942969654,0.035546182885848855,0.688715652357156,-4.7188629,50.4715
103,Tenby,0.5887398824191207,0.04334342230810829,0.4876316434934711,-4.703579,51.672740000000005
104,Camelford,0.35153876110872667,0.03474096537426336,0.6903763457988656,-4.682364,50.62206
105,Irvine,0.08826565279374451,0.943336965999099,0.04940299097548513,-4.6696364,55.61156999999999
106,Cardigan,0.46740773573188654,0.0301801619497866,0.599604181884412,-4.660864,52.0837
107,Holyhead,0.26233189992409983,0.1148482145762133,0.6880153321943453,-4.633038,53.30944
108,Ayr,0.03713773476120695,0.9921202712089292,0.04534213202100229,-4.629179,55.45856
109,Dumbarton,0.17861300406632905,0.8989865385448464,0.017102090903821806,-4.564554,55.94529
110,Bude,0.3527648581228927,0.04935189991186823,0.675589207431032,-4.543678,50.826640000000005
111,Isle of Man,0.14626083681939867,0.615133458092908,0.3113812678078809,-4.5126330999999995,54.27697
112,Kilmarnock,0.11188451017517845,0.9463780849146864,0.02715472718988712,-4.498792,55.61472
113,Newton Stewart,0.05478422259672005,0.9358714746451914,0.0839171253901276,-4.483164,54.9603
114,Liskeard,0.3546683257881511,0.03249887828498294,0.689923220037179,-4.4647190000000005,50.45552
115,Altnaharra,0.23833178765272128,0.698955964167546,0.15677191748773717,-4.442655,58.28023
116,Pwllheli,0.3442457994716228,0.09551369542259493,0.63903917378726,-4.417633900000001,52.888819999999996
117,Lairg,0.22777617297277064,0.7061330886406462,0.15866368395658437,-4.402414,58.022059999999996
118,Launceston,0.37458082428242806,0.030843861562979826,0.6751454858041704,-4.360451599999999,50.636829999999996
119,Carmarthen,0.5844452682876625,0.04779917082109702,0.48695281849597566,-4.312131,51.857620000000004
120,Llangefni,0.2651349420106635,0.11023379509677414,0.690067928560818,-4.311401999999999,53.255790000000005
121,Caernarfon,0.2753956104229941,0.12027700800926193,0.6721758903316666,-4.273911,53.13955
122,Cumnock,0.09632931066543013,0.9453933400964848,0.0408469555744833,-4.265828900000001,55.45355
123,Aberaeron,0.4328185612656727,0.04457366151079624,0.6144097446796584,-4.2581619,52.24279
124,Alness,0.2258163357194899,0.7012144311142248,0.1649111002185214,-4.256825,57.69595
125,Glasgow,0.2602078657795667,0.785829946111083,0.05688158121506795,-4.251806,55.86424
126,Dalwhinnie,0.23331957229282718,0.6728829955043701,0.18547679155485658,-4.242783,56.9366
127,Inverness,0.22243603162778308,0.7036198284339145,0.16541585276118825,-4.224721,57.47776999999999
128,Saltash,0.3744870309015274,0.030434588952158545,0.6756085914640394,-4.21643,50.409209999999995
129,Bideford,0.3518503141844361,0.04417511211096745,0.6812222841914188,-4.206666,51.01668
130,Invergordon,0.23046413689623432,0.7012144311142248,0.16109724374404322,-4.1728819999999995,57.688109999999995
131,Llanelli,0.597525819493352,0.04343101893680401,0.48033979250256315,-4.160248,51.680890000000005
132,Plymouth,0.39323331045024323,0.028152294908568555,0.6623792768181934,-4.1426565,50.37546
133,Tavistock,0.3750247640254433,0.02718771461046858,0.6782298501057678,-4.141654,50.551120000000004
134,Porthmadog,0.27866270754124506,0.14200990454368495,0.6489964252772397,-4.1333839999999995,52.92784
135,Bangor,0.2651349420106635,0.11455541190793657,0.6859917159168245,-4.129263,53.22739
136,Tywyn,0.4081850512998337,0.048333011738741806,0.6310761746436119,-4.087249,52.58701
137,Aberystwyth,0.40654191289378305,0.06007635211093734,0.6213480769695807,-4.08292,52.4153
138,Lampeter,0.475549047973794,0.03415222649977281,0.5891774913376404,-4.0785089999999995,52.1129
139,Barnstaple,0.3538941210729869,0.04507866980989008,0.6786933396078745,-4.058338,51.07816
140,Tain,0.2415719864198413,0.6962866374934283,0.15663085546535688,-4.05523,57.8115
141,Okehampton,0.35921601831894656,0.04694340974953937,0.6725676013353102,-4.004263,50.73831
142,Llandeilo,0.5347829595437105,0.04508977962621246,0.5302578997611349,-3.9914300000000003,51.88469
143,Motherwell,0.15552252386059176,0.9019150332235395,0.03328622309601778,-3.9810968,55.78321
144,Golspie,0.2340893329325867,0.7064763127830014,0.153159770109207,-3.976086,57.97341
145,Airdrie,0.1083467922546782,0.929351864100006,0.04611691757794012,-3.9625660000000003,55.86626999999999
146,Swansea,0.6083630482147095,0.04385742426803453,0.47104543655721154,-3.9436459999999998,51.62144
147,Stirling,0.13972594088678017,0.8482584253967796,0.0968574068309332,-3.9369029,56.116519999999994
148,Tregaron,0.4438237292575705,0.05319434993809329,0.5972483501501016,-3.934385,52.22
149,Tregaron,0.4438237292575705,0.05319434993809329,0.5972483501501016,-3.934385,52.22
150,Castle Douglas,0.03277295101810262,0.6971939595074054,0.32710114281349456,-3.9314139999999997,54.940419999999996
151,Dolgellau,0.3812141915700567,0.04271482238934017,0.658505924796861,-3.8844,52.74215
152,Aberfeldy,0.1853333816723991,0.728740995122526,0.17216514274900901,-3.866969,56.62175
153,Machynlleth,0.4239570749095689,0.05794336911528442,0.6090703072311654,-3.853485,52.59027
154,Brora,0.22925488058886326,0.712807483751334,0.15115477018021772,-3.8525480000000005,58.012159999999994
155,Llandudno,0.22987634944934393,0.10040610448188099,0.7282682919058804,-3.827609,53.324059999999996
156,Llandudno,0.22987634944934393,0.10040610448188099,0.7282682919058804,-3.827609,53.324059999999996
157,Aviemore,0.272007119876595,0.6240820692305559,0.19976205619680665,-3.823812,57.19449
158,Dalbeattie,0.034627299955208385,0.6712813099702442,0.3500207466729514,-3.8225269999999996,54.934219999999996
159,Falkirk,0.11932178731356814,0.8916163148832857,0.07270413401928495,-3.7839131,56.00188000000001
160,Kingsbridge,0.34887371925840077,0.041552666420012464,0.6861383436516524,-3.777493,50.28395
161,Pitlochry,0.1719265417725545,0.8571024089235671,0.06209396688285938,-3.729711,56.70436
162,Colwyn Bay,0.21612240387055573,0.10292658810398715,0.7371765025600359,-3.72764,53.29318000000001
163,Totnes,0.36692906203110603,0.04289186728278533,0.6700601519170808,-3.685797,50.43374
164,Grantown-on-Spey,0.23548898278622474,0.6992596528280068,0.15881798853616774,-3.609628,57.33041
165,Dumfries,0.036569828704283054,0.6776491474019705,0.3424206703651146,-3.60512,55.070859999999996
166,Whitehaven,0.1304768843756834,0.4791993615233324,0.45254692759238413,-3.589233,54.5497
167,Dartmouth,0.37110696070852583,0.04316658089115256,0.6663729633810667,-3.578807,50.35252
168,Bridgend,0.45586857699536065,0.050433743710821495,0.5899691659530399,-3.576945,51.504290000000005
169,Paignton,0.36937470689568486,0.048989487936560584,0.6623023164495206,-3.564235,50.43508
170,Workington,0.06600223841061158,0.6052490789280621,0.3865588812073527,-3.5427519999999997,54.64357
171,Llanidloes,0.4173276838999335,0.050048888278730726,0.6219560830742078,-3.5401949999999998,52.447790000000005
172,Exeter,0.33497522427962123,0.05977280588401917,0.6803571037874864,-3.533899,50.71841
173,Torquay,0.36209460968738283,0.04859439763705194,0.6686483801665645,-3.525315,50.46192
174,Thurso,0.23135622655896418,0.7193585314141349,0.1432516504256618,-3.5220800000000003,58.59356999999999
175,Livingston,0.177629693908459,0.8584738608099133,0.05612099782092763,-3.518068,55.90071
176,Rhyl,0.16768291755889272,0.026053272139,0.849430205390143,-3.4916339999999995,53.319140000000004
177,Tiverton,0.3530081127765998,0.050536112732649165,0.6742726285554825,-3.491207,50.90205
178,Tiverton,0.3530081127765998,0.050536112732649165,0.6742726285554825,-3.491207,50.90205
179,Minehead,0.4456974917872315,0.05183054876774944,0.5969973173266003,-3.481152,51.20428
180,Dunfermline,0.04997432961707284,0.9663647869121968,0.059102300481683655,-3.452151,56.071740000000005
181,Perth,0.09691592861879306,0.9444846751376778,0.04122273712525961,-3.4308381000000003,56.39499
182,Prestatyn,0.17457778359925663,0.02254739257392611,0.8470795555260423,-3.4076129999999996,53.33651
183,Builth Wells,0.508485260288327,0.02862747355431328,0.5673631612018407,-3.4045919999999996,52.15002
184,Braemar,0.31016769367689945,0.6456552977637303,0.14810207286323665,-3.3979439,57.00646999999999
185,Brecon,0.5596990191457785,0.036556667479962196,0.5178620985346054,-3.391463,51.94895
186,Merthyr Tydfil,0.532342694349358,0.042404317266483825,0.534793187721501,-3.381646,51.74873
187,Llandrindod Wells,0.496325334387437,0.04820046715353301,0.5588794800626584,-3.377742,52.2417
188,Corwen,0.183664982206156,0.01,0.8559952511038341,-3.369242,52.98005
189,Cockermouth,0.0687383854674057,0.5948259143668787,0.394144947273511,-3.367985,54.66326
190,Lockerbie,0.05571303435621146,0.630746900946241,0.3709516638985244,-3.349008,55.122240000000005
191,Blairgowrie,0.1436320492684235,0.8633571948177713,0.07941100943983213,-3.3378318,56.58941
192,Elgin,0.22009353609232452,0.702621328605028,0.1682796996971869,-3.318485,57.64945
193,Newtown,0.2788650299214919,0.03881356765767245,0.7461662796897173,-3.313106,52.51211
194,Ruthin,0.19584619288924546,0.01,0.8508951392905902,-3.3103108,53.114869999999996
195,Ruthin,0.19584619288924546,0.01,0.8508951392905902,-3.3103108,53.114869999999996
196,Sidmouth,0.3417800393183724,0.06442385113155412,0.6703866097403038,-3.2375599999999998,50.67865
197,Barrow-in-Furness,0.18812987459520908,0.03618929067831268,0.8230924864033482,-3.2188939999999997,54.10896999999999
198,Peebles,0.37892385544592194,0.6241788223012755,0.11194240677527605,-3.1936419999999996,55.65306999999999
199,Edinburgh,0.2850048709405418,0.7008171636162794,0.11671970726655577,-3.1882669999999997,55.95325
200,Cardiff,0.5726240277123185,0.036271820742421815,0.5075254189925905,-3.17909,51.48158
201,Llangollen,0.17434177980541973,0.01,0.8647073183744896,-3.1716599999999997,52.96921
202,Kirkcaldy,0.23300310734430243,0.754580637295283,0.10867840430640283,-3.158137,56.11682
203,Welshpool,0.2658516076442774,0.01801442473320214,0.7764619879112725,-3.146407,52.66035
204,Mold,0.2048693032508412,0.016401446253913387,0.8280214045785471,-3.1419029999999997,53.1672
205,Mold,0.2048693032508412,0.016401446253913387,0.8280214045785471,-3.1419029999999997,53.1672
206,Taunton,0.3794222935873161,0.0578160335282048,0.6457326147294852,-3.106849,51.01534
207,Wick,0.24268183577737998,0.7089253151143741,0.14379920137784008,-3.093716,58.43894
208,John o' Groats,0.23948748115653556,0.7118617453761544,0.1436506544318232,-3.0688997000000002,58.63734
209,Dalkeith,0.2815092547870294,0.7103515428716722,0.11059492859958615,-3.066606,55.893119999999996
210,Oswestry,0.21916612772506608,0.01730809679547522,0.8154352176020838,-3.056412,52.85715
211,Blackpool,0.12110339375326724,0.032626966735073426,0.8814497491015212,-3.0356748,53.81751
212,Birkenhead,0.17129641865997092,0.031564575288508805,0.8412668405983795,-3.023009,53.389990000000004
213,Cupar,0.057069880746745044,0.9650706764394796,0.05450079973530237,-3.010137,56.32023
214,Southport,0.12420910076473189,0.027144557247062395,0.8840725431122004,-3.010113,53.64571
215,Bridgwater,0.39388354885149895,0.04990708551325326,0.6413262977610097,-3.003632,51.12789
216,Langholm,0.08429896464738025,0.5904899321155631,0.38546685004089837,-2.998913,55.153059999999996
217,Newport,0.4805360022734956,0.02915716355157387,0.5897970127094001,-2.997664,51.58415
218,Axminster,0.40034827517247107,0.0773110956319763,0.6101742375069906,-2.9949369999999997,50.78273
219,Wrexham,0.19153122957041,0.02287521354603219,0.8328595440645131,-2.9924939999999998,53.043040000000005
220,Liverpool,0.16832263051840146,0.032261014268849864,0.8430501716350567,-2.9915726,53.40837
221,Weston-super-Mare,0.5566980987543726,0.039994077206345936,0.5170821311074576,-2.977255,51.347409999999996
222,Dundee,0.12308311239651447,0.9114750912118973,0.050886733145583285,-2.9707209999999997,56.462019999999995
223,Kirkwall,0.23381894602904305,0.7188513866119022,0.14170918039318497,-2.9622491,58.984669999999994
224,Ambleside,0.15944102887362563,0.26885570336562525,0.6271792163246567,-2.961333,54.428740000000005
225,Orkney Islands,0.23381894602904305,0.7188513866119022,0.14170918039318497,-2.9605206,58.980940000000004
226,Lyme Regis,0.38899693709645156,0.06839788940348772,0.6278952740192159,-2.936639,50.725159999999995
227,Carlisle,0.09391009635457163,0.5705747114087864,0.39636489885565107,-2.932931,54.892469999999996
228,Chester,0.19892429985346244,0.018635679150702154,0.8307919778507674,-2.893075,53.19339
229,Forfar,0.16060865121141987,0.8624705053198216,0.06631757494615656,-2.889062,56.64356
230,Morecambe,0.23299258190255545,0.03287602195812466,0.7894062996955746,-2.864968,54.074169999999995
231,Selkirk,0.11137811947779774,0.8438545023456464,0.12427161137355254,-2.838524,55.55066
232,Galashiels,0.08218194746401174,0.8922481297305868,0.10258260572838479,-2.814449,55.62373
233,Lancaster,0.25270275801658576,0.030323226269498467,0.7756413332069213,-2.8007399,54.046569999999996
234,St Andrews,0.08201564548441007,0.9383554749327444,0.05922992802574202,-2.7967214,56.339780000000005
235,Hawick,0.1789935572601573,0.6418611327084448,0.2593132601755617,-2.780914,55.42706
236,Bridport,0.38555464984779036,0.061792330389170966,0.636950304329318,-2.758301,50.733579999999996
237,Shrewsbury,0.27124507789411634,0.04754405199866104,0.7441839264527564,-2.7553267999999997,52.7073
238,Penrith,0.07625284917860631,0.43531756077186523,0.5384291333187727,-2.752708,54.6641
239,Kendal,0.25525459289345565,0.11799115312710705,0.6908580678072667,-2.74629,54.32801
240,Street,0.4031915478363786,0.04509026796978709,0.6382321454823497,-2.7429189999999997,51.12468
241,Glastonbury,0.39033764447630664,0.04283585020524775,0.6509056565679054,-2.718454,51.14743
242,Hereford,0.36735756445955947,0.044832992296563234,0.6678778168742423,-2.715974,52.0564
243,Ludlow,0.30931022102258177,0.04796386469163433,0.7125543664549521,-2.7139129,52.36775
244,Preston,0.13396548356803123,0.02639026990077896,0.8767785809889846,-2.70309,53.7632
245,Whitchurch,0.164402020417018,0.012450217696443883,0.8649527854855433,-2.682045,52.96872
246,Wells,0.3965949026455113,0.03513961651233687,0.6530306071961975,-2.6445979,51.20935
247,Yeovil,0.40804237308948615,0.058633500324453434,0.6214778156459468,-2.633308,50.94206
248,Wigan,0.06259410037295145,0.024223570850829,0.9373845834371306,-2.6325074,53.54506
249,Warrington,0.06800441132958562,0.02715141440475588,0.9301837030565742,-2.5969501,53.39004
250,Arbroath,0.13645018951642607,0.9012637456762009,0.04955019447366972,-2.591543,56.55911
251,Bristol,0.45965142075921195,0.04710118541943636,0.5900085097824115,-2.58791,51.45451
252,Guernsey,0.43304146673200244,0.0417243802294348,0.6169141233599861,-2.5852779999999997,49.46569
253,Ross-on-Wye,0.33456192526702466,0.0499450949214771,0.6899658265255714,-2.582446,51.91445
254,Jedburgh,0.15216514184202248,0.6220848457486446,0.2999800018194121,-2.5549369,55.47772
255,Sedbergh,0.2558309193037771,0.10471419010649693,0.7029084110198036,-2.5281740000000004,54.32363
256,Sedbergh,0.2558309193037771,0.10471419010649693,0.7029084110198036,-2.5281740000000004,54.32363
257,Nantwich,0.16519283194027165,0.02176191228181445,0.85552101401907,-2.524102,53.067190000000004
258,Banff,0.290269463003657,0.6924992278575918,0.12024549014158788,-2.524038,57.666509999999995
259,Dunbar,0.2126588318396951,0.764334242120378,0.11617196439325865,-2.516737,56.00209
260,Cinderford,0.3566050070695884,0.0426062676822341,0.6788008154344498,-2.5009579,51.8253
261,Banchory,0.2913603665660512,0.7039160291595645,0.10858205990472267,-2.4909599,57.05386
262,Blackburn,0.1048160912953428,0.02711617227678817,0.9000117839566996,-2.487529,53.748580000000004
263,Market Drayton,0.20842011949884862,0.03488461977579455,0.8076743113966214,-2.483485,52.90355
264,Telford,0.32514469558668235,0.030503567482072245,0.716030441760193,-2.4672611,52.67759
265,Montrose,0.24386115305044842,0.7878052348274347,0.06843139414955336,-2.4661150000000003,56.70692
266,Turriff,0.2901340356531798,0.6977977963374109,0.11535879461254384,-2.4623,57.53893000000001
267,Weymouth,0.45111856208431816,0.04260459917502085,0.6012510570055624,-2.457621,50.61443
268,Crewe,0.15826849466301626,0.02063377758151792,0.8622666575056319,-2.4438209,53.10041
269,Fortuneswell,0.46124052856429454,0.04999030739742644,0.5859793178125444,-2.4422189999999997,50.55919
270,Dorchester,0.4304823809952625,0.04073802794696678,0.6199443659060576,-2.4411810000000003,50.71116
271,Alston,0.07254274791216168,0.4379322947038712,0.5390071997288537,-2.438685,54.812169999999995
272,Kelso,0.134874413937556,0.6476832258478952,0.29002275032943253,-2.432207,55.600030000000004
273,Wincanton,0.36725535072526144,0.03027744405937875,0.6816905717214979,-2.416007,51.055690000000006
274,Clitheroe,0.1359068428235783,0.03971661666537154,0.8626159539420023,-2.3930830000000003,53.8711
275,Sark,0.4454890880406422,0.053532283691723595,0.5955630908051742,-2.3666256000000003,49.43007
276,Bath,0.45298905003210255,0.04747403573865129,0.5951233995218094,-2.3590167,51.38106
277,Kidderminster,0.3147846202245193,0.012816923025678308,0.741213371374658,-2.2496839,52.3886
278,Manchester,0.2127226861862934,0.03934789691889185,0.7999341326719985,-2.2426305,53.48076
279,Burnley,0.14293011925325497,0.032593759371999924,0.8635715291929295,-2.2405035,53.78929
280,Gloucester,0.33691705133257926,0.05115557655704229,0.6868916340432749,-2.238156,51.86424
281,Newcastle-under-Lyme,0.1934131785547633,0.029727874409101726,0.8248516353790463,-2.2273002,53.01321
282,Worcester,0.3337297136728997,0.02907428757743272,0.7103342229516931,-2.221575,52.19364
283,Trowbridge,0.41977192537227903,0.034339485912986904,0.6347677773653605,-2.208853,51.31966
284,Shaftesbury,0.3155812792154102,0.04218193781119567,0.712862207929643,-2.198083,51.0046
285,Alderney,0.43751103709516515,0.053845963047814915,0.6018133858838944,-2.1973557,49.715
286,Stoke-on-Trent,0.20852537391631795,0.030725031293157998,0.8115111984053659,-2.179404,53.002669999999995
287,Colne,0.06063917499248597,0.02026115108644135,0.9427259400968127,-2.176991,53.85564
288,Blandford Forum,0.44282732077219317,0.05503965787300288,0.5963254014893846,-2.165353,50.85691
289,Rochdale,0.09149719730876162,0.029863206622215602,0.9083494131244105,-2.1561,53.60971
290,Jersey,0.4178188711814574,0.05431656347254767,0.6175276951770607,-2.13125,49.21444
291,Wolverhampton,0.33113718042127493,0.011449011630248135,0.7290858758723295,-2.12882,52.586969999999994
292,Stafford,0.2898302012347511,0.04000657066279638,0.7360437841163779,-2.12066,52.80669
293,Macclesfield,0.11274174893079053,0.038827383711304134,0.8824625168458762,-2.119287,53.25866
294,Hexham,0.28957033977295465,0.24271345095780147,0.5450617352663116,-2.1121439,54.97266
295,Aberdeen,0.29529243770400343,0.7105131438995703,0.09913301553754994,-2.094278,57.149719999999995
296,Dudley,0.33968711370166926,0.01,0.7240197340971283,-2.081112,52.51226
297,Cheltenham,0.3474661168487763,0.05489447739780104,0.6747092491009455,-2.0782533,51.899390000000004
298,Bromsgrove,0.320415497660428,0.018058151830778697,0.7316495581783921,-2.061906,52.33559
299,Skipton,0.08092357242848841,0.02304515710999656,0.9234562920763062,-2.0162787,53.96285
300,Fraserburgh,0.2901340356531798,0.6977977963374109,0.11535879461254384,-2.007631,57.69335
301,Berwick,0.12094831891152891,0.6988038654917039,0.2532322395236978,-2.005395,55.77024
302,Poole,0.43915885347532535,0.05625392417127129,0.5981902990015878,-1.987248,50.71505
303,Walsall,0.33520818739028685,0.010701215183977236,0.7264507989100415,-1.9829189999999999,52.586209999999994
304,Cirencester,0.40301705940208477,0.04755172306231221,0.6360536488618886,-1.968243,51.71849
305,Evesham,0.32324263131365694,0.04116254094684569,0.7075373564861853,-1.9467700000000001,52.09215
306,Buxton,0.03155176587675172,0.04533838720098697,0.9429401240654881,-1.91483,53.259080000000004
307,Keighley,0.15396171779887283,0.014151036976215654,0.8719151079153259,-1.9123580000000002,53.8678
308,Birmingham,0.413844464377812,0.023675974922499367,0.6496894524375325,-1.8904009999999998,52.48624
309,Bournemouth,0.4313213756518464,0.054919484658350864,0.605879810550825,-1.880769,50.719159999999995
310,Halifax,0.10757375703304174,0.016720232869889176,0.9075546677711087,-1.8575400000000002,53.727019999999996
311,Salisbury,0.2734011561613011,0.03653778486174393,0.7527960028204729,-1.794472,51.06878
312,Ringwood,0.40939407370849884,0.057330131671467596,0.6215981501874875,-1.7888169999999999,50.84495
313,Huddersfield,0.05212783499849717,0.011309630234994792,0.9581529434750082,-1.7850351000000002,53.645790000000005
314,Peterhead,0.2901340356531798,0.696671228406083,0.11642146184780884,-1.784066,57.50812
315,Swindon,0.41053854007445006,0.05436022952717741,0.6234603608040267,-1.7797176,51.55577
316,Bradford,0.14305525506069092,0.012945479471694457,0.8820015223183149,-1.759398,53.79598000000001
317,Ashbourne,0.22254035045043055,0.02875847171820248,0.8018663944969308,-1.7321790000000001,53.016630000000006
318,Marlborough,0.3779856877382113,0.036036174620023426,0.6674542469648634,-1.7270619999999999,51.42007
319,Stratford-upon-Avon,0.30389663548407103,0.022284582340190023,0.7412172097970359,-1.7082979999999999,52.19173
320,Alnwick,0.2894449700668131,0.31935150740572016,0.47287885900591764,-1.7062990000000002,55.41274
321,Otley,0.19010444746693556,0.029816895373223393,0.8274826819978373,-1.691786,53.90583
322,Bishop Auckland,0.21024289211071368,0.0685067900206258,0.7744658163537521,-1.6787880000000002,54.663819999999994
323,Burton upon Trent,0.19902160171494535,0.036686383741968046,0.8136866242879248,-1.6371358999999999,52.81403
324,Newcastle,0.18371550432654138,0.40780957416704816,0.4761985185992676,-1.61778,54.97825
325,Durham,0.22204308180256374,0.08660453837624581,0.7477135477501662,-1.5848520000000001,54.77525
326,Ashington,0.2106337368475833,0.3979942549227118,0.4633691675651773,-1.5659829,55.18298000000001
327,Darlington,0.11293190857835197,0.02698708679189953,0.8934743748841275,-1.559458,54.52361
328,Leeds,0.18599788789468943,0.03154361721009845,0.8292235984672411,-1.5490774,53.80076
329,Harrogate,0.30148069575508935,0.03604378464072777,0.7302218569750084,-1.5418120000000002,53.99211999999999
330,Leamington Spa,0.3275538522532046,0.032430306708048084,0.7122363531609601,-1.5200789,52.28519
331,Coventry,0.3644986205823843,0.02848827528790041,0.6856401164270275,-1.519693,52.40682
332,Blyth,0.20428291919618366,0.40593341919634235,0.46109183156849065,-1.510277,55.12696
333,Wakefield,0.022762554220643695,0.01,0.984378772449493,-1.505924,53.6833
334,Andover,0.41251170955394345,0.03607841633922721,0.6390848510135545,-1.4919233,51.2112
335,Witney,0.4436017593860625,0.041061738693986556,0.6088739719265464,-1.4850543999999999,51.785940000000004
336,Barnsley,0.01,0.01229093630052517,1.0,-1.479726,53.55263000000001
337,Derby,0.17238007136249517,0.03533527950456405,0.8368211798005325,-1.4746186000000001,52.92253
338,Sheffield,0.08812812035491786,0.021815731813266286,0.9187043251727193,-1.470085,53.381130000000006
339,Nuneaton,0.3870244693130745,0.030130656119910487,0.6656077738800731,-1.465382,52.52049
340,Northallerton,0.13507439733074797,0.028307588165294613,0.8740602102611009,-1.429959,54.337959999999995
341,South Shields,0.18702891338847877,0.36636314282216237,0.5125725605770222,-1.427406,54.99941999999999
342,Chesterfield,0.11625280239886505,0.013431177851942241,0.9035356476205428,-1.421629,53.23505
343,Southampton,0.4556618105397096,0.0252306980828669,0.6139105578494394,-1.4043508999999998,50.9097
344,Wetherby,0.20442676690005865,0.03467147815312611,0.8111519220708135,-1.384816,53.92706
345,Sunderland,0.2075249891529476,0.2615741140628564,0.5945927376280928,-1.383801,54.90687
346,Rotherham,0.08854118546880892,0.02287859125575658,0.9173627965517147,-1.3635008999999998,53.4326
347,Castleford,0.031496331883551255,0.017941926060021453,0.9688262526595469,-1.345968,53.72346999999999
348,Thirsk,0.2415153829331132,0.043658098698997776,0.7722433697970664,-1.341377,54.23385
349,Banbury,0.3404776913262174,0.03529218318410469,0.6989325731209866,-1.339775,52.0629
350,Stockton,0.10600897469332954,0.02293000976463325,0.9029813794292034,-1.3289821000000002,54.57046
351,Newbury,0.4566928360334991,0.021397201022176356,0.6166801715160654,-1.3231138999999998,51.40141
352,Isle of Wight,0.4617929973066563,0.037710460565574706,0.5971086315755535,-1.304734,50.69385
353,Isle of Wight,0.4617929973066563,0.037710460565574706,0.5971086315755535,-1.304734,50.69385
354,Abingdon,0.43519333482248834,0.04282765010272408,0.6141078527596529,-1.2879528999999998,51.67078
355,Shetland Islands,0.24110465680627696,0.7125314068504877,0.14169209941360417,-1.2659409,60.52965
356,Rugby,0.3443442708266332,0.028635307399155985,0.7020386245090178,-1.265032,52.37088
357,Oxford,0.4262450720466488,0.046242860544112,0.6182287830243466,-1.2577263,51.75202
358,Middlesbrough,0.10380190650834843,0.023132224699819782,0.9046015775148288,-1.234956,54.57423000000001
359,Hartlepool,0.10632520574314892,0.02312192878945508,0.9025411123824819,-1.212926,54.69174
360,Loughborough,0.31133461431857695,0.03415955165339196,0.723913601718385,-1.206166,52.7721
361,Mansfield,0.08651258199611493,0.011491395782994525,0.9297680019130696,-1.198674,53.1472
362,Nottingham,0.24045184551926096,0.01828403108168488,0.7970491744129229,-1.1581086,52.95478000000001
363,Bicester,0.4366736797295193,0.049325977007115995,0.6067639911455273,-1.1535898999999998,51.8996
364,Leicester,0.3417430833229055,0.034692619360376944,0.6984596794840545,-1.1397591999999999,52.636880000000005
365,Doncaster,0.03741092844921642,0.022532701571389924,0.9596430190420296,-1.128462,53.522819999999996
366,Worksop,0.03506469053447034,0.023155705886698963,0.9609805173195376,-1.122745,53.3093
367,Basingstoke,0.4621913268021019,0.041698294543491034,0.593020519822189,-1.0923964,51.26654
368,Portsmouth,0.4684586426156424,0.0464706321263698,0.5833764835982291,-1.0879769,50.81977
369,York,0.19978621658318427,0.02540005156501195,0.8237045228514718,-1.0872979,53.95997
370,Selby,0.15516372324637356,0.02205691249617693,0.8634719221322282,-1.067189,53.783519999999996
371,Helmsley,0.21540831112270215,0.03683744468771415,0.8000982252286452,-1.0562636,54.24651
372,Towcester,0.33708007873030416,0.051860520854641136,0.6860928583464768,-0.9896879999999999,52.13511
373,Reading,0.44657648312245407,0.02586790505713752,0.6207642529259333,-0.9781303,51.45426
374,Retford,0.11093628482313166,0.01,0.9196238192532963,-0.9455030000000001,53.32136
375,Petersfield,0.5055556790020943,0.04215784619484823,0.5570051784156296,-0.93899,51.00759
376,Northampton,0.2708240602242386,0.045988006241112274,0.7459970052628612,-0.9026559999999999,52.24048
377,Melton Mowbray,0.2965222770974575,0.010386131840108904,0.7584908781811402,-0.887126,52.7664
378,Aylesbury,0.4871471491841029,0.026046292895412857,0.5873064523496325,-0.8084,51.81561
379,Newark-on-Trent,0.1591463165047112,0.017058471838253608,0.8649188154475003,-0.80657,53.070040000000006
380,Malton,0.17246216980812124,0.02867535157227403,0.8430353937089025,-0.7978970000000001,54.13684
381,Chichester,0.459627563091252,0.04565611573921777,0.5913909176017382,-0.774936,50.83761
382,Gainsborough,0.0758283230281463,0.014222864176981242,0.9359582256815789,-0.774465,53.400580000000005
383,Milton Keynes,0.46230196088979747,0.04510036040366236,0.5897208200252029,-0.7594171,52.040620000000004
384,Aldershot,0.4695703631628252,0.052642318222294274,0.576643123063276,-0.7557509,51.24837
385,High Wycombe,0.4875875804465359,0.014864079638093457,0.5974922818922039,-0.748229,51.628609999999995
386,Midhurst,0.4137062302428687,0.05076730271992924,0.6242499242871186,-0.737274,50.9869
387,Kettering,0.2729146468538869,0.0853099802552519,0.7071928580777872,-0.7302489999999999,52.39632
388,Wellingborough,0.2620304044927263,0.08654424829243039,0.7149593299956971,-0.693964,52.30242
389,Corby,0.27323251519464464,0.1034888343395551,0.6897856125949385,-0.6842333,52.4923
390,Bognor Regis,0.44886050398154076,0.040824627540864335,0.6047827894352797,-0.673061,50.783
391,Scunthorpe,0.07106240300513059,0.010102953609781785,0.9437548292151541,-0.654413,53.58865
392,Grantham,0.2602071640834504,0.012838593271801632,0.7859755177743906,-0.643582,52.912519999999994
393,Whitby,0.0730418877496722,0.022521856274503784,0.9304168872160193,-0.613347,54.48633
394,Slough,0.5062990090881343,0.0497375285546188,0.5492459995002373,-0.5950406,51.51054
395,Guildford,0.4588549956670264,0.048639671155948104,0.5892106936912075,-0.570409,51.23622
396,Woking,0.475003128395186,0.04655631607606497,0.5779259238219016,-0.5600349,51.31677
397,Lincoln,0.14102220751259242,0.022756464666806128,0.8744158400943943,-0.540579,53.23069
398,Bedford,0.35509752991272087,0.03233845742072347,0.6897224705468252,-0.46677820000000003,52.13864
399,Heathrow,0.7232199431392248,0.06504500381080942,0.3568174411771366,-0.4542955,51.47002
400,Driffield,0.06717126414063866,0.020043553328654595,0.9375715146069242,-0.443377,54.006
401,Beverley,0.05076280215327154,0.01645630351546127,0.9544187342648673,-0.435093,53.84196
402,Luton,0.4899462149926733,0.025151281209045903,0.5858539933219128,-0.4200255,51.87867
403,Scarborough,0.039975861653593736,0.01853876329879096,0.9613056316949283,-0.399752,54.28311
404,Worthing,0.43713726696379585,0.044825890967082456,0.610627939032034,-0.372882,50.81787
405,Dorking,0.5212979974762331,0.021587716059221183,0.5634901930227459,-0.332378,51.2322
406,Hull,0.06613673016626694,0.015563733546967365,0.9426459089902377,-0.3274198,53.767619999999994
407,Horsham,0.46782056694707225,0.03224377981019591,0.597318977121851,-0.325858,51.06288
408,Biggleswade,0.37680426537679323,0.032206950565610716,0.672035404072643,-0.26421999999999995,52.086940000000006
409,Peterborough,0.11700806131888473,0.03604659261628178,0.8815846696480973,-0.2405299,52.5695
410,Welwyn Garden City,0.42800001403392235,0.03955212627132365,0.6230997410216421,-0.208661,51.80317
411,Bridlington,0.06757871568559812,0.019886103221140674,0.9373855430427251,-0.198802,54.08535
412,Stevenage,0.44065627298785703,0.03450334552991759,0.617477028001675,-0.19661199999999998,51.90376
413,Crawley,0.4905672160557427,0.027329273204158726,0.58329031101585,-0.18722750000000002,51.109140000000004
414,Huntingdon,0.2911110305460015,0.061472200828365,0.7147461056326161,-0.182552,52.33146
415,Hove,0.4360720922590055,0.04986921853857203,0.6067451828758764,-0.168749,50.82793
416,Spalding,0.1124996637706109,0.028604012715083046,0.8923038479800491,-0.1537024,52.7901
417,Brighton,0.4348560528891751,0.04994655995220094,0.6076700507477821,-0.137163,50.82253
418,London,0.6709459214497977,0.046883546966351726,0.41684000342387273,-0.12775830000000002,51.50735
419,Grimsby,0.059662647897075274,0.018410573110455766,0.9452729252655325,-0.08078400000000001,53.56746999999999
420,Boston,0.11254948419487963,0.021847331712073356,0.8986359014554146,-0.026576999999999996,52.97894
421,Royston,0.3786965059041881,0.040257884474880185,0.6628890193099513,-0.024066,52.048140000000004
422,Louth_Lincs,0.10069128762406866,0.025320003914073748,0.905090592525747,-0.007711,53.36596
423,Lewes,0.4747589381466567,0.04379479420459076,0.5807308509744027,0.00878,50.873870000000004
424,Chatteris,0.22644224865537485,0.036798865545319935,0.7910810033789631,0.054012,52.4561
425,Uckfield,0.5494937847266484,0.05059815271427361,0.5129915243795479,0.095913,50.966409999999996
426,Cambridge,0.5041415274287163,0.04357656566968681,0.5568272675384235,0.12181700000000001,52.20534
427,Bishop's Stortford,0.3828659842282102,0.04575657208204489,0.6542815490490884,0.15365020000000001,51.87216
428,Wisbech,0.17768091772496086,0.0265352062041935,0.8407718760327756,0.158797,52.66631999999999
429,Sevenoaks,0.4510041856173347,0.040672691646213725,0.6031671974565076,0.190898,51.27241
430,Tunbridge Wells,0.4192374668302399,0.04547459436300535,0.6247034338910432,0.26369499999999996,51.13238
431,Eastbourne,0.4457452071231511,0.044847398432014234,0.6035447062973542,0.29047199999999995,50.768029999999996
432,Brentwood,0.46281723973798683,0.026383311004840763,0.6069520738420344,0.30717490000000003,51.620470000000005
433,Skegness,0.12289178325542555,0.02489125860321488,0.8872787773242895,0.337881,53.1464
434,Downham Market,0.27910477609461676,0.013047624669383771,0.7702723399061199,0.385472,52.606609999999996
435,King's Lynn,0.2360316277829559,0.020744672268252332,0.7983551976269339,0.4022963,52.75168000000001
436,Bexhill,0.40777292178076435,0.04687046342808195,0.6327940605787497,0.4662071,50.849909999999994
437,Chelmsford,0.42662679473400444,0.024203304592482676,0.6387036956714495,0.4685497,51.73559
438,Mildenhall,0.43900167354523784,0.040854314760670855,0.6128442441129156,0.5156095,52.347570000000005
439,Medway,0.46311265380301775,0.028592801160515952,0.604625606038913,0.5417860999999999,51.404740000000004
440,Braintree,0.43070809324605763,0.020194634622049647,0.639135710110059,0.5509269,51.88009
441,Gillingham,0.46721687438820864,0.03057224079725181,0.5993911494424499,0.551438,51.38632
442,Hastings,0.4021163154872519,0.044365891667448525,0.6397978379702115,0.573453,50.85426
443,Maldon,0.458110729986165,0.026673203959318784,0.6105404230018229,0.6714479999999999,51.731809999999996
444,Southend,0.45704298239561386,0.020850296913910746,0.6169087495686572,0.7077123000000001,51.54593
445,Bury St Edmunds,0.3118969068065691,0.04395871486446827,0.7142094941842143,0.7104931999999999,52.24292
446,Thetford,0.3275648454923626,0.040344809631160806,0.7047621771071115,0.751657,52.412859999999995
447,Ashford,0.4605336866763111,0.03004810570815241,0.6053691084534727,0.8750190000000001,51.14647
448,Faversham,0.4752220575835225,0.032219199850273855,0.5912690476912464,0.889358,51.31599
449,Colchester,0.41415905813669274,0.03234047183796874,0.6412587415271624,0.891874,51.89593
450,New Romney,0.42753151492683056,0.02334809290744646,0.6387677973251569,0.939473,50.98512
451,Canterbury,0.46942534596542285,0.032568284115524426,0.5956962840616804,1.0789089,51.280229999999996
452,Ipswich,0.3916444365438659,0.034334948387272815,0.6578514737814639,1.14822,52.056740000000005
453,Clacton,0.41874230327072254,0.034980457202311806,0.6350078706850856,1.153035,51.78953
454,Folkestone,0.4661112352073687,0.032755584224036405,0.5982388550446657,1.169456,51.0814
455,Sheringham,0.4045271094447129,0.026173018053024223,0.6549791823162345,1.2109589,52.944419999999994
456,Harwich,0.3931706255971727,0.034190419036837116,0.656735644396268,1.260297,51.93473
457,Norwich,0.39347352442077904,0.030089004482526015,0.6603554686195535,1.297355,52.63089
458,Cromer,0.3949573778083927,0.02905365506140544,0.6601146076153532,1.301866,52.93145
459,Dover,0.46975654653239296,0.03262745507864804,0.5953686747117439,1.3134027,51.12788
460,Felixstowe,0.3916444365438659,0.034334948387272815,0.6578514737814639,1.3512549999999999,51.961729999999996
461,Margate,0.4724166765099039,0.03506797244041175,0.5908838620056448,1.3868339,51.38965
462,Ramsgate,0.46916548450362605,0.03463617498221158,0.5939588221724166,1.4198950000000001,51.33555
463,Great Yarmouth,0.3915857279687886,0.028625927132993674,0.663284568735973,1.728047,52.59823000000001
464,Lowestoft,0.3944872414103624,0.029553372971774333,0.6600288188752117,1.7534490000000003,52.48114
465,Swaffham,0.31072367089984326,0.022986616923990153,0.7349534802399934,0.687481,52.64747
466,Dereham,0.4144701434149911,0.02539667385528756,0.6475529865421072,0.9378270000000001,52.681619999999995
467,Ely,0.47892373849656944,0.04084304216315693,0.5800977032032019,0.262363,52.39954
468,March,0.18472618063295332,0.022765905975915258,0.8385463587381877,0.088622,52.551719999999996
469,St Neots,0.2920155168401219,0.043766592363157025,0.7307041547467658,-0.26510300000000003,52.23008
470,Banham,0.37576552122572277,0.030302776882311658,0.6746837235921338,1.0402849,52.45125
471,Holt,0.4082779090859122,0.02528883131589446,0.6527356244364716,1.086747,52.90936
472,Cromer,0.3949573778083927,0.02905365506140544,0.6601146076153532,1.301866,52.93145
473,Hunstanton,0.1938683454356422,0.026480308247347727,0.8275414098602163,0.49103199999999997,52.93891
474,Horncastle,0.11129040746323995,0.027396054187986674,0.8944355158475026,-0.11245,53.20731
475,Market Weighton,0.08508416260170203,0.018866116274971374,0.9239840751532393,-0.6677465,53.86484
476,Hawes,0.1579452466520324,0.036184834543194364,0.8478641290600434,-2.1968695,54.303830000000005
477,Reeth,0.13910587541853248,0.03406652220242871,0.8653203144282077,-1.9428115000000001,54.38946
478,Aysgarth,0.17345600540773812,0.04541749886007384,0.8264286512129223,-1.9967433999999997,54.29159
479,Stanhope,0.2429805244242877,0.10790268704337205,0.7104449614372897,-2.011302,54.74946
480,Keswick,0.0348146528183039,0.5268607787610915,0.48608610272309205,-3.134706,54.60128
481,Oxenholme,0.2630532435318236,0.10788775186904855,0.6939888770196339,-2.7243327999999996,54.30134
