index,placename,longitude,latitude,needs to be Xed,needs Xed,needs Xing
0,Dingle,-10.264013499999999,52.14094,0.15080412354425726,0.017726562540448656,0.04343168340431513
1,Tralee,-9.6999325,52.27131,0.2319471488932425,0.02928180825329574,0.07559979768671404
2,Killarney,-9.5044265,52.059940000000005,0.36178741572202205,0.045444110341324034,0.12858440942026791
3,Bantry,-9.4539805,51.68035,0.16044370637243835,0.01758702652775535,0.04889277195423067
4,Mayo,-9.4289369,54.01526,0.2059175617829872,0.057534415624772454,0.07291373141646229
5,Ballycastle,-9.3724643,54.279669999999996,0.03820028589809048,0.023486112457554286,0.01
6,Abbeyfeale,-9.2970823,52.386179999999996,0.04600464923365549,0.01,0.01
7,Ennistymon,-9.2934951,52.940369999999994,0.04452591173732454,0.01,0.01
8,Galway,-9.0567905,53.270669999999996,0.4835193237212005,0.07141147182406435,0.1793820563908982
9,Claremorris,-9.0017356,53.72388,0.31876737760252405,0.06297646296241181,0.11893237237780988
10,Clare,-8.9811351,52.90453,0.32006455538402556,0.045454120901085644,0.11548666362913033
11,Adare,-8.7925892,52.56363,0.13939106477772067,0.017256167209185682,0.038565814189676924
12,Charleville,-8.681017599999999,52.36206,0.045643128620240475,0.01,0.01
13,Mallow,-8.6539164,52.13898,0.19675074374277848,0.022434148196522258,0.06428237432860427
14,Limerick,-8.6267343,52.66384,0.45748698998371506,0.05869241473386219,0.16705183428889236
15,Loughrea,-8.5660931,53.19891,0.04545929850928655,0.01,0.01
16,Sligo,-8.476088800000001,54.27661,0.2690057137457596,0.2302453805275208,0.11149660300715339
17,Cork,-8.4756035,51.898509999999995,0.57956039155481,0.059822414751105044,0.22589900239766786
18,Nenagh,-8.19834,52.8635,0.25208594684742924,0.03504850489956824,0.08860773441712468
19,Roscommon,-8.1890955,53.627590000000005,0.26252722732665756,0.05006387754456409,0.08889946127010397
20,Tipperary,-8.161851400000002,52.47379,0.33737610872544965,0.03482424645809141,0.12377195544847507
21,Donegal,-8.1096143,54.653830000000006,0.22785225548033902,0.4176162683880748,0.10926136737727504
22,Leitrim,-8.0020132,54.12469,0.18729288220423454,0.1354235198828752,0.07800844887428822
23,Athlone,-7.9406898,53.423930000000006,0.23707264934887667,0.03862796678690894,0.08717374564844474
24,Longford,-7.7932573000000005,53.727630000000005,0.24389505229894431,0.05164815118354353,0.10126581284377947
25,Offaly,-7.7122229,53.235690000000005,0.3108358442461648,0.039632273062336784,0.13880193024387646
26,Fermanagh,-7.6318728,54.343830000000004,0.10964073616612752,0.227762353135352,0.04710011655142845
27,Enniskillen,-7.631533599999999,54.343819999999994,0.14565462583704933,0.2810143568016268,0.06604450954566507
28,Doon,-7.60964,54.185930000000006,0.09489561161285763,0.13498173368374067,0.03392721485988551
29,Westmeath,-7.4653217000000005,53.534530000000004,0.23584938997382107,0.037333037014515943,0.09514725347609261
30,Strabane,-7.4633103,54.82739,0.1263182455765027,0.35545664871749444,0.0677757037958403
31,Balivanich,-7.3743509000000005,57.472269999999995,0.010231577170139792,0.10784418223934976,0.013935932707470042
32,Cavan,-7.3633319,53.98972,0.23812101381729975,0.14146329757786558,0.10730918769020856
33,Mullingar,-7.340186800000001,53.525819999999996,0.23128881356744455,0.033872786217087794,0.09316371829951423
34,Laois,-7.332300699999999,52.9943,0.3056892004083259,0.03611070983161088,0.12929454333696885
35,Omagh,-7.309959700000001,54.59771,0.1342463452949075,0.377840187661634,0.07389668392943868
36,Derry,-7.308574799999999,54.99661,0.2116491812041868,0.5542513614899623,0.12899334547084249
37,Derry,-7.308574799999999,54.99661,0.2116491812041868,0.5542513614899623,0.12899334547084249
38,Kilkenny,-7.2447879,52.65415,0.3578719468774387,0.0355581339698359,0.1455184048710806
39,Tyrone,-7.131232000000001,54.491209999999995,0.08507016486167686,0.30732342522320405,0.04588480077625434
40,Waterford,-7.110070200000001,52.25932,0.4070280189595886,0.04662769219817289,0.14977591716307811
41,Western Isles,-7.0194034,57.759890000000006,0.07423485003948484,0.2301593333326315,0.06795208140194475
42,Monaghan,-6.9683132,54.2492,0.14939430042015636,0.3575544928736802,0.07523112517651166
43,Carlow,-6.934135899999999,52.83651,0.3289559759477597,0.03426665958077829,0.12560525219301893
44,Kildare,-6.8194707999999995,53.21204,0.4114633590599742,0.04609909073250772,0.1570722789487177
45,Dungannon,-6.7669352,54.508269999999996,0.08085877274952802,0.3336593910707439,0.047285434840561316
46,Cookstown,-6.7443895000000005,54.641819999999996,0.10381877676994168,0.41024308614572064,0.05881743424228581
47,Coleraine,-6.6646103000000005,55.132580000000004,0.15671841712658327,0.5533638134826478,0.10132035385421226
48,Meath,-6.656416900000001,53.60555,0.3621796259505225,0.041986661122260044,0.13418192508473598
49,Armagh,-6.652792,54.350280000000005,0.12270226948048939,0.4157845024766401,0.07274352953602191
50,Armagh,-6.652792,54.350280000000005,0.12270226948048939,0.4157845024766401,0.07274352953602191
51,Magherafelt,-6.607980499999999,54.75536999999999,0.11861704275379402,0.4154595016372153,0.06990441446839726
52,Dunvegan,-6.581398200000001,57.4366,0.01,0.09331819645595495,0.01
53,Louth,-6.4889423,53.925230000000006,0.297624780728462,0.19842997510681373,0.13214294299113533
54,Wexford,-6.4633381,52.33692,0.3776299533764243,0.03683510697031346,0.15649802270775745
55,Craigavon,-6.4175653,54.442930000000004,0.13242579511405733,0.515567163247825,0.07232347720688569
56,Stornoway,-6.384869200000001,58.209430000000005,0.11611896688171693,0.3076631026509805,0.09781466992501414
57,Drogheda,-6.3560985,53.717859999999995,0.27295820126705284,0.032828186451937705,0.09728848895103655
58,Rosslare,-6.3414908,52.25131,0.04300321208601521,0.01,0.01
59,Newry,-6.34023,54.1751,0.1804059078965192,0.3866791932783719,0.08555234802978758
60,Scilly Isles,-6.327496599999999,49.92773,0.09471958604041156,0.013920699890249686,0.19132246334784234
61,Ballymena,-6.2802213,54.86529,0.1314365585209992,0.4861610980111788,0.0715759250361145
62,Banbridge,-6.2704803,54.34873,0.10523691816401537,0.4508859197801321,0.04726109280585096
63,Dublin,-6.2603097000000005,53.34981,0.8020053913649887,0.09414581021664087,0.3186296465581877
64,Antrim,-6.2072498,54.719530000000006,0.15003699372317175,0.530178325082193,0.0708887655978024
65,Antrim,-6.2072498,54.719530000000006,0.15003699372317175,0.530178325082193,0.0708887655978024
66,Portree,-6.1960231,57.41246999999999,0.11002553833427305,0.30205851446508847,0.09850083621536186
67,Islay,-6.177067,55.73625,0.0719590424352265,0.29262383600481895,0.05123701422001987
68,Wicklow,-6.044589,52.980819999999994,0.36506056673698123,0.03993505434943143,0.132387552985441
69,Kilkeel,-6.007004,54.06312,0.09688900204932875,0.23839105754571668,0.03304249994620372
70,Mull,-6.0008870000000005,56.4392,0.07677907478979017,0.2898936270750676,0.04988887414418234
71,Belfast,-5.93012,54.597280000000005,0.31902751062082835,0.9668288205762756,0.15651243094690373
72,Broadford,-5.9096592,57.24139,0.01,0.09260513097215,0.01
73,Down,-5.7156921999999994,54.32875,0.15953857600723423,0.5236261648500425,0.06981226814689287
74,Kyle of Lochalsh,-5.7143293,57.28261,0.01,0.09276877148333297,0.01
75,Campbeltown,-5.605373999999999,55.424119999999995,0.06563603195992385,0.35247424003442884,0.051976169377920635
76,Penzance,-5.537592,50.1188,0.1858858451726743,0.024672309742845476,0.339819866903714
77,Oban,-5.471047,56.41516,0.10917868006323227,0.41427681904377506,0.07672859831802299
78,Lochgilphead,-5.4323449,56.03829,0.05378198306464155,0.2673318925162828,0.03177670777185394
79,Helston,-5.274996,50.10159,0.12815496399121537,0.016866918029667492,0.24765537816431674
80,Redruth,-5.226666000000001,50.23302,0.14971541487747278,0.023373853700973297,0.2778774631949738
81,Ullapool,-5.161313,57.895419999999994,0.07671649727902079,0.2283636934023551,0.06668614143916825
82,Ballachulish,-5.133719999999999,56.673930000000006,0.01,0.1069844507700836,0.01
83,Fort William,-5.1052179,56.81981999999999,0.13360013204679888,0.25808283801470355,0.12198008271202147
84,Achnasheen,-5.078765799999999,57.578590000000005,0.01,0.09253906020925755,0.01
85,Newquay,-5.0737190000000005,50.4155,0.17998815326985768,0.027491375422956564,0.32658649794362804
86,Falmouth,-5.066269999999999,50.152570000000004,0.19742209947796002,0.027824193582539576,0.3573307916031669
87,Rothesay,-5.055793,55.83596,0.10327999549766217,0.4022298731095536,0.05844633710988583
88,Truro,-5.051041000000001,50.2632,0.2930959113700273,0.046138046512871074,0.5038213388172937
89,Milford Haven,-5.0426971,51.71431,0.14978095869005312,0.0183673919709263,0.18729102649560403
90,Stranraer,-5.024055000000001,54.903369999999995,0.09599551622085126,0.38563011496854516,0.04441514041286035
91,Fishguard,-4.975989,51.99393,0.10516242764577112,0.011222596604779455,0.15143591964672545
92,Inchnadamph,-4.974295,58.15221,0.01,0.09352945951181017,0.01
93,Haverfordwest,-4.971319,51.800470000000004,0.1656927736719068,0.0215636447076715,0.2145404074758994
94,Dunoon,-4.926214,55.95097,0.09295405683120209,0.36589099349394166,0.04773636465131359
95,Pembroke,-4.908637000000001,51.674040000000005,0.2429589839213065,0.030145029322857383,0.25308689876812746
96,Girvan,-4.8542179,55.240159999999996,0.06961809868881765,0.3941885977191849,0.047764592097600415
97,Wadebridge,-4.836456,50.51665,0.14603028917111543,0.019205652290830155,0.26391596461176164
98,Invergarry,-4.800261,57.07095,0.01,0.08464875784975587,0.01
99,St Austell,-4.7834252,50.340379999999996,0.16275248904492298,0.02134462162952461,0.28711793887536396
100,Greenock,-4.7719830000000005,55.956480000000006,0.17077784972152152,0.569264050928395,0.08972227583462805
101,Helensburgh,-4.734014,56.00232,0.1020256477779369,0.387029671867602,0.05093777092793783
102,Bodmin,-4.7188629,50.4715,0.13304369833567212,0.016550615428873587,0.24299638124808487
103,Tenby,-4.703579,51.672740000000005,0.1808549450143457,0.02098964623561685,0.1927800910937007
104,Camelford,-4.682364,50.62206,0.09009457782369212,0.010468096496229356,0.17792114157932068
105,Irvine,-4.6696364,55.61156999999999,0.16879229236165094,0.6361298421704191,0.10781961153506604
106,Cardigan,-4.660864,52.0837,0.13011715052767198,0.011823023481261723,0.18937876566166292
107,Holyhead,-4.633038,53.30944,0.11191406468923148,0.04808511891236964,0.23242996231935972
108,Ayr,-4.629179,55.45856,0.17093709584570724,0.719314317907772,0.11663603302526143
109,Dumbarton,-4.564554,55.94529,0.16399416309244072,0.5349934253804953,0.0778322026458308
110,Bude,-4.543678,50.826640000000005,0.14111396540917748,0.023770521815145024,0.2512781255105224
111,Isle of Man,-4.5126330999999995,54.27697,0.18796325568910424,0.42481305834394856,0.23320337452460974
112,Kilmarnock,-4.498792,55.61472,0.16384426389161288,0.6063628280801768,0.09095903302535122
113,Newton Stewart,-4.483164,54.9603,0.05841102677835803,0.3216464360217563,0.04598378011932045
114,Liskeard,-4.4647190000000005,50.45552,0.14614620208089632,0.01689791344808027,0.2628587428884489
115,Altnaharra,-4.442655,58.28023,0.01,0.09336578173729021,0.01
116,Pwllheli,-4.417633900000001,52.888819999999996,0.11199574192193638,0.03658607294537164,0.19970173481801967
117,Lairg,-4.402414,58.022059999999996,0.01,0.09437683639417702,0.01
118,Launceston,-4.360451599999999,50.636829999999996,0.13514613552807797,0.014365885117287118,0.23676955924670764
119,Carmarthen,-4.312131,51.857620000000004,0.2334583897932336,0.030212836924719752,0.24575435174445195
120,Llangefni,-4.311401999999999,53.255790000000005,0.15536050889822303,0.060637601384448736,0.3044798073035823
121,Caernarfon,-4.273911,53.13955,0.1467878822599112,0.06203411157558732,0.2809117214799892
122,Cumnock,-4.265828900000001,55.45355,0.11650535796614264,0.4785369079631649,0.0692297730230069
123,Aberaeron,-4.2581619,52.24279,0.11372763956983964,0.015624853295823039,0.17839835228861758
124,Alness,-4.256825,57.69595,0.11607299549083619,0.3069797996538748,0.09231419345769731
125,Glasgow,-4.251806,55.86424,0.442222046690634,1.0,0.24005452901188168
126,Dalwhinnie,-4.242783,56.9366,0.01,0.08969283493462994,0.01
127,Inverness,-4.224721,57.47776999999999,0.21631082318435446,0.5006914589295862,0.17124445798518764
128,Saltash,-4.21643,50.409209999999995,0.13753631957123674,0.014486085457791818,0.2404613989892328
129,Bideford,-4.206666,51.01668,0.1561910576086386,0.02385165437081729,0.2761285264006142
130,Invergordon,-4.1728819999999995,57.688109999999995,0.11882387011470279,0.3106930342031423,0.09267543271039178
131,Llanelli,-4.160248,51.680890000000005,0.27098865969933844,0.03222818473314385,0.2772935520263213
132,Plymouth,-4.1426565,50.37546,0.33313791323168734,0.03557086262070325,0.5126178291789925
133,Tavistock,-4.141654,50.551120000000004,0.16059357909388725,0.015723550639126622,0.27527540146229934
134,Porthmadog,-4.1333839999999995,52.92784,0.13092206914253285,0.06593920611079782,0.24716599360882244
135,Bangor,-4.129263,53.22739,0.20418154405327468,0.07980201958889643,0.38381873042865183
136,Tywyn,-4.087249,52.58701,0.0838779036896817,0.012783963714217257,0.14628557520983648
137,Aberystwyth,-4.08292,52.4153,0.21546709475442186,0.04050351654494214,0.3228517291488407
138,Lampeter,-4.0785089999999995,52.1129,0.1330809138462239,0.013539532585609719,0.18882611563825674
139,Barnstaple,-4.058338,51.07816,0.20581383850228935,0.0320603225486951,0.34969876561126834
140,Tain,-4.05523,57.8115,0.07694961422279467,0.22729412898052176,0.05844978578306296
141,Okehampton,-4.004263,50.73831,0.11277624984834637,0.017947100698212714,0.20635378154135897
142,Llandeilo,-3.9914300000000003,51.88469,0.18795369640220969,0.023982955429175914,0.22370174070210047
143,Motherwell,-3.9810968,55.78321,0.22684402227755054,0.7146202512412428,0.12401400389805718
144,Golspie,-3.976086,57.97341,0.01,0.09442518700712582,0.01
145,Airdrie,-3.9625660000000003,55.86626999999999,0.17992377311724056,0.6436231304221962,0.11009830784195708
146,Swansea,-3.9436459999999998,51.62144,0.42205295852483915,0.05122465261906544,0.4157566073851038
147,Stirling,-3.9369029,56.116519999999994,0.2052389555004207,0.63060030923471,0.1462689631754628
148,Tregaron,-3.934385,52.22,0.12511719214477562,0.02029584777565265,0.18680805589182847
149,Tregaron,-3.934385,52.22,0.12511719214477562,0.02029584777565265,0.18680805589182847
150,Castle Douglas,-3.9314139999999997,54.940419999999996,0.06633159993105492,0.26502410766655665,0.11826430211297735
151,Dolgellau,-3.8844,52.74215,0.08714636350888594,0.012068013659330855,0.1610848029421377
152,Aberfeldy,-3.866969,56.62175,0.10911771521122388,0.3187320062966598,0.09440214527551405
153,Machynlleth,-3.853485,52.59027,0.11707228337055867,0.021171266279501604,0.18309974181577
154,Brora,-3.8525480000000005,58.012159999999994,0.06040348566124566,0.20391549603637452,0.04597101375032411
155,Llandudno,-3.827609,53.324059999999996,0.16319844760917776,0.06035812237977966,0.3448537668679789
156,Llandudno,-3.827609,53.324059999999996,0.16319844760917776,0.06035812237977966,0.3448537668679789
157,Aviemore,-3.823812,57.19449,0.10929647250937427,0.24977255137024698,0.09108038773531758
158,Dalbeattie,-3.8225269999999996,54.934219999999996,0.04265512028878356,0.20107741888399971,0.0911797609095933
159,Falkirk,-3.7839131,56.00188000000001,0.1998725135274473,0.6635851795819743,0.13433883790039627
160,Kingsbridge,-3.777493,50.28395,0.13957564528535618,0.020179375055460285,0.2531827785538805
161,Pitlochry,-3.729711,56.70436,0.07168905441679148,0.28875213935546834,0.03931253054342984
162,Colwyn Bay,-3.72764,53.29318000000001,0.1465510470826835,0.057201595860509824,0.32322620004539926
163,Totnes,-3.685797,50.43374,0.1488734094890425,0.021707778812939695,0.25745613482887875
164,Grantown-on-Spey,-3.609628,57.33041,0.06864841264305803,0.21415576983155082,0.053228449236917934
165,Dumfries,-3.60512,55.070859999999996,0.13011896506100382,0.4014182587311903,0.2083547626244582
166,Whitehaven,-3.589233,54.5497,0.12851349086887473,0.2519435789226311,0.2198680238583895
167,Dartmouth,-3.578807,50.35252,0.12166203769227658,0.01760878026860016,0.21524831786801515
168,Bridgend,-3.576945,51.504290000000005,0.28300301380193116,0.043615402654764594,0.3806788048261139
169,Paignton,-3.564235,50.43508,0.21764553768344927,0.035741885926789764,0.3550874864810457
170,Workington,-3.5427519999999997,54.64357,0.11378542325377558,0.3138171426654278,0.1937749478674317
171,Llanidloes,-3.5401949999999998,52.447790000000005,0.1018468046336213,0.016003615870513514,0.16714938604562019
172,Exeter,-3.533899,50.71841,0.3392401103863189,0.06768844300819934,0.5625558120648444
173,Torquay,-3.525315,50.46192,0.22135079349997458,0.03639599658773342,0.3658366786458177
174,Thurso,-3.5220800000000003,58.59356999999999,0.10774404408133001,0.2969516268366771,0.07899582957801965
175,Livingston,-3.518068,55.90071,0.2129378423879511,0.6305806512474091,0.12374842501426529
176,Rhyl,-3.4916339999999995,53.319140000000004,0.13454098876506826,0.016892214989556533,0.3588031131236487
177,Tiverton,-3.491207,50.90205,0.15512006076401372,0.02667963698484423,0.27189285274284597
178,Tiverton,-3.491207,50.90205,0.15512006076401372,0.02667963698484423,0.27189285274284597
179,Minehead,-3.481152,51.20428,0.13431153248947497,0.021213591105424943,0.19811574765689718
180,Dunfermline,-3.452151,56.071740000000005,0.16748730202263531,0.6786754486410873,0.11843405450766417
181,Perth,-3.4308381000000003,56.39499,0.11376021963614627,0.46973350932426167,0.06753703446593232
182,Prestatyn,-3.4076129999999996,53.33651,0.11427052517747273,0.012362031315085719,0.31200191849627334
183,Builth Wells,-3.4045919999999996,52.15002,0.1556600855666303,0.013284412638070283,0.20375122212043117
184,Braemar,-3.3979439,57.00646999999999,0.01,0.08585721933395898,0.01
185,Brecon,-3.391463,51.94895,0.19332158663844193,0.020023813265058785,0.220460930424654
186,Merthyr Tydfil,-3.381646,51.74873,0.3453320813416823,0.04333796160077378,0.39932426573792135
187,Llandrindod Wells,-3.377742,52.2417,0.13384580729787182,0.01857615763969233,0.17810302308562587
188,Corwen,-3.369242,52.98005,0.06502985216778248,0.01,0.20702039977048006
189,Cockermouth,-3.367985,54.66326,0.08203168496026604,0.2462169033924045,0.1506058838773049
190,Lockerbie,-3.349008,55.122240000000005,0.11771000626551623,0.339268724063381,0.196560135325083
191,Blairgowrie,-3.3378318,56.58941,0.09319316936747016,0.3547830832584058,0.06049221264797112
192,Elgin,-3.318485,57.64945,0.1931785937258046,0.45695574114454574,0.15489144449715647
193,Newtown,-3.313106,52.51211,0.08990130060201135,0.013177145383775325,0.20608404773717592
194,Ruthin,-3.3103108,53.114869999999996,0.11461170837948909,0.01,0.30609544228515684
195,Ruthin,-3.3103108,53.114869999999996,0.11461170837948909,0.01,0.30609544228515684
196,Sidmouth,-3.2375599999999998,50.67865,0.13994889042922543,0.030607091111214048,0.25078466005260414
197,Barrow-in-Furness,-3.2188939999999997,54.10896999999999,0.17401932242834742,0.02781635753639295,0.4219379754484897
198,Peebles,-3.1936419999999996,55.65306999999999,0.14154001146451217,0.27283751315435023,0.07614462121217414
199,Edinburgh,-3.1882669999999997,55.95325,0.4183064319079035,0.8297487870303273,0.26817905981994467
200,Cardiff,-3.17909,51.48158,0.5141488145525074,0.056466426754759144,0.5461409364890164
201,Llangollen,-3.1716599999999997,52.96921,0.08330461087825303,0.01,0.2508083810223599
202,Kirkcaldy,-3.158137,56.11682,0.24172704953738952,0.5820034550982413,0.1589234429198387
203,Welshpool,-3.146407,52.66035,0.12591577044805896,0.01,0.2817772160135801
204,Mold,-3.1419029999999997,53.1672,0.17235441080353622,0.01513746839895439,0.41263009069372386
205,Mold,-3.1419029999999997,53.1672,0.17235441080353622,0.01513746839895439,0.41263009069372386
206,Taunton,-3.106849,51.01534,0.23623044791203304,0.04411331332123145,0.3711703153225963
207,Wick,-3.093716,58.43894,0.10301607399765525,0.28033330826368874,0.0743986204555854
208,John o' Groats,-3.0688997000000002,58.63734,0.01,0.09518384275053185,0.01
209,Dalkeith,-3.066606,55.893119999999996,0.2099827686208308,0.464671636443559,0.13032068205785233
210,Oswestry,-3.056412,52.85715,0.15284806763668046,0.013249932720143043,0.36254061124551723
211,Blackpool,-3.0356748,53.81751,0.23103538536615706,0.03754206414377072,0.6158697647152516
212,Birkenhead,-3.023009,53.389990000000004,0.24120747149884528,0.035773256906492946,0.5804911128193362
213,Cupar,-3.010137,56.32023,0.0827386721139677,0.40680706398271965,0.05575503050278116
214,Southport,-3.010113,53.64571,0.18817951798019292,0.026591339336931006,0.5156514796906638
215,Bridgwater,-3.003632,51.12789,0.28142598522195966,0.04576366866399872,0.4274008174912123
216,Langholm,-2.998913,55.153059999999996,0.0501631493490729,0.17988741486847223,0.100890534212456
217,Newport,-2.997664,51.58415,0.3347831177763877,0.03345329303331721,0.4358896222733082
218,Axminster,-2.9949369999999997,50.78273,0.1609793836327251,0.038782166559642686,0.24692803081206563
219,Wrexham,-2.9924939999999998,53.043040000000005,0.20416948272582666,0.023342894646189844,0.4864719307983838
220,Liverpool,-2.9915726,53.40837,0.37793523389921907,0.05752096114419463,0.8747155743527271
221,Weston-super-Mare,-2.977255,51.347409999999996,0.29405975335378726,0.03417607400269061,0.3274619902180014
222,Dundee,-2.9707209999999997,56.462019999999995,0.23063656931181203,0.7593906130845332,0.14221686890812762
223,Kirkwall,-2.9622491,58.984669999999994,0.1082861265514682,0.29703034302965153,0.07866645100497785
224,Ambleside,-2.961333,54.428740000000005,0.14731700075762758,0.1535750454938463,0.3048462106300656
225,Orkney Islands,-2.9605206,58.980940000000004,0.11197522203987587,0.304145959870779,0.08135917707923461
226,Lyme Regis,-2.936639,50.725159999999995,0.14254110940017753,0.03123221816110348,0.22999151192684156
227,Carlisle,-2.932931,54.892469999999996,0.20806080413695988,0.4554736737960417,0.3198937270197925
228,Chester,-2.893075,53.19339,0.2568571850400287,0.02610760995224642,0.588880319196771
229,Forfar,-2.889062,56.64356,0.1258448747510871,0.4288775757909899,0.07601590000500656
230,Morecambe,-2.864968,54.074169999999995,0.15535719988702199,0.021531989864083112,0.35222522328594774
231,Selkirk,-2.838524,55.55066,0.12036886290346532,0.4298698663082883,0.09893564584389751
232,Galashiels,-2.814449,55.62373,0.10731945388575247,0.4337662287955256,0.08566211639223274
233,Lancaster,-2.8007399,54.046569999999996,0.22337601309591631,0.028867609045174797,0.46434589682039185
234,St Andrews,-2.7967214,56.339780000000005,0.12776796749841143,0.5164892115628862,0.08527058200057626
235,Hawick,-2.780914,55.42706,0.10991499943375456,0.2843509812969071,0.1224496672665443
236,Bridport,-2.758301,50.733579999999996,0.14875255495168152,0.02967109171660705,0.2422327745846787
237,Shrewsbury,-2.7553267999999997,52.7073,0.2652563575225377,0.047395983166740104,0.5135399271373213
238,Penrith,-2.752708,54.6641,0.17487874329133923,0.3103584391688778,0.3488358460076831
239,Kendal,-2.74629,54.32801,0.1959828456145212,0.07994301843211578,0.37632863571297626
240,Street,-2.7429189999999997,51.12468,0.12091016001231882,0.01751084031030576,0.19982482636382887
241,Glastonbury,-2.718454,51.14743,0.14496725729125637,0.020492159110396892,0.23999602986539886
242,Hereford,-2.715974,52.0564,0.25101351640287134,0.03845898477658813,0.4073974537550944
243,Ludlow,-2.7139129,52.36775,0.15892784393462014,0.027492856828267992,0.3038605565528208
244,Preston,-2.70309,53.7632,0.2692054615208387,0.03726399330348176,0.6908360964323613
245,Whitchurch,-2.682045,52.96872,0.10569314594387347,0.01,0.3028145203103386
246,Wells,-2.6445979,51.20935,0.16980885311625674,0.02021052981221303,0.2742968794093247
247,Yeovil,-2.633308,50.94206,0.223804111351351,0.041098732043168926,0.3337245188016681
248,Wigan,-2.6325074,53.54506,0.25866804975831387,0.03749662105319995,0.7687101767773664
249,Warrington,-2.5969501,53.39004,0.27075825536750653,0.04191218066483787,0.789789714077168
250,Arbroath,-2.591543,56.55911,0.13427805277535676,0.48284670967656607,0.07847516198415176
251,Bristol,-2.58791,51.45451,0.4881956227735889,0.07156747056183285,0.6358888800215098
252,Guernsey,-2.5852779999999997,49.46569,0.015043754781286379,0.01,0.04888918127733264
253,Ross-on-Wye,-2.582446,51.91445,0.18807649587827346,0.032660012667241195,0.3336441992487179
254,Jedburgh,-2.5549369,55.47772,0.07927175764980139,0.2280133604811681,0.10601396590503286
255,Sedbergh,-2.5281740000000004,54.32363,0.09982290434892514,0.04034491051361343,0.21784210665717746
256,Sedbergh,-2.5281740000000004,54.32363,0.09982290434892514,0.04034491051361343,0.21784210665717746
257,Nantwich,-2.524102,53.067190000000004,0.14158196882387425,0.01562845834262566,0.3772586739503074
258,Banff,-2.524038,57.666509999999995,0.11104067738112275,0.2751554564722008,0.06846624037157349
259,Dunbar,-2.516737,56.00209,0.16559394683000037,0.4426983450443225,0.11382740087078078
260,Cinderford,-2.5009579,51.8253,0.1776752894053685,0.026227162659154705,0.3063821321336032
261,Banchory,-2.4909599,57.05386,0.1361224293946738,0.32418161346300634,0.08106092358316422
262,Blackburn,-2.487529,53.748580000000004,0.2062531426979211,0.030065573349797984,0.5793845619586621
263,Market Drayton,-2.483485,52.90355,0.09241175106160247,0.013668038732209072,0.2446376014185386
264,Telford,-2.4672611,52.67759,0.24658444762164566,0.029451064507487044,0.44141998404063815
265,Montrose,-2.4661150000000003,56.70692,0.13957526544720011,0.3873634084012769,0.07541765862567776
266,Turriff,-2.4623,57.53893000000001,0.11790842797350459,0.2894702954551715,0.07157829027454339
267,Weymouth,-2.457621,50.61443,0.2207622413816726,0.029550962452846462,0.30847332525648646
268,Crewe,-2.4438209,53.10041,0.1880600063827623,0.02091149369952857,0.48473037220912996
269,Fortuneswell,-2.4422189999999997,50.55919,0.11559830978140313,0.017230247323559232,0.16890026125553437
270,Dorchester,-2.4411810000000003,50.71116,0.2766833858244514,0.03684715999168642,0.39618574613110696
271,Alston,-2.438685,54.812169999999995,0.045763561605673,0.12878834439566342,0.1282539755637154
272,Kelso,-2.432207,55.600030000000004,0.09723238953358171,0.27695045907557847,0.12609420853188086
273,Wincanton,-2.416007,51.055690000000006,0.12554893856847651,0.013101528656584071,0.2260959658186637
274,Clitheroe,-2.3930830000000003,53.8711,0.13983373103858632,0.026023934974258745,0.3896241320286118
275,Sark,-2.3666256000000003,49.43007,0.015724458291218477,0.01,0.046811887434034305
276,Bath,-2.3590167,51.38106,0.3432592724214919,0.050683438538383065,0.46038433883511254
277,Kidderminster,-2.2496839,52.3886,0.1995753396840607,0.013158209792912063,0.3799403833693858
278,Manchester,-2.2426305,53.48076,0.48076832802320835,0.07959904658494102,1.0
279,Burnley,-2.2405035,53.78929,0.19929358584410778,0.03134965282315281,0.519294708742766
280,Gloucester,-2.238156,51.86424,0.30573195453981444,0.053801198078183704,0.5137644964064055
281,Newcastle-under-Lyme,-2.2273002,53.01321,0.17462053970020655,0.023777342988024874,0.4213514862502848
282,Worcester,-2.221575,52.19364,0.30823791513843163,0.0357373958913743,0.5329635704858071
283,Trowbridge,-2.208853,51.31966,0.31996914032497065,0.03811695939639405,0.4663194238171032
284,Shaftesbury,-2.198083,51.0046,0.133501748300773,0.02040006368551472,0.26074192522554673
285,Alderney,-2.1973557,49.715,0.01528817515355313,0.01,0.04741999383134752
286,Stoke-on-Trent,-2.179404,53.002669999999995,0.2608586067196552,0.0362376259338123,0.5796901489446924
287,Colne,-2.176991,53.85564,0.11710983468359443,0.014450548330839141,0.40227780037340755
288,Blandford Forum,-2.165353,50.85691,0.1332293065683386,0.022373070327287362,0.1971123818153615
289,Rochdale,-2.1561,53.60971,0.22552804537707533,0.03590041502124978,0.640952933960229
290,Jersey,-2.13125,49.21444,0.014211300614775,0.01,0.04894887717048247
291,Wolverhampton,-2.12882,52.586969999999994,0.280792817239131,0.018653654645466825,0.5007069176755709
292,Stafford,-2.12066,52.80669,0.26831789631802244,0.041033096168968594,0.5046131723735982
293,Macclesfield,-2.119287,53.25866,0.1994828404849214,0.03736537401037713,0.5486792656196036
294,Hexham,-2.1121439,54.97266,0.2145555151480451,0.16472278806051718,0.32737319703626533
295,Aberdeen,-2.094278,57.149719999999995,0.3148357371414979,0.646866441512267,0.1876063227392423
296,Dudley,-2.081112,52.51226,0.2720080352621883,0.0161684620826531,0.479704658053366
297,Cheltenham,-2.0782533,51.899390000000004,0.2912749200843928,0.053683037546142426,0.4796439398631851
298,Bromsgrove,-2.061906,52.33559,0.22679774880853212,0.01884733900131692,0.4186123376344294
299,Skipton,-2.0162787,53.96285,0.12111547548866763,0.015896662854402655,0.3949136367090742
300,Fraserburgh,-2.007631,57.69335,0.1244917650298972,0.3011444963505057,0.07583038883567589
301,Berwick,-2.005395,55.77024,0.11244991269648574,0.3357959550227785,0.13367475097546913
302,Poole,-1.987248,50.71505,0.2762882364759528,0.047369303948764194,0.3819656028496797
303,Walsall,-1.9829189999999999,52.586209999999994,0.2750819853201751,0.01751538412350036,0.4880618995265814
304,Cirencester,-1.968243,51.71849,0.2834275269036459,0.043917604114285136,0.42383005204436686
305,Evesham,-1.9467700000000001,52.09215,0.1798757917081641,0.026847559781016658,0.3312852108361562
306,Buxton,-1.91483,53.259080000000004,0.13944299077064384,0.03397141937922715,0.47941483833639503
307,Keighley,-1.9123580000000002,53.8678,0.1733459750205729,0.015138449551991841,0.4590174128205363
308,Birmingham,-1.8904009999999998,52.48624,0.5247910094911044,0.0507129841662344,0.7618739349533634
309,Bournemouth,-1.880769,50.719159999999995,0.3375400372567361,0.057141326444276705,0.46833020115650426
310,Halifax,-1.8575400000000002,53.727019999999996,0.15923500910797253,0.01643746270782104,0.4679658090088481
311,Salisbury,-1.794472,51.06878,0.21402035503104055,0.03097515023927677,0.4270539253644141
312,Ringwood,-1.7888169999999999,50.84495,0.21049952687590884,0.037892246772318436,0.31535697168193794
313,Huddersfield,-1.7850351000000002,53.645790000000005,0.2101741219629057,0.020097438000739598,0.6628245775793459
314,Peterhead,-1.784066,57.50812,0.15383317851348144,0.35261047202379175,0.09514974770041804
315,Swindon,-1.7797176,51.55577,0.3022332389669088,0.051800941898704114,0.43991721439213044
316,Bradford,-1.759398,53.79598000000001,0.26095072795566726,0.02366916585715185,0.6680699567405908
317,Ashbourne,-1.7321790000000001,53.016630000000006,0.2236365087368691,0.028923688129288097,0.49330857303573594
318,Marlborough,-1.7270619999999999,51.42007,0.1799129669976441,0.022480279631235417,0.29913534237880335
319,Stratford-upon-Avon,-1.7082979999999999,52.19173,0.21468423345232274,0.02077920429446383,0.40971016200414684
320,Alnwick,-1.7062990000000002,55.41274,0.14185739540969813,0.15339010331787184,0.2037696333064663
321,Otley,-1.691786,53.90583,0.13680662512177574,0.018509919352310205,0.3464742404181205
322,Bishop Auckland,-1.6787880000000002,54.663819999999994,0.16120759367057041,0.043151495813264586,0.3669166928185694
323,Burton upon Trent,-1.6371358999999999,52.81403,0.20584981068306737,0.03282525264454029,0.4766736109889678
324,Newcastle,-1.61778,54.97825,0.3550258110029932,0.46954443913172766,0.5307593988154499
325,Durham,-1.5848520000000001,54.77525,0.25054750063643244,0.0783590086588833,0.5161612762888358
326,Ashington,-1.5659829,55.18298000000001,0.14952952116852963,0.21533759918979498,0.2302877988144313
327,Darlington,-1.559458,54.52361,0.17579974022797745,0.02509997976152721,0.4980691604842817
328,Leeds,-1.5490774,53.80076,0.36638431681090844,0.05372610342158004,0.8226221254122109
329,Harrogate,-1.5418120000000002,53.99211999999999,0.28000740178057987,0.03909955100618875,0.515087751202928
330,Leamington Spa,-1.5200789,52.28519,0.2817510383329709,0.03535599969533769,0.4948746427930202
331,Coventry,-1.519693,52.40682,0.3360614861348113,0.037337532684901725,0.545244998518684
332,Blyth,-1.510277,55.12696,0.15706099250926536,0.22971878062641832,0.2413300969136923
333,Wakefield,-1.505924,53.6833,0.18119455231371231,0.016156494108607204,0.6221493654918032
334,Andover,-1.4919233,51.2112,0.21890632266544918,0.026667476698041318,0.33290833271260334
335,Witney,-1.4850543999999999,51.785940000000004,0.22840888432515435,0.029943073265135327,0.323594433414012
336,Barnsley,-1.479726,53.55263000000001,0.17068208553599667,0.018179598912260165,0.619206827506431
337,Derby,-1.4746186000000001,52.92253,0.2634450021082745,0.04236252475901444,0.6241884474058588
338,Sheffield,-1.470085,53.381130000000006,0.30545539906474584,0.04023977164275526,0.8487996587286923
339,Nuneaton,-1.465382,52.52049,0.28617926348904504,0.031896369391939704,0.449578709333499
340,Northallerton,-1.429959,54.337959999999995,0.1178678169719798,0.016544970665482647,0.34446410782712644
341,South Shields,-1.427406,54.99941999999999,0.21302946753227994,0.27117695959943794,0.34850429037651764
342,Chesterfield,-1.421629,53.23505,0.19974179441114961,0.01851602386786557,0.5576540487064937
343,Southampton,-1.4043508999999998,50.9097,0.4349254498571135,0.04136457386270416,0.5883024056858618
344,Wetherby,-1.384816,53.92706,0.12845724735071742,0.019249694087819513,0.31849254407103145
345,Sunderland,-1.383801,54.90687,0.2470081659034193,0.21743967806436926,0.43397749191656493
346,Rotherham,-1.3635008999999998,53.4326,0.1996111656104601,0.02656728319708267,0.5840822625226801
347,Castleford,-1.345968,53.72346999999999,0.1496855187045805,0.018385538916543515,0.519028708531768
348,Thirsk,-1.341377,54.23385,0.12172942586561245,0.021205869429478136,0.2804861174211955
349,Banbury,-1.339775,52.0629,0.21144777396986356,0.027448098079990456,0.371621275827038
350,Stockton,-1.3289821000000002,54.57046,0.17686478857477853,0.022779371955265918,0.5093508978528226
351,Newbury,-1.3231138999999998,51.40141,0.29863122807137826,0.024528199806698285,0.4136292979318202
352,Isle of Wight,-1.304734,50.69385,0.28122726231288164,0.03417881020176302,0.3798857135847685
353,Isle of Wight,-1.304734,50.69385,0.28122726231288164,0.03417881020176302,0.3798857135847685
354,Abingdon,-1.2879528999999998,51.67078,0.24159588629379175,0.03315173123498302,0.34560787911473817
355,Shetland Islands,-1.2659409,60.52965,0.06173039811908152,0.2038358590665546,0.044085831763474276
356,Rugby,-1.265032,52.37088,0.25375032481248566,0.028361799484745362,0.437569017642871
357,Oxford,-1.2577263,51.75202,0.40136800175999804,0.059725320264471415,0.5624397213619748
358,Middlesbrough,-1.234956,54.57423000000001,0.2200576145518593,0.02896171278858062,0.6159068578881338
359,Hartlepool,-1.212926,54.69174,0.16720529456492517,0.021568061062539036,0.4857075340762163
360,Loughborough,-1.206166,52.7721,0.27608228160081255,0.03662130228871145,0.5000663217892332
361,Mansfield,-1.198674,53.1472,0.17372299526677745,0.015241181214990707,0.5268802490594714
362,Nottingham,-1.1581086,52.95478000000001,0.36740111309293394,0.03618587145612635,0.7537254107373217
363,Bicester,-1.1535898999999998,51.8996,0.19283383388254166,0.029577252775292946,0.2785980488894719
364,Leicester,-1.1397591999999999,52.636880000000005,0.35816052399933446,0.046889947014615616,0.5997851233846375
365,Doncaster,-1.128462,53.522819999999996,0.1929098029859916,0.027544200341560653,0.6293131098214395
366,Worksop,-1.122745,53.3093,0.12484766918006027,0.01792193001796017,0.4446168621481769
367,Basingstoke,-1.0923964,51.26654,0.2771907141464227,0.03640418694555095,0.3727204410356322
368,Portsmouth,-1.0879769,50.81977,0.38723321517008863,0.05553209008697892,0.5015481022211832
369,York,-1.0872979,53.95997,0.28692077111900255,0.03558489903263051,0.6451225620398214
370,Selby,-1.067189,53.783519999999996,0.13794112293667202,0.015588173635229213,0.3767716888928657
371,Helmsley,-1.0562636,54.24651,0.05945128819766859,0.01,0.17642122052528308
372,Towcester,-0.9896879999999999,52.13511,0.18075049865840664,0.03234792818561006,0.31996364817369893
373,Reading,-0.9781303,51.45426,0.3668599338778474,0.03527952959868981,0.5088348868752789
374,Retford,-0.9455030000000001,53.32136,0.108134861376763,0.01,0.34712162197436996
375,Petersfield,-0.93899,51.00759,0.19992881761189266,0.024899966696737254,0.25257212257900463
376,Northampton,-0.9026559999999999,52.24048,0.29734678513039925,0.05173918942566537,0.5709021109729889
377,Melton Mowbray,-0.887126,52.7664,0.1689808584148318,0.01,0.34157958639782593
378,Aylesbury,-0.8084,51.81561,0.31455436315444324,0.028697541737714976,0.4073579648884532
379,Newark-on-Trent,-0.80657,53.070040000000006,0.19479152439104044,0.01924838197233217,0.5002250657557323
380,Malton,-0.7978970000000001,54.13684,0.11876630636724063,0.015843822858854783,0.3210577718850627
381,Chichester,-0.774936,50.83761,0.24527796706547952,0.03460037778843668,0.3328478244748046
382,Gainsborough,-0.774465,53.400580000000005,0.09874053865858574,0.01,0.3447317306165082
383,Milton Keynes,-0.7594171,52.040620000000004,0.35292964130286036,0.04965196039793527,0.46554326599341284
384,Aldershot,-0.7557509,51.24837,0.31206431547312835,0.049197656369956155,0.4050459118886404
385,High Wycombe,-0.748229,51.628609999999995,0.29281899690854407,0.01854180130984907,0.38571770367572417
386,Midhurst,-0.737274,50.9869,0.1761931389643334,0.02838967150725686,0.2687584735762926
387,Kettering,-0.7302489999999999,52.39632,0.21009759455302962,0.06214325390573945,0.39988470996381553
388,Wellingborough,-0.693964,52.30242,0.18387203293048626,0.05644415160098394,0.3632167998927359
389,Corby,-0.6842333,52.4923,0.20046764854753066,0.07089982760385227,0.37605515769620146
390,Bognor Regis,-0.673061,50.783,0.2293425510462642,0.02976241410612233,0.3215394598183049
391,Scunthorpe,-0.654413,53.58865,0.15664853207065377,0.012955423473350037,0.49978736610573327
392,Grantham,-0.643582,52.912519999999994,0.18229526305356816,0.012756306602994146,0.39008992055920394
393,Whitby,-0.613347,54.48633,0.10924065899942413,0.01417056260513135,0.3711457258958207
394,Slough,-0.5950406,51.51054,0.3337294334365482,0.04859415779342105,0.4030631337313568
395,Guildford,-0.570409,51.23622,0.3040097762465727,0.045411111455756,0.4055344857282024
396,Woking,-0.5600349,51.31677,0.3719123429145767,0.05304234583711967,0.4766009839913941
397,Lincoln,-0.540579,53.23069,0.23571804165281424,0.029180805922411127,0.6080425095483369
398,Bedford,-0.46677820000000003,52.13864,0.27974616126483504,0.03394608911645001,0.4666921688993694
399,Heathrow,-0.4542955,51.47002,0.49486992799619184,0.07516975589081856,0.3702212028844527
400,Driffield,-0.443377,54.006,0.08669755164636418,0.010063004471120515,0.3180001762078947
401,Beverley,-0.435093,53.84196,0.1533222651763607,0.017259644598584832,0.5091970295876787
402,Luton,-0.4200255,51.87867,0.34023292311263936,0.03049554392832705,0.4367711171002684
403,Scarborough,-0.399752,54.28311,0.14370571974671528,0.017683270983312214,0.4933932620020216
404,Worthing,-0.372882,50.81787,0.3067230226355431,0.043872947055040454,0.4284172821494187
405,Dorking,-0.332378,51.2322,0.3114523658164884,0.02415335672410999,0.37982796625498993
406,Hull,-0.3274198,53.767619999999994,0.23862237762611457,0.026512629250151316,0.7164384285771984
407,Horsham,-0.325858,51.06288,0.23476722829466096,0.024761039909187793,0.31975513145209805
408,Biggleswade,-0.26421999999999995,52.086940000000006,0.17586345007362972,0.020003706534600277,0.2951855263420918
409,Peterborough,-0.2405299,52.5695,0.22192374214423288,0.03900379564876703,0.5977428282627192
410,Welwyn Garden City,-0.208661,51.80317,0.4030506942105101,0.05328774935757647,0.5670964610401684
411,Bridlington,-0.198802,54.08535,0.10837037569184994,0.012891526647181666,0.3739866501497932
412,Stevenage,-0.19661199999999998,51.90376,0.28349254695177295,0.03292433922040052,0.40023348648844725
413,Crawley,-0.18722750000000002,51.109140000000004,0.2882843810859658,0.026830908010874482,0.37228008803250723
414,Huntingdon,-0.182552,52.33146,0.1649241026662303,0.03629800465422987,0.3205250949873569
415,Hove,-0.168749,50.82793,0.24693957263772115,0.038396098178273254,0.3490691538951218
416,Spalding,-0.1537024,52.7901,0.13959819542003077,0.020661900496255912,0.41208256915409086
417,Brighton,-0.137163,50.82253,0.42440156141281654,0.06647953888108507,0.5809927735487331
418,London,-0.12775830000000002,51.50735,1.0,0.12407168762871322,0.8548665447456021
419,Grimsby,-0.08078400000000001,53.56746999999999,0.1682995449661736,0.02019146025852717,0.5386770713856792
420,Boston,-0.026576999999999996,52.97894,0.1838370825409198,0.02274421869206876,0.5198218788298526
421,Royston,-0.024066,52.048140000000004,0.1541374206341488,0.02096355789912954,0.2598216864884504
422,Louth_Lincs,-0.007711,53.36596,0.1150383471905171,0.01562516933040826,0.36369339145334617
423,Lewes,0.00878,50.873870000000004,0.23877175693807712,0.032014213747238125,0.3158129154884976
424,Chatteris,0.054012,52.4561,0.09486740101605735,0.01436374555884626,0.23989294196226071
425,Uckfield,0.095913,50.966409999999996,0.26869483497504426,0.03792331096964157,0.3006890230035543
426,Cambridge,0.12181700000000001,52.20534,0.43234833402150946,0.05727677153708547,0.5222279098524377
427,Bishop's Stortford,0.15365020000000001,51.87216,0.24493694888158285,0.03750616825887784,0.38624689935844936
428,Wisbech,0.158797,52.66631999999999,0.11565943751072998,0.01428882580072437,0.31179368335299484
429,Sevenoaks,0.190898,51.27241,0.31043480509627436,0.040618008760504594,0.42390054254837733
430,Tunbridge Wells,0.26369499999999996,51.13238,0.27300517653565226,0.04011663240038504,0.3977292018561421
431,Eastbourne,0.29047199999999995,50.768029999999996,0.2601258307894593,0.03674266748539085,0.36149637408848434
432,Brentwood,0.30717490000000003,51.620470000000005,0.44899122873224484,0.043720878072446324,0.5975970940206713
433,Skegness,0.337881,53.1464,0.11346448460059688,0.014592540920014272,0.34397448184007207
434,Downham Market,0.385472,52.606609999999996,0.10932347807304721,0.01,0.24634040791677075
435,King's Lynn,0.4022963,52.75168000000001,0.1765231330555015,0.017379611938325285,0.39464358229235147
436,Bexhill,0.4662071,50.849909999999994,0.176418620539641,0.026661898125613186,0.2735770771762681
437,Chelmsford,0.4685497,51.73559,0.25882540669116355,0.023401656563314135,0.3825569121301651
438,Mildenhall,0.5156095,52.347570000000005,0.21218859957509106,0.02773447066388425,0.30544916957652235
439,Medway,0.5417860999999999,51.404740000000004,0.2576671373966246,0.025188667225187453,0.3531973173392022
440,Braintree,0.5509269,51.88009,0.21646278306487754,0.0166368549557083,0.32395449549836347
441,Gillingham,0.551438,51.38632,0.39374457498966026,0.041702625493315944,0.5204489050701764
442,Hastings,0.573453,50.85426,0.23293237832096353,0.034035359080887256,0.3559938793578575
443,Maldon,0.6714479999999999,51.731809999999996,0.22994268597356474,0.021153873596898472,0.32193516604778233
444,Southend,0.7077123000000001,51.54593,0.31013079558399725,0.025184489539407922,0.42847474664623636
445,Bury St Edmunds,0.7104931999999999,52.24292,0.26995954037018943,0.043311026110714565,0.4845392434206566
446,Thetford,0.751657,52.412859999999995,0.15409797533678657,0.022381300567585884,0.2877722890709261
447,Ashford,0.8750190000000001,51.14647,0.2366087765021418,0.023842827391642337,0.3275815200212782
448,Faversham,0.889358,51.31599,0.22711337668130693,0.023663748827523097,0.30566475391557946
449,Colchester,0.891874,51.89593,0.30127002039014755,0.03443584472594718,0.44664207475069917
450,New Romney,0.939473,50.98512,0.13994491359777103,0.010816046000235521,0.2209306835474853
451,Canterbury,1.0789089,51.280229999999996,0.3026931640637085,0.03284248412559252,0.4034087451019124
452,Ipswich,1.14822,52.056740000000005,0.30202228833588385,0.03694245603848464,0.4662238438125012
453,Clacton,1.153035,51.78953,0.1774131878426745,0.020562357321791697,0.2727932146418972
454,Folkestone,1.169456,51.0814,0.22906000305441165,0.02444390033734632,0.313470008880799
455,Sheringham,1.2109589,52.944419999999994,0.11652981237923579,0.01,0.19776650607848884
456,Harwich,1.260297,51.93473,0.13443394463565542,0.015295639118248841,0.2260577274999679
457,Norwich,1.297355,52.63089,0.37092610954561356,0.04171676434103518,0.565366866879599
458,Cromer,1.301866,52.93145,0.16070536883929284,0.016199076801739373,0.26414048331536477
459,Cromer,1.301866,52.93145,0.16070536883929284,0.016199076801739373,0.26414048331536477
460,Dover,1.3134027,51.12788,0.207266466928665,0.021724883114537102,0.2840803565295129
461,Felixstowe,1.3512549999999999,51.961729999999996,0.1758195049642205,0.020709947700225554,0.2858693969622752
462,Margate,1.3868339,51.38965,0.23085274780432521,0.025846237723150985,0.3109223434535242
463,Ramsgate,1.4198950000000001,51.33555,0.2270049637553114,0.02521601513549312,0.30830339716031685
464,Great Yarmouth,1.728047,52.59823000000001,0.2135698280448105,0.022191952883397332,0.3420554999307878
465,Lowestoft,1.7534490000000003,52.48114,0.2251843129757851,0.024027909566095736,0.3563707477571409
466,Swaffham,0.687481,52.64747,0.11266584752499222,0.01,0.23414222878514787
467,Dereham,0.9378270000000001,52.681619999999995,0.2894439969681759,0.027801249132958106,0.4334857695752533
468,Ely,0.262363,52.39954,0.20254882992272646,0.025279950190261715,0.2703055794851521
469,March,0.088622,52.551719999999996,0.10844508249879549,0.011507586313391998,0.2934502441935346
470,St Neots,-0.26510300000000003,52.23008,0.15011153113436565,0.024483925827141602,0.30102565866028447
471,Banham,1.0402849,52.45125,0.17635523268925438,0.019111111000247913,0.29715532394916755
472,Holt,1.086747,52.90936,0.1630404074434241,0.014413963342165156,0.26159610405910483
473,Hunstanton,0.49103199999999997,52.93891,0.07360324256926513,0.01,0.21579971313618318
474,Horncastle,-0.11245,53.20731,0.08764918172514284,0.01225286324573038,0.2901422269630213
475,Market Weighton,-0.6677465,53.86484,0.08049610716213461,0.01,0.2909496485094043
476,Hawes,-2.1968695,54.303830000000005,0.01,0.01,0.07135886857319707
477,Reeth,-1.9428115000000001,54.38946,0.10864314662624253,0.017698946781302547,0.319137015281852
478,Aysgarth,-1.9967433999999997,54.29159,0.05235781697450909,0.011060043628071434,0.17675069763027093
479,Stanhope,-2.011302,54.74946,0.18231818299113103,0.07002425694493071,0.3662643039597528
480,Keswick,-3.134706,54.60128,0.07427282531168146,0.21404072500325969,0.17283155518195262
481,Oxenholme,-2.7243327999999996,54.30134,0.08153513056406402,0.035155477211790305,0.18312495354082606
