,Unnamed:_0,Unnamed:_0,placename,needs_to_be_Xed,needs_Xed,needs_Xing,longitude,latitude
0,0,0,Dingle,0.9023549692045684,0.2882849265906017,0.08487538324300989,-10.264013499999999,52.14094
1,1,1,Tralee,0.9047621356208684,0.2899529950832372,0.08159820864330045,-9.6999325,52.27131
2,2,2,Killarney,0.8897059757150222,0.28521799345149035,0.09736163539363077,-9.5044265,52.05994000000001
3,3,3,Bantry,0.9221940651239282,0.2623001306597991,0.09088039887054973,-9.4539805,51.68035
4,4,4,Mayo,0.9027963715434932,0.2761977328334418,0.09457238044318073,-9.4289369,54.01526
5,5,5,Ballycastle,0.8480343167232619,0.3429502021779165,0.08212951343813167,-9.3724643,54.279669999999996
6,6,6,Abbeyfeale,0.9084117849807312,0.2844486026163785,0.08330461243951517,-9.2970823,52.386179999999996
7,7,7,Ennistymon,0.8973116242798066,0.2898935576330553,0.08750105515503498,-9.2934951,52.940369999999994
8,8,8,Galway,0.8523285243102569,0.2930915893126706,0.12018494260482605,-9.0567905,53.270669999999996
9,9,9,Claremorris,0.8973123168566981,0.2669998365306411,0.10652380910405357,-9.0017356,53.72388
10,10,10,Clare,0.9011764341939984,0.28580448807100417,0.08786248316331689,-8.9811351,52.90453
11,11,11,Adare,0.911956162653068,0.2791168908944293,0.08495021899160081,-8.7925892,52.56363
12,12,12,Charleville,0.916163798128611,0.2617493683597667,0.09607577005277934,-8.681017599999999,52.36206
13,13,13,Mallow,0.9149153128519879,0.26095550841644555,0.09771626180091378,-8.6539164,52.13898
14,14,14,Limerick,0.911956162653068,0.2791168908944293,0.08495021899160081,-8.6267343,52.66384
15,15,15,Loughrea,0.908207705656668,0.26243044339486543,0.10176062071809744,-8.5660931,53.19891
16,16,16,Sligo,0.841480461597881,0.36645652410271545,0.06774634011291529,-8.476088800000001,54.27661
17,17,17,Cork,0.9162570651500154,0.26531275591200176,0.09304153050314906,-8.4756035,51.898509999999995
18,18,18,Nenagh,0.9078625715056784,0.26645699776877096,0.09868584362651353,-8.19834,52.8635
19,19,19,Roscommon,0.9300594300230696,0.24703489960582475,0.09738535937791508,-8.1890955,53.62759000000001
20,20,20,Tipperary,0.9125942568292122,0.2623495054347941,0.09838149465381464,-8.161851400000002,52.47379
21,21,21,Donegal,0.7635318558821365,0.43683611855158505,0.07050642979828194,-8.1096143,54.653830000000006
22,22,22,Leitrim,0.80080311216352,0.3504517628202575,0.11300375785734552,-8.0020132,54.12469
23,23,23,Athlone,0.9252439428956504,0.25476100415195585,0.09474871421627838,-7.9406898,53.42393000000001
24,24,24,Longford,0.9293022126215672,0.22375833845980428,0.1173215229970836,-7.7932573000000005,53.72763000000001
25,25,25,Offaly,0.8424666910915449,0.2764895504138608,0.14172827919603556,-7.7122229,53.23569000000001
26,26,26,Fermanagh,0.7969985564388989,0.3595007489926356,0.10847374649123544,-7.6318728,54.343830000000004
27,27,27,Enniskillen,0.7969985564388989,0.3595007489926356,0.10847374649123544,-7.631533599999999,54.343819999999994
28,28,28,Doon,0.776934373029763,0.3265083584487301,0.15165177877827216,-7.60964,54.185930000000006
29,29,29,Westmeath,0.9464384117919064,0.17056308656692454,0.14806020697398806,-7.4653217000000005,53.534530000000004
30,30,30,Strabane,0.8260316105944869,0.4156577670635632,0.03900081543034056,-7.4633103,54.82739
31,31,31,Balivanich,0.5003320906195308,0.7031888224764453,0.05596930450165505,-7.3743509000000005,57.472269999999995
32,32,32,Cavan,0.7354917261301644,0.3430876963015652,0.1704351707849363,-7.3633319,53.98972
33,33,33,Mullingar,0.991616125868001,0.17820565562945448,0.106215451721166,-7.3401868000000015,53.525819999999996
34,34,34,Laois,0.8599895790263707,0.2596115191830278,0.1419858150162591,-7.3323006999999985,52.9943
35,35,35,Omagh,0.8553160701617327,0.3897249216033565,0.037541790396857636,-7.309959700000001,54.59771
36,36,36,Derry,0.8272535470902651,0.4126988603441911,0.040499398575233284,-7.308574799999999,54.99661
37,37,37,Derry,0.8272535470902651,0.4126988603441911,0.040499398575233284,-7.308574799999999,54.99661
38,38,38,Kilkenny,0.8471194226494343,0.2662620088806055,0.1465713274465205,-7.2447879,52.65415
39,39,39,Tyrone,0.8158491142749563,0.3833746095829366,0.0738259557002114,-7.1312320000000025,54.491209999999995
40,40,40,Waterford,0.8771193141457213,0.2708690333656699,0.11917351732988082,-7.110070200000001,52.25932
41,41,41,Western Isles,0.5766891546383375,0.6288758789097394,0.05772790831833625,-7.0194034,57.75989000000001
42,42,42,Monaghan,0.7390954345562163,0.3893485426266817,0.12916412604197355,-6.9683132,54.2492
43,43,43,Carlow,0.9710839913390948,0.19847269108916493,0.10550607194338138,-6.934135899999999,52.83651
44,44,44,Kildare,0.9968822496928996,0.18658611782580647,0.0951146040748156,-6.8194707999999995,53.21204
45,45,45,Dungannon,0.6264117891361927,0.5675476717054185,0.06962276579650066,-6.7669352,54.508269999999996
46,46,46,Cookstown,0.8256878615972806,0.40484270499813946,0.0482574679130392,-6.7443895000000005,54.641819999999996
47,47,47,Coleraine,0.8052603061790093,0.4654591907552959,0.01393820351906493,-6.6646103000000005,55.132580000000004
48,48,48,Meath,0.984382621952979,0.18769663553254592,0.10401209574956527,-6.656416900000001,53.60555
49,49,49,Armagh,0.7237924864179899,0.3851157798091964,0.1447041700778963,-6.652792,54.35028000000001
50,50,50,Armagh,0.7237924864179899,0.3851157798091964,0.1447041700778963,-6.652792,54.35028000000001
51,51,51,Magherafelt,0.6565815928298897,0.565331722199355,0.04776104172813047,-6.607980499999999,54.75536999999999
52,52,52,Dunvegan,0.5557278532955924,0.6561834473271451,0.051505495385267885,-6.5813982000000015,57.4366
53,53,53,Louth,0.9313093004534762,0.2120327679994356,0.12548777908283876,-6.4889423,53.925230000000006
54,54,54,Wexford,0.9614343175081822,0.21138746893967586,0.10235609635115328,-6.4633381,52.33692
55,55,55,Craigavon,0.6240027758481813,0.5593891340613979,0.07829478893253643,-6.4175653,54.442930000000004
56,56,56,Stornoway,0.6821695386676067,0.5159540440898406,0.06868730080151156,-6.3848692000000025,58.20943000000001
57,57,57,Drogheda,0.9759786630911228,0.1936342905585892,0.10568099098347124,-6.3560985,53.717859999999995
58,58,58,Rosslare,0.8857882990981032,0.23425809609339665,0.1427838876710698,-6.3414908,52.25131
59,59,59,Newry,0.6137062352004974,0.5509956187636106,0.09335872089853392,-6.34023,54.1751
60,60,60,Scilly Isles,0.8160070218062448,0.10371601497893593,0.3060802250107456,-6.327496599999999,49.92773
61,61,61,Ballymena,0.6544814688355401,0.5808108451278545,0.03654881106382154,-6.2802213,54.86529
62,62,62,Banbridge,0.6175130995147574,0.5600622855583345,0.08283399606319708,-6.2704803,54.34873
63,63,63,Dublin,0.9997197372178585,0.1846315141115268,0.09450933413632127,-6.2603097000000005,53.34981
64,64,64,Antrim,0.6323240872009711,0.5984451922644353,0.03930400359646896,-6.2072498,54.719530000000006
65,65,65,Antrim,0.6323240872009711,0.5984451922644353,0.03930400359646896,-6.2072498,54.719530000000006
66,66,66,Portree,0.5736205772905419,0.6437930854665787,0.047743647767175865,-6.1960231,57.41246999999999
67,67,67,Islay,0.3625210629947164,0.8663806174802375,0.028639637358223363,-6.177067,55.73625
68,68,68,Wicklow,1.0,0.17629104068077642,0.1012196485810464,-6.044589,52.980819999999994
69,69,69,Kilkeel,0.6336630691914324,0.5238827772992247,0.10020845909493582,-6.007004,54.06312
70,70,70,Mull,0.4378080957159731,0.7965478781321415,0.02751635748765038,-6.0008870000000005,56.4392
71,71,71,Belfast,0.6330222047077221,0.5920328452703036,0.044083624650438524,-5.93012,54.59728000000001
72,72,72,Broadford,0.5250723223419071,0.6887128020169528,0.04856058352875695,-5.9096592,57.24139
73,73,73,Down,0.5912152623631325,0.6063516173305634,0.06503157629660553,-5.7156921999999994,54.32875
74,74,74,Kyle of Lochalsh,0.6082302605774379,0.6206647577851873,0.03977035763616107,-5.7143293,57.28261
75,75,75,Campbeltown,0.2425695156740539,0.939386264561875,0.062217472830506035,-5.605373999999999,55.424119999999995
76,76,76,Penzance,0.8160070218062448,0.10371601497893593,0.3060802250107456,-5.537592,50.1188
77,77,77,Oban,0.4044711378969072,0.846409939810141,0.01227552948287265,-5.471047,56.41516
78,78,78,Lochgilphead,0.380658959209299,0.8078845403846915,0.06299584804882381,-5.4323449,56.03829
79,79,79,Helston,0.8215520232595022,0.09691678977436624,0.30737339980547057,-5.274996,50.10159
80,80,80,Redruth,0.8215520232595022,0.09691678977436624,0.30737339980547057,-5.226666000000002,50.23302
81,81,81,Ullapool,0.6639836237885387,0.5182941726829713,0.0810307011935522,-5.161313,57.895419999999994
82,82,82,Ballachulish,0.4714442467522181,0.7978594528912587,0.01,-5.133719999999999,56.67393000000001
83,83,83,Fort William,0.518800346011415,0.7111248243861271,0.03486518809655256,-5.1052179,56.81981999999999
84,84,84,Achnasheen,0.6838289528999233,0.5190099541248969,0.06484437809951228,-5.078765799999998,57.57859000000001
85,85,85,Newquay,0.8195183866467478,0.10271046778190067,0.3041569136242743,-5.0737190000000005,50.4155
86,86,86,Falmouth,0.8215520232595022,0.09691678977436624,0.30737339980547057,-5.066269999999999,50.152570000000004
87,87,87,Rothesay,0.3284548217087765,0.8713956496108396,0.05123685935221408,-5.055793,55.83596
88,88,88,Truro,0.8215520232595022,0.09691678977436624,0.30737339980547057,-5.0510410000000014,50.2632
89,89,89,Milford Haven,0.9151773377759834,0.1013882846493759,0.2301004289942057,-5.0426971,51.71431
90,90,90,Stranraer,0.5086425516010183,0.6960503912579844,0.05537154353066357,-5.0240550000000015,54.903369999999995
91,91,91,Fishguard,0.9279419916064297,0.09176223352273499,0.2280705591920844,-4.975989,51.99393
92,92,92,Inchnadamph,0.6717748829602767,0.5176802840127861,0.07541959802066517,-4.974295,58.15221
93,93,93,Haverfordwest,0.9571625032406827,0.08473449173132952,0.2109527613756413,-4.971319,51.800470000000004
94,94,94,Dunoon,0.3589367467216296,0.8379161033514885,0.05510784092553432,-4.926214,55.95097
95,95,95,Pembroke,0.9151773377759834,0.1013882846493759,0.2301004289942057,-4.9086370000000015,51.67404000000001
96,96,96,Girvan,0.1862380816174164,0.9928203139960659,0.06207429459507785,-4.8542179,55.240159999999996
97,97,97,Wadebridge,0.8195183866467478,0.10271046778190067,0.3041569136242743,-4.836456,50.51665
98,98,98,Invergarry,0.6886338205150047,0.5284189701552623,0.053251003852825836,-4.800261,57.07095
99,99,99,St Austell,0.8215520232595022,0.09691678977436624,0.30737339980547057,-4.7834252,50.340379999999996
100,100,100,Greenock,0.351137407486156,0.8334533396480076,0.06494368147409665,-4.7719830000000005,55.956480000000006
101,101,101,Helensburgh,0.3287240032606518,0.8546455082149736,0.06494368147409665,-4.734014,56.00232
102,102,102,Bodmin,0.8378882961200226,0.1054149699908543,0.28747733842579176,-4.7188629,50.4715
103,103,103,Tenby,0.93421743082138,0.09220217542813898,0.22277466941589194,-4.703579,51.67274000000001
104,104,104,Camelford,0.8300896494614407,0.11472257346391353,0.2858703649673801,-4.682364,50.62206
105,105,105,Irvine,0.2297448385130005,0.947351450412392,0.06567469941185923,-4.6696364,55.61156999999999
106,106,106,Cardigan,0.9237292772336814,0.0878642456495901,0.2346191769090616,-4.660864,52.0837
107,107,107,Holyhead,0.8435512665038185,0.07862192951163699,0.3052914206708961,-4.633038,53.30944
108,108,108,Ayr,0.17787106018977986,1.0,0.06268201310993178,-4.629179,55.45856
109,109,109,Dumbarton,0.4612989187258709,0.7109126350900501,0.08021795521818649,-4.564554,55.94529
110,110,110,Bude,0.7969761631194031,0.17192704835521427,0.2643529651479798,-4.543678,50.82664000000001
111,111,111,Isle of Man,0.4926537214811264,0.4866546989953717,0.24192777831525544,-4.5126330999999995,54.27697
112,112,112,Kilmarnock,0.2573389487467707,0.8981456672423491,0.08488193091757153,-4.498792,55.61472
113,113,113,Newton Stewart,0.23814902823382056,0.8961366901573742,0.1016279985674196,-4.483164,54.9603
114,114,114,Liskeard,0.8576549023247265,0.10091581913002738,0.2756860285212351,-4.4647190000000005,50.45552
115,115,115,Altnaharra,0.6698405157019879,0.5089698490164346,0.0841770674028502,-4.442655,58.28023
116,116,116,Pwllheli,0.8546428854230802,0.10061007533101997,0.2783064949412957,-4.417633900000001,52.888819999999996
117,117,117,Lairg,0.6512000395230546,0.5248393644519126,0.08563565713386917,-4.402414,58.022059999999996
118,118,118,Launceston,0.808805145569274,0.1628700731608873,0.26258516556674805,-4.360451599999998,50.636829999999996
119,119,119,Carmarthen,0.95455725983338,0.07297052594416324,0.22277466941589194,-4.312131,51.857620000000004
120,120,120,Llangefni,0.8402453661411625,0.06353125640445073,0.3204280844235756,-4.311401999999998,53.25579000000001
121,121,121,Caernarfon,0.8345600024378707,0.06487513649822439,0.3237781540483909,-4.273911,53.13955
122,122,122,Cumnock,0.19775586618398666,0.9567884935033644,0.08296549368250976,-4.265828900000002,55.45355
123,123,123,Aberaeron,0.9530573691450992,0.09567089525307376,0.20509057936907915,-4.2581619,52.24279
124,124,124,Alness,0.6693776434794231,0.5131941862533946,0.0810307011935522,-4.256825,57.69595
125,125,125,Glasgow,0.4781580871395626,0.6879839238177343,0.08602461802299477,-4.251806,55.86424
126,126,126,Dalwhinnie,0.6046646438804251,0.5887714689412474,0.06907299692215765,-4.242783,56.9366
127,127,127,Inverness,0.6734583065248361,0.526230196420582,0.06699250507100163,-4.224721,57.47776999999999
128,128,128,Saltash,0.7933068907476113,0.13513736217381894,0.2978056692994848,-4.21643,50.409209999999995
129,129,129,Bideford,0.7955942413616613,0.2657143243185369,0.1875074794938985,-4.206666,51.01668
130,130,130,Invergordon,0.6634759649269827,0.5174781792198249,0.08210758507651111,-4.1728819999999995,57.688109999999995
131,131,131,Llanelli,0.9344376702729142,0.12504087552520998,0.1953146291845127,-4.160248,51.68089000000001
132,132,132,Plymouth,0.8407177035812456,0.15468294093011029,0.2443158839075898,-4.1426565,50.37546
133,133,133,Tavistock,0.783681687966869,0.2028626368220963,0.2490923127434905,-4.141654,50.551120000000004
134,134,134,Porthmadog,0.8622766987814571,0.09833073751965796,0.27420286233860663,-4.1333839999999995,52.92784
135,135,135,Bangor,0.8402453661411625,0.06353125640445073,0.3204280844235756,-4.129263,53.22739
136,136,136,Tywyn,0.9365027037047552,0.09995030435445132,0.21454095958583,-4.087249,52.58701
137,137,137,Aberystwyth,0.9799208107582122,0.0991136616706394,0.18112433112602336,-4.08292,52.4153
138,138,138,Lampeter,0.8961397841791889,0.11352334705444213,0.2349739484171659,-4.0785089999999995,52.1129
139,139,139,Barnstaple,0.8068730869006236,0.27850828458301896,0.16801512487431094,-4.058338,51.07816
140,140,140,Tain,0.6479560093627161,0.5351484114713885,0.07961810842288865,-4.05523,57.8115
141,141,141,Okehampton,0.8275476614102388,0.1951345459344424,0.22105027311783468,-4.004263,50.73831
142,142,142,Llandeilo,0.913131003920216,0.12244671349645067,0.21421009343803665,-3.9914300000000003,51.88469
143,143,143,Motherwell,0.4453832708975264,0.7017776032222562,0.10031280472306076,-3.9810968,55.78321
144,144,144,Golspie,0.6664436569075655,0.5129155745699129,0.08356731747649794,-3.976086,57.97341
145,145,145,Airdrie,0.4510665568701435,0.7265882312058749,0.0752316561818627,-3.9625660000000003,55.86626999999999
146,146,146,Swansea,0.8844666315299321,0.1288368833148993,0.23142053812888644,-3.9436459999999998,51.62144
147,147,147,Stirling,0.3878603737283421,0.7396238048144859,0.1140582418010146,-3.9369029,56.116519999999994
148,148,148,Tregaron,0.9337815690975886,0.10032220860571768,0.21636988288803888,-3.934385,52.22
149,149,149,Tregaron,0.9337815690975886,0.10032220860571768,0.21636988288803888,-3.934385,52.22
150,150,150,Castle Douglas,0.26747319554285204,0.7770980366716624,0.17750274158933066,-3.9314139999999997,54.940419999999996
151,151,151,Dolgellau,0.9531148530271036,0.10556477506635853,0.1968242037166197,-3.8844,52.74215
152,152,152,Aberfeldy,0.5262171519437516,0.6624542183749382,0.06948022237716572,-3.866969,56.62175
153,153,153,Machynlleth,0.9582664708059216,0.09764490399607603,0.19935770033190725,-3.853485,52.59027
154,154,154,Brora,0.6664436569075655,0.5129155745699129,0.08356731747649794,-3.852548000000001,58.012159999999994
155,155,155,Llandudno,0.6431878483228904,0.11011116156515592,0.43654282202742206,-3.827609,53.324059999999996
156,156,156,Llandudno,0.6431878483228904,0.11011116156515592,0.43654282202742206,-3.827609,53.324059999999996
157,157,157,Aviemore,0.6543392597137949,0.5500691978085545,0.062204903471860015,-3.823812,57.19449
158,158,158,Dalbeattie,0.2794155297439843,0.7362907019113211,0.20202846232415456,-3.8225269999999996,54.934219999999996
159,159,159,Falkirk,0.33367454288193704,0.7632322596182423,0.1370127020170719,-3.7839131,56.00188000000001
160,160,160,Kingsbridge,0.8084994883011065,0.1839120437496304,0.24534078542131416,-3.777493,50.28395
161,161,161,Pitlochry,0.40844283551137217,0.771813669727328,0.07113986743371314,-3.729711,56.70436
162,162,162,Colwyn Bay,0.5956126639069785,0.11111587930089598,0.4730857746455831,-3.72764,53.29318000000001
163,163,163,Totnes,0.8198411274782421,0.1858657088629708,0.23480671972060546,-3.685797,50.43374
164,164,164,Grantown-on-Spey,0.6944406160332937,0.4708115735258393,0.09655696065145043,-3.609628,57.33041
165,165,165,Dumfries,0.2607210325675049,0.7025350760082314,0.24476466261030064,-3.60512,55.070859999999996
166,166,166,Whitehaven,0.3743782102381792,0.47988500697849795,0.3404768462800811,-3.589233,54.5497
167,167,167,Dartmouth,0.8206946130676791,0.18160339102986067,0.23767795663509605,-3.578807,50.35252
168,168,168,Bridgend,0.8384488216843051,0.2509476868147108,0.1661085544950983,-3.576945,51.50429000000001
169,169,169,Paignton,0.8320265561683323,0.17743163727343236,0.2322414641630536,-3.564235,50.43508
170,170,170,Workington,0.3794444102003647,0.5117684295986104,0.31000355170535365,-3.5427519999999997,54.64357
171,171,171,Llanidloes,0.9637315950576788,0.121137998196009,0.17554270155746507,-3.5401949999999998,52.44779000000001
172,172,172,Exeter,0.8294857224119497,0.20387289885175708,0.2122665948998005,-3.533899,50.71841
173,173,173,Torquay,0.8320265561683323,0.17743163727343236,0.2322414641630536,-3.525315,50.46192
174,174,174,Thurso,0.7185854624878424,0.4317117939813721,0.11007674781466373,-3.5220800000000003,58.59356999999999
175,175,175,Livingston,0.4534360932753321,0.6873086986675601,0.10600881001401713,-3.518068,55.90071
176,176,176,Rhyl,0.5586992390195975,0.10335762221561028,0.5085337601909294,-3.4916339999999995,53.319140000000004
177,177,177,Tiverton,0.7688263753595913,0.2292038828305593,0.2388756550893986,-3.491207,50.90205
178,178,178,Tiverton,0.7688263753595913,0.2292038828305593,0.2388756550893986,-3.491207,50.90205
179,179,179,Minehead,0.924419083817733,0.194679215339219,0.1453208667060688,-3.481152,51.20428
180,180,180,Dunfermline,0.4418631334163963,0.7424133268062006,0.06931266720375738,-3.452151,56.07174000000001
181,181,181,Perth,0.3752970289143927,0.7794133250817942,0.09086623340286927,-3.4308381000000003,56.39499
182,182,182,Prestatyn,0.5628246887040017,0.10321150606007697,0.5054139474319314,-3.4076129999999996,53.33651
183,183,183,Builth Wells,0.8868322433327351,0.17160801134755438,0.19402196224266235,-3.4045919999999996,52.15002
184,184,184,Braemar,0.6321391691709092,0.5410879873551682,0.08710935548790713,-3.3979439,57.00646999999999
185,185,185,Brecon,0.9611305071117258,0.2168561290870532,0.09805062850602128,-3.391463,51.94895
186,186,186,Merthyr Tydfil,0.972372415216468,0.18293485103213472,0.1174047927309132,-3.381646,51.74873
187,187,187,Llandrindod Wells,0.9131762522771352,0.1405749830064117,0.19911104707328198,-3.377742,52.2417
188,188,188,Corwen,0.7776322596775499,0.1309954471960901,0.31356207679758424,-3.369242,52.98005
189,189,189,Cockermouth,0.3686836121763327,0.5094675039656434,0.3203696813429981,-3.367985,54.66326
190,190,190,Lockerbie,0.310683067810896,0.6738436605593795,0.22935221660911784,-3.349008,55.12224000000001
191,191,191,Blairgowrie,0.456717522587818,0.7183112115642097,0.07766962204391993,-3.3378318,56.58941
192,192,192,Elgin,0.7289981251943545,0.4322703706799227,0.1014318948074184,-3.318485,57.64945
193,193,193,Newtown,0.8195998798609949,0.14601155609842098,0.2681125637033415,-3.313106,52.51211
194,194,194,Ruthin,0.6680026474905976,0.11723835140027365,0.41112471310393545,-3.3103108,53.114869999999996
195,195,195,Ruthin,0.6680026474905976,0.11723835140027365,0.41112471310393545,-3.3103108,53.114869999999996
196,196,196,Sidmouth,0.7747931561398442,0.2245824519124725,0.2380278672656864,-3.2375599999999998,50.67865
197,197,197,Barrow-in-Furness,0.549117668583027,0.061038659728499416,0.5512258498273972,-3.2188939999999997,54.10896999999999
198,198,198,Peebles,0.6177192565694958,0.5289101858654688,0.10855736083951564,-3.1936419999999996,55.65306999999999
199,199,199,Edinburgh,0.574382411871322,0.5788477285213344,0.1011105509010235,-3.1882669999999997,55.95325
200,200,200,Cardiff,0.9744730009287452,0.16716465267279604,0.12885854371229355,-3.17909,51.48158
201,201,201,Llangollen,0.8431177133696658,0.12702804650929178,0.26540966187917386,-3.1716599999999997,52.96921
202,202,202,Kirkcaldy,0.5421718149369906,0.6168370994987065,0.09485024851599044,-3.158137,56.11682
203,203,203,Welshpool,0.7851104740942768,0.13793950070839267,0.301916847144882,-3.146407,52.66035
204,204,204,Mold,0.6231781476292286,0.15782895665534313,0.4126131573289391,-3.1419029999999997,53.1672
205,205,205,Mold,0.6231781476292286,0.15782895665534313,0.4126131573289391,-3.1419029999999997,53.1672
206,206,206,Taunton,0.8371059150914582,0.23127773251999265,0.18350802928091045,-3.106849,51.01534
207,207,207,Wick,0.7127835150077949,0.4375287842168881,0.1098016547950616,-3.093716,58.43894
208,208,208,John o' Groats,0.7127835150077949,0.4375287842168881,0.1098016547950616,-3.0688997000000002,58.63734
209,209,209,Dalkeith,0.6005318067091772,0.5413441599278211,0.11172911969254297,-3.066606,55.893119999999996
210,210,210,Oswestry,0.7859136324295899,0.1213721900443384,0.3150520627188143,-3.056412,52.85715
211,211,211,Blackpool,0.5859687615501625,0.040287524463378376,0.5395163767860597,-3.0356748,53.81751
212,212,212,Birkenhead,0.5200227442251206,0.10393241706527558,0.5384425400203483,-3.023009,53.389990000000004
213,213,213,Cupar,0.4506235385184719,0.7106734446460206,0.0888038247415691,-3.010137,56.32023
214,214,214,Southport,0.6534118992559184,0.017217018965436072,0.5056992881970386,-3.010113,53.64571
215,215,215,Bridgwater,0.8585522511172996,0.18124951664780112,0.2082288017947811,-3.003632,51.12789
216,216,216,Langholm,0.3630236429590671,0.6093352987491483,0.2418327554148997,-2.998913,55.153059999999996
217,217,217,Newport,0.9634268612253672,0.1545817248241635,0.1479926444040653,-2.997664,51.58415
218,218,218,Axminster,0.8126651074452244,0.21940907998619685,0.21257237674310966,-2.9949369999999997,50.78273
219,219,219,Wrexham,0.6592306994403285,0.15437104165517518,0.3871615663909352,-2.9924939999999998,53.04304000000001
220,220,220,Liverpool,0.508900882781592,0.10222381410881794,0.5486002504657828,-2.9915726,53.40837
221,221,221,Weston-super-Mare,0.9462528011849528,0.16617023771945988,0.15185620769789604,-2.977255,51.347409999999996
222,222,222,Dundee,0.4648019726436745,0.6953057096382987,0.09043412315700644,-2.9707209999999997,56.462019999999995
223,223,223,Kirkwall,0.7150831011469303,0.4350232435791456,0.11007674781466373,-2.9622491,58.984669999999994
224,224,224,Ambleside,0.3468829076409468,0.4075896843565805,0.4221515593314175,-2.961333,54.42874000000001
225,225,225,Orkney Islands,0.7150831011469303,0.4350232435791456,0.11007674781466373,-2.9605206,58.980940000000004
226,226,226,Lyme Regis,0.8149081331382112,0.2133341272878644,0.21585785836483928,-2.936639,50.725159999999995
227,227,227,Carlisle,0.3170016776520904,0.5864764368490625,0.2969845981644964,-2.932931,54.892469999999996
228,228,228,Chester,0.550988549626251,0.1600300195139501,0.4675005901069027,-2.893075,53.19339
229,229,229,Forfar,0.483764727936174,0.6876368160936096,0.08190821654803042,-2.889062,56.64356
230,230,230,Morecambe,0.5084975721717064,0.07146928831151299,0.5744721622079181,-2.864968,54.074169999999995
231,231,231,Selkirk,0.5151356908189009,0.6219659642781141,0.11182971083691652,-2.838524,55.55066
232,232,232,Galashiels,0.5114560297937346,0.6217671773303338,0.11488567923453805,-2.814449,55.62373
233,233,233,Lancaster,0.5163363882900023,0.07107758612880524,0.5686389822280152,-2.8007399,54.046569999999996
234,234,234,St Andrews,0.4339349748790817,0.711521765271752,0.10121050722930383,-2.7967214,56.33978000000001
235,235,235,Hawick,0.4157931540621135,0.6398871958832001,0.1749874369895149,-2.780914,55.42706
236,236,236,Bridport,0.8335292171641792,0.13977898392606602,0.2623476899350707,-2.758301,50.733579999999996
237,237,237,Shrewsbury,0.6899887317739734,0.17979049422949234,0.34187442111573896,-2.7553267999999997,52.7073
238,238,238,Penrith,0.3117556385570484,0.5303181309303345,0.34777012141202396,-2.752708,54.6641
239,239,239,Kendal,0.4288265277265079,0.20832252214208727,0.5233500957429632,-2.74629,54.32801
240,240,240,Street,0.8491258179044514,0.21738071970042824,0.1856121181531321,-2.7429189999999997,51.12468
241,241,241,Glastonbury,0.8375757130829391,0.2121294875520452,0.1990499777651129,-2.718454,51.14743
242,242,242,Hereford,0.8248406091998682,0.17341174041781754,0.2412273766507894,-2.715974,52.0564
243,243,243,Ludlow,0.7801546247168225,0.14321369583789634,0.30142785737706546,-2.7139129,52.36775
244,244,244,Preston,0.5173357767446072,0.05131093410940641,0.5842786742529731,-2.70309,53.7632
245,245,245,Whitchurch,0.6745255675148193,0.1233075196974684,0.4009567911882013,-2.682045,52.96872
246,246,246,Wells,0.8320274796041877,0.2092204794779597,0.20582611356990504,-2.6445979,51.20935
247,247,247,Yeovil,0.8677656015064932,0.14076497329887694,0.23463044036031586,-2.633308,50.94206
248,248,248,Wigan,0.4281284102197572,0.06428982058686701,0.6435804549048595,-2.6325074,53.54506
249,249,249,Warrington,0.4248922292641901,0.08137744359024725,0.6319243789657641,-2.5969501,53.39004
250,250,250,Arbroath,0.5031522637221992,0.6531496926398429,0.09533279943486134,-2.591543,56.55911
251,251,251,Bristol,0.8228095120357166,0.21075509201377854,0.21179318533267213,-2.58791,51.45451
252,252,252,Guernsey,0.8981965066883304,0.10181648312907374,0.2430857735573269,-2.5852779999999997,49.46569
253,253,253,Ross-on-Wye,0.8662483963959221,0.11455781625716635,0.25759881211761626,-2.582446,51.91445
254,254,254,Jedburgh,0.4511582078788009,0.6347457800447197,0.1514747376386706,-2.5549369,55.47772
255,255,255,Sedbergh,0.4553215184332803,0.2268352469623872,0.4871511590345267,-2.5281740000000004,54.32363
256,256,256,Sedbergh,0.4553215184332803,0.2268352469623872,0.4871511590345267,-2.5281740000000004,54.32363
257,257,257,Nantwich,0.4627738766460532,0.0966180963963683,0.5894983135475668,-2.524102,53.067190000000004
258,258,258,Banff,0.7325487360587158,0.4289130824316234,0.1014318948074184,-2.524038,57.666509999999995
259,259,259,Dunbar,0.612035739737915,0.5343093458874775,0.10853630308282294,-2.516737,56.00209
260,260,260,Cinderford,0.8753617848537587,0.10374832031359224,0.2594208612684155,-2.5009579,51.8253
261,261,261,Banchory,0.7148111492874885,0.4282064468918743,0.1159548727739675,-2.4909599,57.05386
262,262,262,Blackburn,0.4635248608555311,0.03945037973720353,0.6364110233239051,-2.487529,53.748580000000004
263,263,263,Market Drayton,0.5171044560628065,0.07672944808278424,0.5633393379680712,-2.483485,52.90355
264,264,264,Telford,0.7323755918358112,0.14142122997890527,0.3404552443953085,-2.4672611,52.67759
265,265,265,Montrose,0.6301600152736291,0.516641143633294,0.10897804439570023,-2.4661150000000003,56.70692
266,266,266,Turriff,0.7266452106345643,0.4415189950893053,0.09559548633424143,-2.4623,57.53893000000001
267,267,267,Weymouth,0.9298574284296808,0.12041208859511016,0.20275942584910914,-2.457621,50.61443
268,268,268,Crewe,0.3723852048030669,0.0852365995780181,0.6699701589278414,-2.4438209,53.10041
269,269,269,Fortuneswell,0.9228910283358599,0.116124057461848,0.2117957971474557,-2.4422189999999997,50.55919
270,270,270,Dorchester,0.8712654233988025,0.1627085901434634,0.2136469934257357,-2.4411810000000003,50.71116
271,271,271,Alston,0.20576020817937926,0.5083511363739798,0.44929930632013104,-2.438685,54.812169999999995
272,272,272,Kelso,0.5030183655231529,0.587766205507287,0.14976753578793864,-2.432207,55.600030000000004
273,273,273,Wincanton,0.773997847009303,0.15267082062338513,0.2984066950389557,-2.416007,51.05569000000001
274,274,274,Clitheroe,0.4590159544321341,0.03650917546810594,0.6423973572207012,-2.3930830000000003,53.8711
275,275,275,Sark,0.9143570958773436,0.09130039820472267,0.2391272417759485,-2.3666256000000003,49.43007
276,276,276,Bath,0.8091186520422131,0.21873815493800025,0.2159160437941848,-2.3590167,51.38106
277,277,277,Kidderminster,0.7102696917501857,0.21631029989893447,0.2955949675988052,-2.2496839,52.3886
278,278,278,Manchester,0.6174311445825826,0.08757781956759003,0.4755024832373183,-2.2426305,53.48076
279,279,279,Burnley,0.4630105070840227,0.047876855207511886,0.6298131801532985,-2.2405035,53.78929
280,280,280,Gloucester,0.8701226715276328,0.13147398087965112,0.2404987528765785,-2.238156,51.86424
281,281,281,Newcastle-under-Lyme,0.44798089595902135,0.07185546802822884,0.6216967480620607,-2.2273002,53.01321
282,282,282,Worcester,0.7781842434601692,0.1973352158903305,0.2580044233259872,-2.221575,52.19364
283,283,283,Trowbridge,0.8153488429002441,0.21217499878363866,0.2164748814698597,-2.208853,51.31966
284,284,284,Shaftesbury,0.8850871804248223,0.13127113393710985,0.22891023950740594,-2.198083,51.0046
285,285,285,Alderney,0.9134184233302376,0.13369645693643228,0.2046364137983771,-2.1973557,49.715
286,286,286,Stoke-on-Trent,0.4518812581536498,0.07026628567035544,0.6199527631531265,-2.179404,53.002669999999995
287,287,287,Colne,0.4371452996306948,0.04980413035490661,0.6485330361378312,-2.176991,53.85564
288,288,288,Blandford Forum,0.9327803337712728,0.12601409555966012,0.19580817149059787,-2.165353,50.85691
289,289,289,Rochdale,0.5937784894390102,0.08338620239593386,0.4975684185740805,-2.1561,53.60971
290,290,290,Jersey,0.93317302486882,0.11582457827841247,0.20396635634316765,-2.13125,49.21444
291,291,291,Wolverhampton,0.6769341190849026,0.16741373116858194,0.3624151654445006,-2.12882,52.586969999999994
292,292,292,Stafford,0.5028200576731863,0.10057552171969504,0.5547473923477962,-2.12066,52.80669
293,293,293,Macclesfield,0.5810385375176982,0.046683260403676534,0.5380755074928433,-2.119287,53.25866
294,294,294,Hexham,0.35916783654446593,0.5081158094733517,0.3289690089675572,-2.1121439,54.97266
295,295,295,Aberdeen,0.7388507240545112,0.4170083701594139,0.1063728135618773,-2.094278,57.149719999999995
296,296,296,Dudley,0.7750572587945144,0.20802793241470788,0.2515762755659032,-2.081112,52.51226
297,297,297,Cheltenham,0.8841030286618329,0.1260227612474024,0.2340446502070825,-2.0782533,51.899390000000004
298,298,298,Bromsgrove,0.7860172881043682,0.2135869601874076,0.23834621846764176,-2.061906,52.33559
299,299,299,Skipton,0.36290567402852797,0.08178431618348618,0.6802864101581604,-2.0162787,53.96285
300,300,300,Fraserburgh,0.7312062911837961,0.4437416021136594,0.0901651062342967,-2.007631,57.69335
301,301,301,Berwick,0.3940441619346352,0.5771636165010148,0.2441939810800863,-2.005395,55.77024
302,302,302,Poole,0.9248235487224378,0.1402837111242132,0.1902022012592648,-1.987248,50.71505
303,303,303,Walsall,0.7819396262254859,0.1984270270620697,0.25414670034021425,-1.9829189999999999,52.586209999999994
304,304,304,Cirencester,0.8402945391004671,0.17777693327946492,0.2254587444084945,-1.968243,51.71849
305,305,305,Evesham,0.8399630256283459,0.1846600432144969,0.2199997794467516,-1.9467700000000001,52.09215
306,306,306,Buxton,0.5080090746041521,0.03912333187966603,0.6017333417636912,-1.91483,53.259080000000004
307,307,307,Keighley,0.3796251727690773,0.06995449553506443,0.6769804330454208,-1.9123580000000002,53.8678
308,308,308,Birmingham,0.8053466474314979,0.1853150338746536,0.24665198899308705,-1.8904009999999998,52.48624
309,309,309,Bournemouth,0.9211219560957041,0.13697117012999865,0.19586292891303994,-1.880769,50.719159999999995
310,310,310,Halifax,0.2576575341169148,0.05572227121258313,0.7846311858157854,-1.8575400000000002,53.727019999999996
311,311,311,Salisbury,0.8345994793206928,0.15738296841365548,0.2468790355032327,-1.794472,51.06878
312,312,312,Ringwood,0.9083335237919786,0.14630339550676885,0.1981559027794026,-1.7888169999999999,50.84495
313,313,313,Huddersfield,0.2460582563360973,0.04390054872575426,0.8035674052624949,-1.7850351000000002,53.64579000000001
314,314,314,Peterhead,0.7807530111511805,0.38406299697419066,0.10082747733624928,-1.784066,57.50812
315,315,315,Swindon,0.7289648815035565,0.25596686625178905,0.24795484926763445,-1.7797176,51.55577
316,316,316,Bradford,0.4152912666746543,0.05805310110803585,0.6588484349008249,-1.759398,53.79598000000001
317,317,317,Ashbourne,0.4930831191539298,0.031186958895194218,0.6200546602048919,-1.7321790000000001,53.016630000000006
318,318,318,Marlborough,0.8381549382232953,0.22025953974895304,0.19183935568850904,-1.7270619999999999,51.42007
319,319,319,Stratford-upon-Avon,0.7830304348297842,0.14535931575729585,0.2973855661465854,-1.7082979999999999,52.19173
320,320,320,Alnwick,0.3789794602471252,0.5284912424275914,0.2964732991454033,-1.7062990000000002,55.41274
321,321,321,Otley,0.4718295503629218,0.06287340628561837,0.6104232304383508,-1.691786,53.90583
322,322,322,Bishop Auckland,0.25295609131764824,0.12457546042687093,0.7311124709476415,-1.6787880000000002,54.663819999999994
323,323,323,Burton upon Trent,0.6156763855981868,0.05601413244885985,0.5031085855829494,-1.6371358999999999,52.81403
324,324,324,Newcastle,0.3467291555710077,0.5382416472647301,0.31370899137916114,-1.61778,54.97825
325,325,325,Durham,0.18038372915256976,0.1976222531543376,0.7274322244039341,-1.5848520000000001,54.77525
326,326,326,Ashington,0.34412437388163264,0.5498011071867648,0.30615030870743865,-1.5659829,55.18298000000001
327,327,327,Darlington,0.1859467376050092,0.054772363406114716,0.8417606076590236,-1.559458,54.52361
328,328,328,Leeds,0.3983771538275608,0.05129783735211333,0.6777502110400758,-1.5490774,53.80076
329,329,329,Harrogate,0.5005828034542965,0.05591007871216618,0.5936191768727864,-1.5418120000000002,53.99211999999999
330,330,330,Leamington Spa,0.8125630677831931,0.11361081156523126,0.3005640721878037,-1.5200789,52.28519
331,331,331,Coventry,0.7771885487489868,0.11810550952857853,0.32462140747143714,-1.519693,52.40682
332,332,332,Blyth,0.3539804356262475,0.5451842383058018,0.3022430337911881,-1.510277,55.12696
333,333,333,Wakefield,0.3273610119379479,0.034695754797445875,0.7473398212989071,-1.505924,53.6833
334,334,334,Andover,0.8651340401773089,0.14425997395011314,0.23379378902463915,-1.4919233,51.2112
335,335,335,Witney,0.8358031779583246,0.20152454112946044,0.20925451950062526,-1.4850543999999999,51.785940000000004
336,336,336,Barnsley,0.01,0.040151645606462484,1.0,-1.479726,53.55263000000001
337,337,337,Derby,0.5343588550226483,0.028799856599238807,0.5896096602903199,-1.4746186000000001,52.92253
338,338,338,Sheffield,0.2100689598810983,0.01784743137773935,0.8534910659066429,-1.470085,53.38113000000001
339,339,339,Nuneaton,0.7400608867431319,0.11036165887631524,0.3602257572893483,-1.465382,52.52049
340,340,340,Northallerton,0.2872388783117007,0.06415887484186485,0.7543801131488951,-1.429959,54.337959999999995
341,341,341,South Shields,0.3545899032908714,0.4677723182004741,0.3660885559744012,-1.427406,54.99941999999999
342,342,342,Chesterfield,0.3019870723597411,0.01,0.7961049788481093,-1.421629,53.23505
343,343,343,Southampton,0.8583989607652883,0.15650066170274826,0.22891403026636264,-1.4043508999999998,50.9097
344,344,344,Wetherby,0.4969121459287212,0.06942230880245935,0.5852753536569525,-1.384816,53.92706
345,345,345,Sunderland,0.3390715637393519,0.4538957799781446,0.3898111436632712,-1.383801,54.90687
346,346,346,Rotherham,0.19906183534261426,0.01582699463013306,0.8638177643960965,-1.3635008999999998,53.4326
347,347,347,Castleford,0.4181038214315148,0.05734218729423767,0.6572294906246552,-1.345968,53.72346999999999
348,348,348,Thirsk,0.46654288009023803,0.04966814235834662,0.6255495194823064,-1.341377,54.23385
349,349,349,Banbury,0.783591422111995,0.16454209250863955,0.2810051162912346,-1.339775,52.0629
350,350,350,Stockton,0.15360178075370384,0.044344834388993816,0.8758372816173693,-1.3289821000000002,54.57046
351,351,351,Newbury,0.8885479871522368,0.15920090746558166,0.20298351593002065,-1.3231138999999998,51.40141
352,352,352,Isle of Wight,0.8896872761389484,0.15789267237957405,0.20317548431661447,-1.304734,50.69385
353,353,353,Isle of Wight,0.8896872761389484,0.15789267237957405,0.20317548431661447,-1.304734,50.69385
354,354,354,Abingdon,0.9069539106238754,0.1557582065318025,0.1913834670455539,-1.2879528999999998,51.67078
355,355,355,Shetland Islands,0.7104906237786117,0.4334238675785124,0.11501394836057655,-1.2659409,60.52965
356,356,356,Rugby,0.7647436345835036,0.12514864000980336,0.3285464935135036,-1.265032,52.37088
357,357,357,Oxford,0.9155402480671908,0.15418432555203326,0.1859452877764637,-1.2577263,51.75202
358,358,358,Middlesbrough,0.1998726120237352,0.04421054897088191,0.8395959210563022,-1.234956,54.57423000000001
359,359,359,Hartlepool,0.18365361551686207,0.08371530207878063,0.8195126252043247,-1.212926,54.69174
360,360,360,Loughborough,0.7022030178345476,0.10797868205890716,0.3919491498524742,-1.206166,52.7721
361,361,361,Mansfield,0.2494133296580587,0.021483134858161144,0.8195589305039254,-1.198674,53.1472
362,362,362,Nottingham,0.5068441602724504,0.07304773132840604,0.5744596835372853,-1.1581086,52.95478000000001
363,363,363,Bicester,0.9212463890772312,0.13755242604659518,0.1952821991509498,-1.1535898999999998,51.8996
364,364,364,Leicester,0.6836184095248713,0.1036874858759658,0.4101158996437739,-1.1397591999999999,52.63688000000001
365,365,365,Doncaster,0.061509138898373436,0.07246492562886317,0.9248245159735872,-1.128462,53.522819999999996
366,366,366,Worksop,0.23590669511772536,0.04154666853746568,0.8134990304907249,-1.122745,53.3093
367,367,367,Basingstoke,0.9190257567037401,0.16426260770800485,0.1748324511747526,-1.0923964,51.26654
368,368,368,Portsmouth,0.8847390451073021,0.17381579720823848,0.19383198899236148,-1.0879769,50.81977
369,369,369,York,0.4727098155921682,0.08029748498385836,0.5952534836984125,-1.0872979,53.95997
370,370,370,Selby,0.33814120211494514,0.08949885192734172,0.6933324612773973,-1.067189,53.783519999999996
371,371,371,Helmsley,0.3999105190656029,0.0962474581649736,0.6391953992592386,-1.0562636,54.24651
372,372,372,Towcester,0.7597134486196827,0.1089182870829717,0.3459849278698376,-0.9896879999999999,52.13511
373,373,373,Reading,0.9450682638413224,0.14206371323584702,0.1728177625460609,-0.9781303,51.45426
374,374,374,Retford,0.14826593752171527,0.05750954202451465,0.8690905287288926,-0.9455030000000001,53.32136
375,375,375,Petersfield,0.8227783460755939,0.15950466492306625,0.2544034925187286,-0.93899,51.00759
376,376,376,Northampton,0.7610997566977379,0.10402047093014284,0.3489655526659936,-0.9026559999999999,52.24048
377,377,377,Melton Mowbray,0.7186170901658929,0.09864595463977402,0.386808245891044,-0.887126,52.7664
378,378,378,Aylesbury,0.8696122423585104,0.13951988641095087,0.23421420051678385,-0.8084,51.81561
379,379,379,Newark-on-Trent,0.5166191905207463,0.07978869779095027,0.5611784965371146,-0.80657,53.07004000000001
380,380,380,Malton,0.4406806738034407,0.059204568009245076,0.6379441767394751,-0.7978970000000001,54.13684
381,381,381,Chichester,0.8161942484259459,0.2242443154670936,0.20578187595700795,-0.774936,50.83761
382,382,382,Gainsborough,0.26438822720862204,0.10047100959649613,0.7421598852165443,-0.774465,53.40058000000001
383,383,383,Milton Keynes,0.8216018887956986,0.1176419716321181,0.290112877193666,-0.7594171,52.040620000000004
384,384,384,Aldershot,0.9505841770651317,0.09754787885246301,0.20547406270220026,-0.7557509,51.24837
385,385,385,High Wycombe,0.9046194647811951,0.15836764811073709,0.1910492635788704,-0.748229,51.628609999999995
386,386,386,Midhurst,0.8148571133071953,0.1822996146475618,0.2416858045581174,-0.737274,50.9869
387,387,387,Kettering,0.6710021980081948,0.16167047567662596,0.3718478252234489,-0.7302489999999999,52.39632
388,388,388,Wellingborough,0.732922958439153,0.1604321772745635,0.3242282930713016,-0.693964,52.30242
389,389,389,Corby,0.7359024242268936,0.15731735365961708,0.32447574438444404,-0.6842333,52.4923
390,390,390,Bognor Regis,0.8218706086296463,0.21704474422000264,0.20730456397584085,-0.673061,50.783
391,391,391,Scunthorpe,0.36612823430522656,0.0490484038032372,0.7049559983573137,-0.654413,53.58865
392,392,392,Grantham,0.5615124863533495,0.026690034483107108,0.5700293201602102,-0.643582,52.912519999999994
393,393,393,Whitby,0.2136636648075594,0.0316979725368421,0.8391579886399843,-0.613347,54.48633
394,394,394,Slough,0.9192736992309392,0.1489188834219871,0.18738739042666133,-0.5950406,51.51054
395,395,395,Guildford,0.963263413078945,0.12060675006434328,0.17635200138832466,-0.570409,51.23622
396,396,396,Woking,0.9254660292188954,0.14616352213887854,0.1848117782979884,-0.5600349,51.31677
397,397,397,Lincoln,0.3762308534232576,0.10559465750091564,0.6500325805756652,-0.540579,53.23069
398,398,398,Bedford,0.9539023129528728,0.08724570763056587,0.2114274949877642,-0.46677820000000003,52.13864
399,399,399,Heathrow,0.8506993526022075,0.2036059432822661,0.1958217928301984,-0.4542955,51.47002
400,400,400,Driffield,0.44860075227701945,0.06099393430234349,0.6302348975528348,-0.443377,54.006
401,401,401,Beverley,0.4590378860337022,0.042323982910739896,0.6375484505245559,-0.435093,53.84196
402,402,402,Luton,0.8042957774279497,0.16337536788518384,0.26570820681902035,-0.4200255,51.87867
403,403,403,Scarborough,0.447802441979948,0.05396623616679568,0.6367016239937848,-0.399752,54.28311
404,404,404,Worthing,0.8908630408419517,0.21927437983743736,0.15124745533969028,-0.372882,50.81787
405,405,405,Dorking,0.9051423603343668,0.1554775211950826,0.1930399742968405,-0.332378,51.2322
406,406,406,Hull,0.4149237392041692,0.051041337360528,0.6649635276389315,-0.3274198,53.767619999999994
407,407,407,Horsham,0.8880791125966117,0.1981527591364234,0.17098544751215392,-0.325858,51.06288
408,408,408,Biggleswade,0.9585698194844502,0.10101308438085746,0.19632057690345345,-0.26421999999999995,52.08694000000001
409,409,409,Peterborough,0.5879158260514643,0.20293213694746495,0.40283949248230827,-0.2405299,52.5695
410,410,410,Welwyn Garden City,0.7839979647473744,0.18512881981387452,0.2635795414951892,-0.208661,51.80317
411,411,411,Bridlington,0.4355027381027409,0.03908965138549395,0.6587264051101027,-0.198802,54.08535
412,412,412,Stevenage,0.8664709444370956,0.12777458350292722,0.24644179231581606,-0.19661199999999998,51.90376
413,413,413,Crawley,0.9240543266548142,0.17714534215900524,0.16017692360793626,-0.18722750000000002,51.109140000000004
414,414,414,Huntingdon,0.8244892418568539,0.1450635909776177,0.2650588987812583,-0.182552,52.33146
415,415,415,Hove,0.909784472379918,0.2068173118263915,0.14673264328461247,-0.168749,50.82793
416,416,416,Spalding,0.6596587119593484,0.1326226319780423,0.40489693144047856,-0.1537024,52.7901
417,417,417,Brighton,0.9073459091445312,0.21414023269925456,0.14256371531233372,-0.137163,50.82253
418,418,418,London,0.9858074834780012,0.16216230256883946,0.12411017374771367,-0.12775830000000002,51.50735
419,419,419,Grimsby,0.4538327089752655,0.08340534548951062,0.6075019518781107,-0.08078400000000001,53.56746999999999
420,420,420,Boston,0.6314936875079212,0.14395368445288526,0.41760945018433066,-0.026576999999999996,52.97894
421,421,421,Royston,0.8674195439196479,0.15333417138028055,0.22445802031912096,-0.024066,52.048140000000004
422,422,422,Louth_Lincs,0.4804770654316635,0.08396536283136352,0.5861033170809532,-0.007711,53.36596
423,423,423,Lewes,0.9457742305528448,0.19132201440263494,0.13133276664207572,0.00878,50.873870000000004
424,424,424,Chatteris,0.7520246908279041,0.16661312639525486,0.3040849617545069,0.054012,52.4561
425,425,425,Uckfield,0.9539006969401258,0.18976022609543292,0.12624584018617305,0.095913,50.966409999999996
426,426,426,Cambridge,0.8284078419096285,0.19602324822849448,0.21963604796293132,0.12181700000000001,52.20534
427,427,427,Bishop's Stortford,0.8376394301569678,0.1514806528043748,0.2493952107079763,0.15365020000000001,51.87216
428,428,428,Wisbech,0.6523737264953833,0.1583507751217578,0.3892419312788726,0.158797,52.66631999999999
429,429,429,Sevenoaks,0.6823657687868985,0.2663666519713774,0.275924120831403,0.190898,51.27241
430,430,430,Tunbridge Wells,0.8719736986999639,0.1611578685961741,0.2143791358948634,0.26369499999999996,51.13238
431,431,431,Eastbourne,0.9296120253510844,0.19010172404185047,0.1450446128798962,0.29047199999999995,50.768029999999996
432,432,432,Brentwood,0.8644714749509943,0.16749811794140715,0.21500493759957315,0.30717490000000003,51.62047000000001
433,433,433,Skegness,0.58577368572569,0.17828672455709876,0.4250011399483274,0.337881,53.1464
434,434,434,Downham Market,0.7559379811245095,0.16145793713368778,0.3052940868984877,0.385472,52.606609999999996
435,435,435,King's Lynn,0.6639836237885387,0.19918094189564686,0.3461932563740342,0.4022963,52.75168000000001
436,436,436,Bexhill,0.909214943316044,0.19751715167706047,0.1549080044469049,0.4662071,50.849909999999994
437,437,437,Chelmsford,0.8707739246647177,0.18396593690589155,0.19636958470585106,0.4685497,51.73559
438,438,438,Mildenhall,0.8292400884743893,0.18064411904192768,0.231761162306913,0.5156095,52.34757000000001
439,439,439,Medway,0.8906488037234781,0.13488289217961408,0.22153966191290986,0.5417860999999999,51.404740000000004
440,440,440,Braintree,0.8621991301695957,0.21455317345670602,0.17769039322649052,0.5509269,51.88009
441,441,441,Gillingham,0.8861992280537966,0.13909000718073375,0.22153966191290986,0.551438,51.38632
442,442,442,Hastings,0.9615587504897094,0.11995819864318905,0.17823020455697108,0.573453,50.85426
443,443,443,Maldon,0.9120316535342544,0.1728023483009697,0.17323135429960396,0.6714479999999999,51.731809999999996
444,444,444,Southend,0.9004413792530279,0.16890735085407338,0.1855738296739088,0.7077123000000001,51.54593
445,445,445,Bury St Edmunds,0.8383326996254775,0.17550318341788124,0.2288893268515345,0.7104931999999999,52.24292
446,446,446,Thetford,0.8760472051174969,0.16971605378899338,0.2040674734780184,0.751657,52.412859999999995
447,447,447,Ashford,0.835163006051506,0.15842101739670647,0.2455737810651336,0.8750190000000001,51.14647
448,448,448,Faversham,0.856729388738561,0.1666206788586272,0.22181660496798367,0.889358,51.31599
449,449,449,Colchester,0.8767259304712823,0.18520203068714305,0.1906663243738292,0.891874,51.89593
450,450,450,New Romney,0.8127523721335684,0.1505587720585136,0.2697138782297221,0.939473,50.98512
451,451,451,Canterbury,0.8497816882208136,0.16401723996011866,0.2294384246345789,1.0789089,51.280229999999996
452,452,452,Ipswich,0.9089000516893216,0.1555627156012742,0.1900167986848352,1.14822,52.05674000000001
453,453,453,Clacton,0.8935490848866099,0.17788210024052847,0.18353146306355209,1.153035,51.78953
454,454,454,Folkestone,0.8133255949408642,0.15347190561114632,0.2668429859296822,1.169456,51.0814
455,455,455,Sheringham,0.8019467874705454,0.2357147610953927,0.20744418724114694,1.2109589,52.944419999999994
456,456,456,Harwich,0.9056052325569316,0.17770503208192578,0.17420668574524814,1.260297,51.93473
457,457,457,Norwich,0.8517954709626748,0.20771983119938767,0.19154231616968365,1.297355,52.63089
458,458,458,Cromer,0.8019467874705454,0.2357147610953927,0.20744418724114694,1.301866,52.93145
459,459,459,Dover,0.8175286132371298,0.15992432868259476,0.2581792698156665,1.3134027,51.12788
460,460,460,Felixstowe,0.9013535030192892,0.17962877110485145,0.17594845786665736,1.3512549999999999,51.961729999999996
461,461,461,Margate,0.7627686361475731,0.2410636513973247,0.233780203960244,1.3868339,51.38965
462,462,462,Ramsgate,0.7770844313562804,0.2282139862584893,0.2332102297965335,1.4198950000000001,51.33555
463,463,463,Great Yarmouth,0.8656407756030092,0.2014781349527852,0.1858510992058305,1.728047,52.59823000000001
464,464,464,Lowestoft,0.8414772295723867,0.19473363236577185,0.210439594183474,1.7534490000000005,52.48114
465,465,465,Swaffham,0.8298583287796402,0.19859612802665244,0.216358546886374,0.687481,52.64747
466,466,466,Dereham,0.8284948757390083,0.2163896007643442,0.2026444878610285,0.9378270000000001,52.681619999999995
467,467,467,Ely,0.7880370731792904,0.19384357674013286,0.2531648030824057,0.262363,52.39954
468,468,468,March,0.6710779197483452,0.1672822833812169,0.3671254101682811,0.088622,52.551719999999996
469,469,469,St Neots,0.8883113567142673,0.1366055959780906,0.22194456575477686,-0.26510300000000003,52.23008
470,470,470,Banham,0.8827257240833688,0.1357937061655626,0.2270077138135873,1.0402849,52.45125
471,471,471,Holt,0.8086255372953812,0.22940002859895234,0.20744418724114694,1.086747,52.90936
472,472,472,Cromer,0.8019467874705454,0.2357147610953927,0.20744418724114694,1.301866,52.93145
473,473,473,Hunstanton,0.6800380178541703,0.23114012925669986,0.3070239244773441,0.49103199999999997,52.93891
474,474,474,Horncastle,0.5669810734895647,0.13699786568694775,0.4740741107523373,-0.11245,53.20731
475,475,475,Market Weighton,0.4332324710520173,0.06803802521243649,0.6364559138904979,-0.6677465,53.86484
476,476,476,Hawes,0.4187130582371745,0.18670634605775707,0.5492574302231009,-2.1968695,54.30383000000001
477,477,477,Reeth,0.2600335345730921,0.03950158805821953,0.7962428064907516,-1.9428115000000001,54.38946
478,478,478,Aysgarth,0.4476057501427284,0.052549581758330036,0.638033250506157,-1.9967433999999997,54.29159
479,479,479,Stanhope,0.17680841637907402,0.2567592418959503,0.6811021488379656,-2.011302,54.74946
480,480,480,Keswick,0.37034464242139664,0.499153502006325,0.3276349882916333,-3.134706,54.60128
481,481,481,Oxenholme,0.4280383752238465,0.2163310146033864,0.5173147903189749,-2.7243327999999996,54.30134
