index,placename,longitude,latitude,off,off_of
0,Dingle,-10.264013499999999,52.14094,0.3316511473097643,0.2672407041173403
1,Tralee,-9.6999325,52.27131,0.45417875684022746,0.2778480762602249
2,Killarney,-9.5044265,52.059940000000005,0.5955917945993893,0.2780435268796155
3,Bantry,-9.4539805,51.68035,0.3510759814945324,0.25803719387350416
4,Mayo,-9.4289369,54.01526,0.4321676523987164,0.31301664058759027
5,Ballycastle,-9.3724643,54.279669999999996,0.06956094475876769,0.2621245649581145
6,Abbeyfeale,-9.2970823,52.386179999999996,0.07540786125392987,0.2314848404096828
7,Ennistymon,-9.2934951,52.940369999999994,0.05926373514103295,0.3160787102774612
8,Galway,-9.0567905,53.270669999999996,0.6750182132676786,0.3922386727950427
9,Claremorris,-9.0017356,53.72388,0.5542176079741912,0.3389391671375563
10,Clare,-8.9811351,52.90453,0.5464688445256171,0.34485476496819456
11,Adare,-8.7925892,52.56363,0.3139619087169348,0.2505928055365393
12,Charleville,-8.681017599999999,52.36206,0.07357089898341769,0.2411117274897546
13,Mallow,-8.6539164,52.13898,0.4100609400532127,0.257095686458207
14,Limerick,-8.6267343,52.66384,0.6714975897973517,0.29567995662117147
15,Loughrea,-8.5660931,53.19891,0.05994279512670112,0.3125206741442036
16,Sligo,-8.476088800000001,54.27661,0.5873005889263206,0.24083089673952449
17,Cork,-8.4756035,51.898509999999995,0.7610834777055201,0.25830172595760426
18,Nenagh,-8.19834,52.8635,0.4793541577243203,0.30262685328761535
19,Roscommon,-8.1890955,53.627590000000005,0.5036836132148343,0.2562376006792643
20,Tipperary,-8.161851400000002,52.47379,0.5765563484485726,0.25783124954483316
21,Donegal,-8.1096143,54.653830000000006,0.6371118435572566,0.12730544042736053
22,Leitrim,-8.0020132,54.12469,0.48030286253779797,0.16329481960173886
23,Athlone,-7.9406898,53.423930000000006,0.4826366191084238,0.2155736499063884
24,Longford,-7.7932573000000005,53.727630000000005,0.5189074103129907,0.13265949314577977
25,Offaly,-7.7122229,53.235690000000005,0.5899271805615629,0.13340054878458535
26,Fermanagh,-7.6318728,54.343830000000004,0.4282819669835412,0.11886556961181621
27,Enniskillen,-7.631533599999999,54.343819999999994,0.5025354657346088,0.12247324886415509
28,Doon,-7.60964,54.185930000000006,0.34371246828271057,0.13089296954967736
29,Westmeath,-7.4653217000000005,53.534530000000004,0.5103202064654782,0.0885045944109711
30,Strabane,-7.4633103,54.82739,0.5116821270878565,0.14720593484078753
31,Balivanich,-7.3743509000000005,57.472269999999995,0.11409963657807676,0.28389112827737145
32,Cavan,-7.3633319,53.98972,0.5486829571615928,0.14923329970963922
33,Mullingar,-7.340186800000001,53.525819999999996,0.49352113382243207,0.1396844627029872
34,Laois,-7.332300699999999,52.9943,0.5783045624768022,0.1419456868467254
35,Omagh,-7.309959700000001,54.59771,0.5328803645829815,0.1382829783098949
36,Derry,-7.308574799999999,54.99661,0.6768199285299467,0.11271816190565871
37,Derry,-7.308574799999999,54.99661,0.6768199285299467,0.11271816190565871
38,Kilkenny,-7.2447879,52.65415,0.6140413811681453,0.19309713382809562
39,Tyrone,-7.131232000000001,54.491209999999995,0.4400104652957369,0.11667785384295519
40,Waterford,-7.110070200000001,52.25932,0.6510942707490541,0.19322770651054838
41,Western Isles,-7.0194034,57.759890000000006,0.3744014439269337,0.2781008424503642
42,Monaghan,-6.9683132,54.2492,0.5436991380942198,0.1129476795930181
43,Carlow,-6.934135899999999,52.83651,0.5918836676371689,0.14911018079541363
44,Kildare,-6.8194707999999995,53.21204,0.6646172020284424,0.15208500285019083
45,Dungannon,-6.7669352,54.508269999999996,0.4635859554715875,0.04171791719823699
46,Cookstown,-6.7443895000000005,54.641819999999996,0.5264283650162345,0.05000152219260794
47,Coleraine,-6.6646103000000005,55.132580000000004,0.6373552107618433,0.06962078318783262
48,Meath,-6.656416900000001,53.60555,0.6147004439740162,0.18753806127497996
49,Armagh,-6.652792,54.350280000000005,0.5410829366382259,0.11592400498031943
50,Armagh,-6.652792,54.350280000000005,0.5410829366382259,0.11592400498031943
51,Magherafelt,-6.607980499999999,54.75536999999999,0.5579122233402994,0.01
52,Dunvegan,-6.581398200000001,57.4366,0.06672359411761707,0.2769917036508475
53,Louth,-6.4889423,53.925230000000006,0.6168905722305565,0.18980951250884473
54,Wexford,-6.4633381,52.33692,0.637103732142159,0.16942056073842332
55,Craigavon,-6.4175653,54.442930000000004,0.5936801937320504,0.06801966059996098
56,Stornoway,-6.384869200000001,58.209430000000005,0.4741273954353762,0.29144408162215213
57,Drogheda,-6.3560985,53.717859999999995,0.5234357316592069,0.19128099148154826
58,Rosslare,-6.3414908,52.25131,0.09017636584946673,0.15410234145245563
59,Newry,-6.34023,54.1751,0.5757726783128296,0.15996756112140198
60,Scilly Isles,-6.327496599999999,49.92773,0.3672202350651003,0.36883377975137727
61,Ballymena,-6.2802213,54.86529,0.5832972153374855,0.0631649888579656
62,Banbridge,-6.2704803,54.34873,0.5345488406242175,0.06238236803763468
63,Dublin,-6.2603097000000005,53.34981,0.8875575720584,0.21797595873443879
64,Antrim,-6.2072498,54.719530000000006,0.6082627463937197,0.08207511666523498
65,Antrim,-6.2072498,54.719530000000006,0.6082627463937197,0.08207511666523498
66,Portree,-6.1960231,57.41246999999999,0.4636669611549429,0.3063803394281011
67,Islay,-6.177067,55.73625,0.38181459824949787,0.32687399107296683
68,Wicklow,-6.044589,52.980819999999994,0.6189150071078278,0.168082603954444
69,Kilkeel,-6.007004,54.06312,0.40064364123194013,0.15581772859143544
70,Mull,-6.0008870000000005,56.4392,0.3476483292866721,0.5220610726901042
71,Belfast,-5.93012,54.597280000000005,0.8315036023655294,0.10941418243467224
72,Broadford,-5.9096592,57.24139,0.06541307835146058,0.283856323952441
73,Down,-5.7156921999999994,54.32875,0.6069494256834138,0.11117136574287394
74,Kyle of Lochalsh,-5.7143293,57.28261,0.06554889034859386,0.28314378501464305
75,Campbeltown,-5.605373999999999,55.424119999999995,0.40843073415855075,0.3102125125437943
76,Penzance,-5.537592,50.1188,0.5466325862477506,0.3838503067912687
77,Oban,-5.471047,56.41516,0.44626796337782904,0.5609182329441347
78,Lochgilphead,-5.4323449,56.03829,0.3125471875108476,0.41219405519795954
79,Helston,-5.274996,50.10159,0.4444612561921163,0.37222219332440437
80,Redruth,-5.226666000000001,50.23302,0.48443899396003254,0.37864480252057486
81,Ullapool,-5.161313,57.895419999999994,0.37296020263839125,0.29079027462677703
82,Ballachulish,-5.133719999999999,56.673930000000006,0.05132783411263692,0.35766094206262167
83,Fort William,-5.1052179,56.81981999999999,0.47818221556977636,0.32728746502851097
84,Achnasheen,-5.078765799999999,57.578590000000005,0.06761897321212378,0.27229767686818623
85,Newquay,-5.0737190000000005,50.4155,0.5361399407423617,0.3851971101738079
86,Falmouth,-5.066269999999999,50.152570000000004,0.5647395782902901,0.3831384455865871
87,Rothesay,-5.055793,55.83596,0.44422964617966226,0.4596970485447053
88,Truro,-5.051041000000001,50.2632,0.6847604523750447,0.3976812631687387
89,Milford Haven,-5.0426971,51.71431,0.4653590885135312,0.16431373997792528
90,Stranraer,-5.024055000000001,54.903369999999995,0.48729538287081475,0.11306434533809033
91,Fishguard,-4.975989,51.99393,0.38595616663227167,0.155977453179297
92,Inchnadamph,-4.974295,58.15221,0.07364020510566718,0.24074825009800996
93,Haverfordwest,-4.971319,51.800470000000004,0.5038143099029978,0.14494095156635653
94,Dunoon,-4.926214,55.95097,0.41476707130895585,0.44339417136899645
95,Pembroke,-4.908637000000001,51.674040000000005,0.588854102993029,0.16301768188941357
96,Girvan,-4.8542179,55.240159999999996,0.41644366655284215,0.37764883618166895
97,Wadebridge,-4.836456,50.51665,0.4644182036321375,0.4138328148977453
98,Invergarry,-4.800261,57.07095,0.06583521564152021,0.2816433999349648
99,St Austell,-4.7834252,50.340379999999996,0.49971403195403324,0.3806993601427505
100,Greenock,-4.7719830000000005,55.956480000000006,0.571537884596502,0.46117557189815866
101,Helensburgh,-4.734014,56.00232,0.43379214256542536,0.449666394209732
102,Bodmin,-4.7188629,50.4715,0.44150090973462747,0.39556184452693915
103,Tenby,-4.703579,51.672740000000005,0.5027246713112005,0.150647635677337
104,Camelford,-4.682364,50.62206,0.3342882301750121,0.4444931902487396
105,Irvine,-4.6696364,55.61156999999999,0.6109179804988545,0.39094304008457664
106,Cardigan,-4.660864,52.0837,0.4319954211292028,0.22400151953204833
107,Holyhead,-4.633038,53.30944,0.4845588073390848,0.09685682147821843
108,Ayr,-4.629179,55.45856,0.6438200103920532,0.36182735379613684
109,Dumbarton,-4.564554,55.94529,0.5583325916300111,0.42197190661225453
110,Bude,-4.543678,50.826640000000005,0.43406173085762095,0.5180183759581478
111,Isle of Man,-4.5126330999999995,54.27697,0.6752230375280227,0.08894510449231872
112,Kilmarnock,-4.498792,55.61472,0.5939833615907228,0.379830594258739
113,Newton Stewart,-4.483164,54.9603,0.38933708918074633,0.2618668516838468
114,Liskeard,-4.4647190000000005,50.45552,0.463236116883138,0.4123250496456517
115,Altnaharra,-4.442655,58.28023,0.07222398000153532,0.248168045525656
116,Pwllheli,-4.417633900000001,52.888819999999996,0.44246416397421195,0.16914784810731096
117,Lairg,-4.402414,58.022059999999996,0.06907090147014142,0.26469087894350557
118,Launceston,-4.360451599999999,50.636829999999996,0.4170946467635979,0.50762588130598
119,Carmarthen,-4.312131,51.857620000000004,0.5841813274998022,0.1307509794768267
120,Llangefni,-4.311401999999999,53.255790000000005,0.56645563570517,0.12486016649461765
121,Caernarfon,-4.273911,53.13955,0.5512287466985174,0.10177718509417823
122,Cumnock,-4.265828900000001,55.45355,0.522770977747021,0.29665338415451026
123,Aberaeron,-4.2581619,52.24279,0.39690833516174656,0.2794711186457472
124,Alness,-4.256825,57.69595,0.4707530217574402,0.2890084127186911
125,Glasgow,-4.251806,55.86424,0.8380219781717182,0.460633089819368
126,Dalwhinnie,-4.242783,56.9366,0.07108217913903483,0.25415106166606366
127,Inverness,-4.224721,57.47776999999999,0.6482372885971286,0.29302276284065754
128,Saltash,-4.21643,50.409209999999995,0.41579174495695315,0.5394665068414983
129,Bideford,-4.206666,51.01668,0.4800885009899954,0.4262030054925657
130,Invergordon,-4.1728819999999995,57.688109999999995,0.475185012942087,0.2885096939088822
131,Llanelli,-4.160248,51.680890000000005,0.6256774680137106,0.13889372395432178
132,Plymouth,-4.1426565,50.37546,0.6752205009394765,0.5569925763822118
133,Tavistock,-4.141654,50.551120000000004,0.4677321229436608,0.4918027861978865
134,Porthmadog,-4.1333839999999995,52.92784,0.4977709122181831,0.21201176392439605
135,Bangor,-4.129263,53.22739,0.6462720711432336,0.12629011215687158
136,Tywyn,-4.087249,52.58701,0.3346615511345285,0.2608652371875586
137,Aberystwyth,-4.08292,52.4153,0.5769720434808475,0.3193550192654479
138,Lampeter,-4.0785089999999995,52.1129,0.434455274470633,0.229792458406119
139,Barnstaple,-4.058338,51.07816,0.553638855797655,0.4598753133175912
140,Tain,-4.05523,57.8115,0.3680796910710423,0.2788549808959494
141,Okehampton,-4.004263,50.73831,0.384651600383546,0.4553152403934514
142,Llandeilo,-3.9914300000000003,51.88469,0.5344706222727542,0.12283192458093924
143,Motherwell,-3.9810968,55.78321,0.6702805944495804,0.3958213143685816
144,Golspie,-3.976086,57.97341,0.0699536794515104,0.26006438287819245
145,Airdrie,-3.9625660000000003,55.86626999999999,0.613776160528998,0.42781443187384904
146,Swansea,-3.9436459999999998,51.62144,0.7736053680542817,0.116272035396532
147,Stirling,-3.9369029,56.116519999999994,0.6606793301141762,0.3188890551957289
148,Tregaron,-3.934385,52.22,0.41175541508985536,0.3132984851921621
149,Tregaron,-3.934385,52.22,0.41175541508985536,0.3132984851921621
150,Castle Douglas,-3.9314139999999997,54.940419999999996,0.4417427304945295,0.17565263660631586
151,Dolgellau,-3.8844,52.74215,0.3532663284887999,0.253967418074793
152,Aberfeldy,-3.866969,56.62175,0.4950539930390415,0.16029729686654287
153,Machynlleth,-3.853485,52.59027,0.4005382272886212,0.31368094895858606
154,Brora,-3.8525480000000005,58.012159999999994,0.32443157444070053,0.26498792615187755
155,Llandudno,-3.827609,53.324059999999996,0.5783638157299773,0.20474163876617832
156,Llandudno,-3.827609,53.324059999999996,0.5783638157299773,0.20474163876617832
157,Aviemore,-3.823812,57.19449,0.4747614381595247,0.09842337412858525
158,Dalbeattie,-3.8225269999999996,54.934219999999996,0.3623082544823872,0.15145627566015532
159,Falkirk,-3.7839131,56.00188000000001,0.667965588901569,0.28423788046903187
160,Kingsbridge,-3.777493,50.28395,0.4379405784672761,0.4888232960533688
161,Pitlochry,-3.729711,56.70436,0.387933745871871,0.23223838109727837
162,Colwyn Bay,-3.72764,53.29318000000001,0.571130524132838,0.11074398461661027
163,Totnes,-3.685797,50.43374,0.4512743921784674,0.4805197187905578
164,Grantown-on-Spey,-3.609628,57.33041,0.34394537150711413,0.28784250587250215
165,Dumfries,-3.60512,55.070859999999996,0.6103013927078886,0.13462363838991043
166,Whitehaven,-3.589233,54.5497,0.5597607613252042,0.1622697166888204
167,Dartmouth,-3.578807,50.35252,0.39765362248991426,0.4692282895224927
168,Bridgend,-3.576945,51.504290000000005,0.6917440419870995,0.08432105783272133
169,Paignton,-3.564235,50.43508,0.559187847461993,0.49266777459944616
170,Workington,-3.5427519999999997,54.64357,0.5536745329719454,0.17329095765905736
171,Llanidloes,-3.5401949999999998,52.447790000000005,0.371656368346127,0.2924838743477451
172,Exeter,-3.533899,50.71841,0.7176235487965281,0.47110434610126634
173,Torquay,-3.525315,50.46192,0.5652896481886044,0.5006537321680139
174,Thurso,-3.5220800000000003,58.59356999999999,0.457500089183842,0.24787107265272787
175,Livingston,-3.518068,55.90071,0.6654660009086052,0.27053586797565315
176,Rhyl,-3.4916339999999995,53.319140000000004,0.5681543143809373,0.10289070793119856
177,Tiverton,-3.491207,50.90205,0.4822805005156377,0.4025291791059512
178,Tiverton,-3.491207,50.90205,0.4822805005156377,0.4025291791059512
179,Minehead,-3.481152,51.20428,0.4346020592707984,0.2892573490419718
180,Dunfermline,-3.452151,56.071740000000005,0.6476042874136189,0.27884197744291245
181,Perth,-3.4308381000000003,56.39499,0.5196095708603815,0.279402822099995
182,Prestatyn,-3.4076129999999996,53.33651,0.5212498047718171,0.10723257700558367
183,Builth Wells,-3.4045919999999996,52.15002,0.44371960180236436,0.3549842789322703
184,Braemar,-3.3979439,57.00646999999999,0.08906466764612415,0.1599277003287883
185,Brecon,-3.391463,51.94895,0.5195548307723338,0.2072231532163662
186,Merthyr Tydfil,-3.381646,51.74873,0.7151768624321092,0.18167112307259958
187,Llandrindod Wells,-3.377742,52.2417,0.39678708043475436,0.4029802958224841
188,Corwen,-3.369242,52.98005,0.3694142115066423,0.19764547160010437
189,Cockermouth,-3.367985,54.66326,0.47045993315326823,0.18359786170741735
190,Lockerbie,-3.349008,55.122240000000005,0.573377201000906,0.14105107332328382
191,Blairgowrie,-3.3378318,56.58941,0.44760917826816954,0.2923250903047568
192,Elgin,-3.318485,57.64945,0.6207106541532122,0.2618505553282091
193,Newtown,-3.313106,52.51211,0.4031760650412375,0.2107937501944252
194,Ruthin,-3.3103108,53.114869999999996,0.4999696921333014,0.17889157764477623
195,Ruthin,-3.3103108,53.114869999999996,0.4999696921333014,0.17889157764477623
196,Sidmouth,-3.2375599999999998,50.67865,0.4464689162392347,0.46045529559204323
197,Barrow-in-Furness,-3.2188939999999997,54.10896999999999,0.6286610247522213,0.12377943315966933
198,Peebles,-3.1936419999999996,55.65306999999999,0.4576721554803785,0.35339507463023573
199,Edinburgh,-3.1882669999999997,55.95325,0.842946867284616,0.2839795992699562
200,Cardiff,-3.17909,51.48158,0.8352390357294649,0.2072191897472761
201,Llangollen,-3.1716599999999997,52.96921,0.42112046209228354,0.22838237177405432
202,Kirkcaldy,-3.158137,56.11682,0.6774652026462477,0.29999613732876196
203,Welshpool,-3.146407,52.66035,0.49634624552601603,0.18914738732329137
204,Mold,-3.1419029999999997,53.1672,0.6129503994689769,0.15675754807100817
205,Mold,-3.1419029999999997,53.1672,0.6129503994689769,0.15675754807100817
206,Taunton,-3.106849,51.01534,0.5338433121911458,0.7406047707531964
207,Wick,-3.093716,58.43894,0.4413482899699371,0.25167064682065443
208,John o' Groats,-3.0688997000000002,58.63734,0.07636764603779742,0.2264581487298843
209,Dalkeith,-3.066606,55.893119999999996,0.6235562070904029,0.2585173679576888
210,Oswestry,-3.056412,52.85715,0.5634739989541577,0.20652187885704307
211,Blackpool,-3.0356748,53.81751,0.7545269996730547,0.0613819838036657
212,Birkenhead,-3.023009,53.389990000000004,0.7358027504332892,0.11936820441402649
213,Cupar,-3.010137,56.32023,0.4563557663708746,0.29539565077076374
214,Southport,-3.010113,53.64571,0.6784459049911654,0.12293360817072758
215,Bridgwater,-3.003632,51.12789,0.5815134060115101,0.7568779792771461
216,Langholm,-2.998913,55.153059999999996,0.378657837077542,0.09825154016576768
217,Newport,-2.997664,51.58415,0.7201972119428289,0.18329884845831024
218,Axminster,-2.9949369999999997,50.78273,0.4487688696536847,0.5516146764526673
219,Wrexham,-2.9924939999999998,53.043040000000005,0.663365618516795,0.1847624278131328
220,Liverpool,-2.9915726,53.40837,0.8873682880445234,0.10958247982047041
221,Weston-super-Mare,-2.977255,51.347409999999996,0.6289140844629483,0.31980778425481454
222,Dundee,-2.9707209999999997,56.462019999999995,0.6952519234914517,0.36461031314239756
223,Kirkwall,-2.9622491,58.984669999999994,0.4573344299718614,0.2505624378228321
224,Ambleside,-2.961333,54.428740000000005,0.6009065454491425,0.08004111623049989
225,Orkney Islands,-2.9605206,58.980940000000004,0.4657395126197904,0.25112094488524733
226,Lyme Regis,-2.936639,50.725159999999995,0.3998093779211036,0.6495671638480837
227,Carlisle,-2.932931,54.892469999999996,0.7211923418686035,0.1283702717321158
228,Chester,-2.893075,53.19339,0.7339427140352206,0.17520143912917008
229,Forfar,-2.889062,56.64356,0.5099917810818847,0.32832286882606754
230,Morecambe,-2.864968,54.074169999999995,0.5792197290029326,0.120541707526558
231,Selkirk,-2.838524,55.55066,0.5351179904091413,0.24261498081661106
232,Galashiels,-2.814449,55.62373,0.5148172414393823,0.26018909815617824
233,Lancaster,-2.8007399,54.046569999999996,0.6897217039543427,0.06720012595044222
234,St Andrews,-2.7967214,56.339780000000005,0.5490779762559502,0.3201109922442997
235,Hawick,-2.780914,55.42706,0.5127311391156131,0.09047532455825281
236,Bridport,-2.758301,50.733579999999996,0.3976637527887916,0.72829082933946
237,Shrewsbury,-2.7553267999999997,52.7073,0.707517875002343,0.22173111019999603
238,Penrith,-2.752708,54.6641,0.6763976376513795,0.1306917948749667
239,Kendal,-2.74629,54.32801,0.6514206832532821,0.053700798077852864
240,Street,-2.7429189999999997,51.12468,0.3408157989674369,0.7044872255703438
241,Glastonbury,-2.718454,51.14743,0.37930452787181923,0.779034460961238
242,Hereford,-2.715974,52.0564,0.6607226666142415,0.19678031829987833
243,Ludlow,-2.7139129,52.36775,0.578114235242305,0.014688929764429742
244,Preston,-2.70309,53.7632,0.8067409377142476,0.014423156589424042
245,Whitchurch,-2.682045,52.96872,0.49286496330933904,0.17314495521593068
246,Wells,-2.6445979,51.20935,0.42424728205600876,0.7663708597839517
247,Yeovil,-2.633308,50.94206,0.5023343077265114,0.768849021923586
248,Wigan,-2.6325074,53.54506,0.827025829255791,0.01
249,Warrington,-2.5969501,53.39004,0.8361713977337959,0.02530640809956205
250,Arbroath,-2.591543,56.55911,0.5342015484770691,0.34529448508068233
251,Bristol,-2.58791,51.45451,0.7649506240264851,0.6603383141337197
252,Guernsey,-2.5852779999999997,49.46569,0.01,0.6139819047185665
253,Ross-on-Wye,-2.582446,51.91445,0.5519805321697437,0.3617126941229425
254,Jedburgh,-2.5549369,55.47772,0.45121195070091225,0.05798455839893199
255,Sedbergh,-2.5281740000000004,54.32363,0.46117788534965265,0.08187593303905927
256,Sedbergh,-2.5281740000000004,54.32363,0.46117788534965265,0.08187593303905927
257,Nantwich,-2.524102,53.067190000000004,0.5728274593288537,0.15701508946495557
258,Banff,-2.524038,57.666509999999995,0.4300769115035457,0.3196099325828809
259,Dunbar,-2.516737,56.00209,0.580024337831413,0.2526035707155183
260,Cinderford,-2.5009579,51.8253,0.5201326616261611,0.40170887702304814
261,Banchory,-2.4909599,57.05386,0.47794598121986104,0.3472881393236805
262,Blackburn,-2.487529,53.748580000000004,0.7378263165963014,0.01
263,Market Drayton,-2.483485,52.90355,0.4438602223669206,0.16726453091779533
264,Telford,-2.4672611,52.67759,0.6710031798101056,0.18949604473297968
265,Montrose,-2.4661150000000003,56.70692,0.5039691141071647,0.33708837266221575
266,Turriff,-2.4623,57.53893000000001,0.4404405946526096,0.346283134240754
267,Weymouth,-2.457621,50.61443,0.48255309364882515,0.7789414698247994
268,Crewe,-2.4438209,53.10041,0.6620617005024831,0.13251852536291445
269,Fortuneswell,-2.4422189999999997,50.55919,0.303978770341292,0.7428796842052098
270,Dorchester,-2.4411810000000003,50.71116,0.553817378161057,0.8109901536820608
271,Alston,-2.438685,54.812169999999995,0.3773529935214336,0.046347098913821064
272,Kelso,-2.432207,55.600030000000004,0.5050145369956798,0.06431381179289328
273,Wincanton,-2.416007,51.055690000000006,0.37545751445614817,0.6353773259138239
274,Clitheroe,-2.3930830000000003,53.8711,0.6051707932871341,0.03287797252572937
275,Sark,-2.3666256000000003,49.43007,0.01,0.6266060405300398
276,Bath,-2.3590167,51.38106,0.657022856206714,0.6030403232465695
277,Kidderminster,-2.2496839,52.3886,0.6110306846405473,0.18114739224555684
278,Manchester,-2.2426305,53.48076,0.9475650582082151,0.1394158348680188
279,Burnley,-2.2405035,53.78929,0.7012393888943249,0.052356391065730194
280,Gloucester,-2.238156,51.86424,0.6962576162219275,0.39859034568522933
281,Newcastle-under-Lyme,-2.2273002,53.01321,0.6257103696801442,0.13352678949238395
282,Worcester,-2.221575,52.19364,0.7252575745568631,0.26656920126434375
283,Trowbridge,-2.208853,51.31966,0.6470622782556503,0.5887009322061141
284,Shaftesbury,-2.198083,51.0046,0.391425427664517,0.7286855567493239
285,Alderney,-2.1973557,49.715,0.01,0.5846952888618977
286,Stoke-on-Trent,-2.179404,53.002669999999995,0.7407928932879507,0.14523895442279233
287,Colne,-2.176991,53.85564,0.5873202883084436,0.049125691928844376
288,Blandford Forum,-2.165353,50.85691,0.34333626924158184,0.7607106476824226
289,Rochdale,-2.1561,53.60971,0.7538486784159688,0.09401544868183995
290,Jersey,-2.13125,49.21444,0.01,0.5912327831790751
291,Wolverhampton,-2.12882,52.586969999999994,0.7241910003100304,0.11734995872407389
292,Stafford,-2.12066,52.80669,0.7209656432041167,0.13477613588304135
293,Macclesfield,-2.119287,53.25866,0.7027068449481171,0.11410779472893404
294,Hexham,-2.1121439,54.97266,0.661369915237266,0.07958601426801608
295,Aberdeen,-2.094278,57.149719999999995,0.7212777417720833,0.3961493366580855
296,Dudley,-2.081112,52.51226,0.7116553371475873,0.1136744283548839
297,Cheltenham,-2.0782533,51.899390000000004,0.6811209128772808,0.3756109034249497
298,Bromsgrove,-2.061906,52.33559,0.6458297495176478,0.1930681477718804
299,Skipton,-2.0162787,53.96285,0.5731065830595397,0.12198924119954907
300,Fraserburgh,-2.007631,57.69335,0.4531340632259656,0.3542641987006526
301,Berwick,-2.005395,55.77024,0.5519158597636153,0.0403020990688229
302,Poole,-1.987248,50.71505,0.5534323764744281,0.7961293709190644
303,Walsall,-1.9829189999999999,52.586209999999994,0.7026495397567041,0.1879848297077385
304,Cirencester,-1.968243,51.71849,0.6267115429370707,0.516295259342528
305,Evesham,-1.9467700000000001,52.09215,0.5581233214274841,0.2811556861128131
306,Buxton,-1.91483,53.259080000000004,0.6257232919406318,0.16584634210940613
307,Keighley,-1.9123580000000002,53.8678,0.6235747913421114,0.2172175915711912
308,Birmingham,-1.8904009999999998,52.48624,0.8887136161277999,0.22448667845588138
309,Bournemouth,-1.880769,50.719159999999995,0.616199923813693,0.8237991910236323
310,Halifax,-1.8575400000000002,53.727019999999996,0.6024201191757914,0.30239177642242765
311,Salisbury,-1.794472,51.06878,0.5411492989408023,0.7363405881420809
312,Ringwood,-1.7888169999999999,50.84495,0.4846839499551907,0.7609166981957083
313,Huddersfield,-1.7850351000000002,53.645790000000005,0.7114298849074971,0.2965945117931885
314,Peterhead,-1.784066,57.50812,0.5097198865586801,0.3602834604329031
315,Swindon,-1.7797176,51.55577,0.6111841819539205,0.6942225387602223
316,Bradford,-1.759398,53.79598000000001,0.7289616001319655,0.34879891275362557
317,Ashbourne,-1.7321790000000001,53.016630000000006,0.6689623010223691,0.2381715037444763
318,Marlborough,-1.7270619999999999,51.42007,0.4727125825004073,0.6320828820274919
319,Stratford-upon-Avon,-1.7082979999999999,52.19173,0.6609355462008291,0.05591162694808945
320,Alnwick,-1.7062990000000002,55.41274,0.5416921303297474,0.07590598775058591
321,Otley,-1.691786,53.90583,0.5314073137291204,0.272434325585327
322,Bishop Auckland,-1.6787880000000002,54.663819999999994,0.5940607204458414,0.14355000215016447
323,Burton upon Trent,-1.6371358999999999,52.81403,0.6495623975661472,0.2545510329203789
324,Newcastle,-1.61778,54.97825,0.8563571589388119,0.1263914850689091
325,Durham,-1.5848520000000001,54.77525,0.7258691628151573,0.12809012960807975
326,Ashington,-1.5659829,55.18298000000001,0.5828372187687477,0.08994412126811863
327,Darlington,-1.559458,54.52361,0.6639232619979765,0.11867489055692504
328,Leeds,-1.5490774,53.80076,0.8226758739959755,0.35421155495591217
329,Harrogate,-1.5418120000000002,53.99211999999999,0.6972338898464132,0.30910382529196595
330,Leamington Spa,-1.5200789,52.28519,0.7335543023244068,0.0806619451088118
331,Coventry,-1.519693,52.40682,0.7664496983239603,0.14507477982441225
332,Blyth,-1.510277,55.12696,0.5969811322906164,0.10143951919176762
333,Wakefield,-1.505924,53.6833,0.6763805633403677,0.3180379086817693
334,Andover,-1.4919233,51.2112,0.5152380166410362,0.6580990281700441
335,Witney,-1.4850543999999999,51.785940000000004,0.5484997965301456,0.500544107687144
336,Barnsley,-1.479726,53.55263000000001,0.6621939469774507,0.3586503856652238
337,Derby,-1.4746186000000001,52.92253,0.7395060586596659,0.24515910337439697
338,Sheffield,-1.470085,53.381130000000006,0.7786330679752539,0.486121492980277
339,Nuneaton,-1.465382,52.52049,0.7008476664468706,0.17190709408032787
340,Northallerton,-1.429959,54.337959999999995,0.5448096017192866,0.11037585928449758
341,South Shields,-1.427406,54.99941999999999,0.6930763814639364,0.10664342396588586
342,Chesterfield,-1.421629,53.23505,0.6291528685268778,0.49355169855683
343,Southampton,-1.4043508999999998,50.9097,0.7142522343741192,0.7209828310013835
344,Wetherby,-1.384816,53.92706,0.5107806584749642,0.26193983493356965
345,Sunderland,-1.383801,54.90687,0.7291423904588739,0.11712922793164482
346,Rotherham,-1.3635008999999998,53.4326,0.6506174398693623,0.4443416906514891
347,Castleford,-1.345968,53.72346999999999,0.6175219372314527,0.3130715788323583
348,Thirsk,-1.341377,54.23385,0.4983767967282818,0.17850953991688207
349,Banbury,-1.339775,52.0629,0.5692514121943801,0.4450014885582204
350,Stockton,-1.3289821000000002,54.57046,0.6656498053011523,0.13480316535638617
351,Newbury,-1.3231138999999998,51.40141,0.5597660802379611,0.865783537543133
352,Isle of Wight,-1.304734,50.69385,0.5458680151770473,0.8283658586081628
353,Isle of Wight,-1.304734,50.69385,0.5458680151770473,0.8283658586081628
354,Abingdon,-1.2879528999999998,51.67078,0.5680568746969977,0.5032915805278826
355,Shetland Islands,-1.2659409,60.52965,0.3101734636370694,0.33969780232172847
356,Rugby,-1.265032,52.37088,0.6800172318570376,0.15476208609080092
357,Oxford,-1.2577263,51.75202,0.7372833905914764,0.5048954569051076
358,Middlesbrough,-1.234956,54.57423000000001,0.7325695155487847,0.13650291810108764
359,Hartlepool,-1.212926,54.69174,0.6558858340075256,0.09902606344172063
360,Loughborough,-1.206166,52.7721,0.641172710468645,0.5603908292509245
361,Mansfield,-1.198674,53.1472,0.6179975674483902,0.40216723633800766
362,Nottingham,-1.1581086,52.95478000000001,0.8015134736886294,0.3559068187957054
363,Bicester,-1.1535898999999998,51.8996,0.4979775977973314,0.5080300216586138
364,Leicester,-1.1397591999999999,52.636880000000005,0.7063846606746482,0.6132333066732366
365,Doncaster,-1.128462,53.522819999999996,0.6614635376859115,0.45774396474193463
366,Worksop,-1.122745,53.3093,0.5340745486084006,0.4793270712949856
367,Basingstoke,-1.0923964,51.26654,0.5774356839096557,0.6379535341022374
368,Portsmouth,-1.0879769,50.81977,0.6495126945426005,0.8298671701128665
369,York,-1.0872979,53.95997,0.769807083776181,0.17316954587615677
370,Selby,-1.067189,53.783519999999996,0.5635894919168563,0.18925309703534962
371,Helmsley,-1.0562636,54.24651,0.3401035076256559,0.19328939501673195
372,Towcester,-0.9896879999999999,52.13511,0.4947991801306253,0.5954314586568586
373,Reading,-0.9781303,51.45426,0.6627248959160508,0.7008648754035466
374,Retford,-0.9455030000000001,53.32136,0.45128623931676204,0.5374777840022303
375,Petersfield,-0.93899,51.00759,0.4444461200062954,0.7350714984606356
376,Northampton,-0.9026559999999999,52.24048,0.6760679072705291,0.5815912034934185
377,Melton Mowbray,-0.887126,52.7664,0.5203672791715013,0.43288525108778597
378,Aylesbury,-0.8084,51.81561,0.6341545924095982,0.515627911458355
379,Newark-on-Trent,-0.80657,53.070040000000006,0.6361349475204553,0.321786726895692
380,Malton,-0.7978970000000001,54.13684,0.5240048937871628,0.14975590704653824
381,Chichester,-0.774936,50.83761,0.5100954662753476,0.7916948163875499
382,Gainsborough,-0.774465,53.400580000000005,0.48271018839480323,0.33400253265989366
383,Milton Keynes,-0.7594171,52.040620000000004,0.6368077645909411,0.7423038866498917
384,Aldershot,-0.7557509,51.24837,0.6577598740100044,0.4066544758999574
385,High Wycombe,-0.748229,51.628609999999995,0.5914514681233719,0.6162568930131762
386,Midhurst,-0.737274,50.9869,0.47934699933830427,0.5048118478626172
387,Kettering,-0.7302489999999999,52.39632,0.5674948448405776,0.5695875677655604
388,Wellingborough,-0.693964,52.30242,0.5344553586350631,0.553792189367894
389,Corby,-0.6842333,52.4923,0.5507374347778167,0.5821670773819675
390,Bognor Regis,-0.673061,50.783,0.5011440140595644,0.7466610530939823
391,Scunthorpe,-0.654413,53.58865,0.6313290901995151,0.2116415966964567
392,Grantham,-0.643582,52.912519999999994,0.5692651505827987,0.3616013916144695
393,Whitby,-0.613347,54.48633,0.5548985511254894,0.09523350575432321
394,Slough,-0.5950406,51.51054,0.6455822102209682,0.5275828004007459
395,Guildford,-0.570409,51.23622,0.6408756053002729,0.4677554338080574
396,Woking,-0.5600349,51.31677,0.6887375813923479,0.5418461171277623
397,Lincoln,-0.540579,53.23069,0.7195582149687861,0.2327738055434862
398,Bedford,-0.46677820000000003,52.13864,0.6188783113870387,0.6193376274683413
399,Heathrow,-0.4542955,51.47002,0.6730136147978044,0.7695996943709702
400,Driffield,-0.443377,54.006,0.4955120003881412,0.12326554156449755
401,Beverley,-0.435093,53.84196,0.6619193240564905,0.06836959993412534
402,Luton,-0.4200255,51.87867,0.6452092377071454,0.5891979803926569
403,Scarborough,-0.399752,54.28311,0.6376441080688526,0.12634304577625832
404,Worthing,-0.372882,50.81787,0.6301211162962004,0.5753019607389563
405,Dorking,-0.332378,51.2322,0.6376612836839934,0.42625575548845124
406,Hull,-0.3274198,53.767619999999994,0.7832215120545443,0.09432161708388963
407,Horsham,-0.325858,51.06288,0.5461712798204156,0.5178848666637375
408,Biggleswade,-0.26421999999999995,52.086940000000006,0.4893661071354837,0.5120841454714371
409,Peterborough,-0.2405299,52.5695,0.6782389033056688,0.4044920726743437
410,Welwyn Garden City,-0.208661,51.80317,0.726833330096673,0.5641748960424635
411,Bridlington,-0.198802,54.08535,0.5531270345729162,0.10671009024446082
412,Stevenage,-0.19661199999999998,51.90376,0.6077159281283784,0.5526351227482355
413,Crawley,-0.18722750000000002,51.109140000000004,0.5905383866261913,0.5898220813651702
414,Huntingdon,-0.182552,52.33146,0.5124362513250511,0.4478875225775822
415,Hove,-0.168749,50.82793,0.5565059643737252,0.5982665956769095
416,Spalding,-0.1537024,52.7901,0.5544752687526601,0.34824787576893945
417,Brighton,-0.137163,50.82253,0.7311150683359533,0.6232407031478844
418,London,-0.12775830000000002,51.50735,1.0,0.4766881815845901
419,Grimsby,-0.08078400000000001,53.56746999999999,0.6764349385604473,0.11147691392538508
420,Boston,-0.026576999999999996,52.97894,0.6473150483983554,0.275965866552249
421,Royston,-0.024066,52.048140000000004,0.4551135389601851,0.49096229225928284
422,Louth_Lincs,-0.007711,53.36596,0.5471502458904685,0.14166213157025834
423,Lewes,0.00878,50.873870000000004,0.5358885981900713,0.5881597343405488
424,Chatteris,0.054012,52.4561,0.3931279023126354,0.4303823817973766
425,Uckfield,0.095913,50.966409999999996,0.5584984558802737,0.5480401586816955
426,Cambridge,0.12181700000000001,52.20534,0.730767974006077,0.5443331949263376
427,Bishop's Stortford,0.15365020000000001,51.87216,0.5684166210081659,0.6128079758029825
428,Wisbech,0.158797,52.66631999999999,0.4672255018554401,0.400213271638929
429,Sevenoaks,0.190898,51.27241,0.6564121706962146,0.435157907974089
430,Tunbridge Wells,0.26369499999999996,51.13238,0.589408088908318,0.6209109138588075
431,Eastbourne,0.29047199999999995,50.768029999999996,0.5750725404072795,0.5710200015850766
432,Brentwood,0.30717490000000003,51.620470000000005,0.6907339136476086,0.8902447170923751
433,Skegness,0.337881,53.1464,0.5131880693292187,0.25105114808120493
434,Downham Market,0.385472,52.606609999999996,0.39519874391787185,0.5023609788226956
435,King's Lynn,0.4022963,52.75168000000001,0.5492070501349411,0.4645259108458397
436,Bexhill,0.4662071,50.849909999999994,0.4924820840402417,0.44786311449762956
437,Chelmsford,0.4685497,51.73559,0.5022111972206894,0.9762337289644734
438,Mildenhall,0.5156095,52.347570000000005,0.5263364083590564,0.5060723643978774
439,Medway,0.5417860999999999,51.404740000000004,0.49718349326121286,0.9349774344509687
440,Braintree,0.5509269,51.88009,0.49885544648371927,0.6955592639385942
441,Gillingham,0.551438,51.38632,0.6470556482256824,0.8745712491205796
442,Hastings,0.573453,50.85426,0.5667288229602584,0.5062563401749218
443,Maldon,0.6714479999999999,51.731809999999996,0.4640402217450472,0.9302435355979135
444,Southend,0.7077123000000001,51.54593,0.5463915839738153,1.0
445,Bury St Edmunds,0.7104931999999999,52.24292,0.6429029950368313,0.5124088531074887
446,Thetford,0.751657,52.412859999999995,0.4749486863339975,0.4764294351893283
447,Ashford,0.8750190000000001,51.14647,0.5036310421170371,0.7652654148317123
448,Faversham,0.889358,51.31599,0.4809862120014297,0.7939009898015158
449,Colchester,0.891874,51.89593,0.6168089682626142,0.6530967472675397
450,New Romney,0.939473,50.98512,0.37370507417556253,0.6959603273233328
451,Canterbury,1.0789089,51.280229999999996,0.5754721985209088,0.7857689044907079
452,Ipswich,1.14822,52.056740000000005,0.650240874457783,0.5209810734243052
453,Clacton,1.153035,51.78953,0.4498896383381639,0.6612841069711063
454,Folkestone,1.169456,51.0814,0.5010193500994076,0.7173274752275102
455,Sheringham,1.2109589,52.944419999999994,0.37962099602016436,0.44894661900301586
456,Harwich,1.260297,51.93473,0.39765628145276766,0.5704613116618685
457,Norwich,1.297355,52.63089,0.7297415996090079,0.4601519281039935
458,Cromer,1.301866,52.93145,0.4725008993423816,0.43382944748439234
459,Cromer,1.301866,52.93145,0.4725008993423816,0.43382944748439234
460,Dover,1.3134027,51.12788,0.4670393728331309,0.7297003542422611
461,Felixstowe,1.3512549999999999,51.961729999999996,0.4831659532401796,0.5187554739349451
462,Margate,1.3868339,51.38965,0.48257583446328634,0.8164507543494375
463,Ramsgate,1.4198950000000001,51.33555,0.47818421510067666,0.8175129387572381
464,Great Yarmouth,1.728047,52.59823000000001,0.5550871138028575,0.4453849059339469
465,Lowestoft,1.7534490000000003,52.48114,0.5731307872488767,0.4309106610522754
466,Swaffham,0.687481,52.64747,0.39261943346046163,0.49791185314494557
467,Dereham,0.9378270000000001,52.681619999999995,0.6407703594228153,0.4586920780576295
468,Ely,0.262363,52.39954,0.4984725762199909,0.5141270813313225
469,March,0.088622,52.551719999999996,0.44803499610454334,0.3996980936816658
470,St Neots,-0.26510300000000003,52.23008,0.4846246871075268,0.45227973356967777
471,Banham,1.0402849,52.45125,0.5036033330784991,0.44353071616165873
472,Holt,1.086747,52.90936,0.4726891413759968,0.4319095692339602
473,Hunstanton,0.49103199999999997,52.93891,0.3510933706182336,0.4104427157699748
474,Horncastle,-0.11245,53.20731,0.45669945944563095,0.23907348310910123
475,Market Weighton,-0.6677465,53.86484,0.477114954285855,0.08820978772959248
476,Hawes,-2.1968695,54.303830000000005,0.07526084826734085,0.23225577636107025
477,Reeth,-1.9428115000000001,54.38946,0.5209173907087769,0.11670171683119848
478,Aysgarth,-1.9967433999999997,54.29159,0.3427257806827891,0.13606548020292283
479,Stanhope,-2.011302,54.74946,0.6277698136551453,0.08890770663097852
480,Keswick,-3.134706,54.60128,0.4670087718325917,0.1657153925300597
481,Oxenholme,-2.7243327999999996,54.30134,0.4175132467188552,0.046995479703930754
