,placename,off,off_of,longitude,latitude
0,Dingle,0.7095027690585249,0.29049894120075415,-10.264013499999999,52.14094
1,Tralee,0.7074234760181566,0.2925759535211163,-9.6999325,52.27131
2,Killarney,0.7171601655437249,0.2828404306084831,-9.5044265,52.059940000000005
3,Bantry,0.7204270548013713,0.27957498321172014,-9.4539805,51.68035
4,Mayo,0.6699242257632394,0.33007433707187284,-9.4289369,54.01526
5,Ballycastle,0.6952876022152492,0.3047143777172242,-9.3724643,54.279669999999996
6,Abbeyfeale,0.7286842473559071,0.27131415784014074,-9.2970823,52.386179999999996
7,Ennistymon,0.6364715996561263,0.3635295382157391,-9.2934951,52.940369999999994
8,Galway,0.6098446528180426,0.39015710567095585,-9.0567905,53.270669999999996
9,Claremorris,0.6531379331027453,0.34686209714626026,-9.0017356,53.72388
10,Clare,0.6466001559469745,0.35340178894247154,-8.9811351,52.90453
11,Adare,0.7255253213907288,0.2744754407278352,-8.7925892,52.56363
12,Charleville,0.7181918147829732,0.2818083822480005,-8.681017599999999,52.36206
13,Mallow,0.725537317312118,0.2744639246515927,-8.6539164,52.13898
14,Limerick,0.704880340684168,0.29512116631621277,-8.6267343,52.66384
15,Loughrea,0.640350280904498,0.3596509397318145,-8.5660931,53.19891
16,Sligo,0.7538876781894225,0.24611142491530283,-8.476088800000001,54.27661
17,Cork,0.7476617949897068,0.2523389430753154,-8.4756035,51.898509999999995
18,Nenagh,0.6840634184377327,0.31593519456050945,-8.19834,52.8635
19,Roscommon,0.7328388347961703,0.2671625723683427,-8.1890955,53.627590000000005
20,Tipperary,0.7361257172561352,0.2638757322605042,-8.161851400000002,52.47379
21,Donegal,0.8705520123158177,0.1294480544588848,-8.1096143,54.653830000000006
22,Leitrim,0.8259831657236605,0.17401678899965206,-8.0020132,54.12469
23,Athlone,0.7727892516544396,0.22721294400571834,-7.9406898,53.423930000000006
24,Longford,0.8592798448527573,0.14072141340002636,-7.7932573000000005,53.727630000000005
25,Offaly,0.8621028850190932,0.1378976954971902,-7.7122229,53.235690000000005
26,Fermanagh,0.8688405941979773,0.1311586316310307,-7.6318728,54.343830000000004
27,Enniskillen,0.8688405941979773,0.1311586316310307,-7.631533599999999,54.343819999999994
28,Doon,0.852010316492395,0.14798825744092473,-7.60964,54.185930000000006
29,Westmeath,0.9038966751304582,0.09610245597120146,-7.4653217000000005,53.534530000000004
30,Strabane,0.844093008377153,0.1559065195306655,-7.4633103,54.82739
31,Balivanich,0.6754583441629917,0.3245416621648672,-7.3743509000000005,57.472269999999995
32,Cavan,0.8439850450846715,0.1560152824729558,-7.3633319,53.98972
33,Mullingar,0.8508107243537232,0.14918940818484322,-7.340186800000001,53.525819999999996
34,Laois,0.8528940160345561,0.14710755751300417,-7.332300699999999,52.9943
35,Omagh,0.8542735469940274,0.1457270278870583,-7.309959700000001,54.59771
36,Derry,0.8870224123797966,0.11297938566371662,-7.308574799999999,54.99661
37,Derry,0.8870224123797966,0.11297938566371662,-7.308574799999999,54.99661
38,Kilkenny,0.8033828498310579,0.19661860810784548,-7.2447879,52.65415
39,Tyrone,0.871679628926167,0.12831923906886447,-7.131232000000001,54.491209999999995
40,Waterford,0.8053701741407987,0.19462996567809415,-7.110070200000001,52.25932
41,Western Isles,0.7013935262010942,0.29860849811252316,-7.0194034,57.759890000000006
42,Monaghan,0.880544614830959,0.11945517923133231,-6.9683132,54.2492
43,Carlow,0.8463682348001702,0.153632414363778,-6.934135899999999,52.83651
44,Kildare,0.8471439710498498,0.15285691859069778,-6.8194707999999995,53.21204
45,Dungannon,0.9499410200531877,0.05005774432535348,-6.7669352,54.508269999999996
46,Cookstown,0.9439070715956562,0.05609424756796866,-6.7443895000000005,54.641819999999996
47,Coleraine,0.928476318051868,0.07152271078198236,-6.6646103000000005,55.132580000000004
48,Meath,0.8089929423995839,0.19100895942734397,-6.656416900000001,53.60555
49,Armagh,0.8773976847871744,0.1226041863016433,-6.652792,54.350280000000005
50,Armagh,0.8773976847871744,0.1226041863016433,-6.652792,54.350280000000005
51,Magherafelt,0.9960613391446907,0.01,-6.607980499999999,54.75536999999999
52,Dunvegan,0.6790811124217814,0.3209209758051237,-6.581398200000001,57.4366
53,Louth,0.8068376751904418,0.1931609062160341,-6.4889423,53.925230000000006
54,Wexford,0.828374352720075,0.1716254037924198,-6.4633381,52.33692
55,Craigavon,0.9283003778715243,0.07169841091743222,-6.4175653,54.442930000000004
56,Stornoway,0.6950316892256672,0.3049680512855659,-6.384869200000001,58.209430000000005
57,Drogheda,0.7999520163144614,0.20004652014965463,-6.3560985,53.717859999999995
58,Rosslare,0.813039566547379,0.18695985903682896,-6.3414908,52.25131
59,Newry,0.8345722454365565,0.16542959482845007,-6.34023,54.1751
60,Scilly Isles,0.6075214427094815,0.3924774350883167,-6.327496599999999,49.92773
61,Ballymena,0.9327908511106255,0.06720890058339321,-6.2802213,54.86529
62,Banbridge,0.9315992562528784,0.06840233395677424,-6.2704803,54.34873
63,Dublin,0.7944938720835006,0.20550669975725872,-6.2603097000000005,53.34981
64,Antrim,0.9147169962212877,0.08528222264110168,-6.2072498,54.719530000000006
65,Antrim,0.9147169962212877,0.08528222264110168,-6.2072498,54.719530000000006
66,Portree,0.6790811124217814,0.3209209758051237,-6.1960231,57.41246999999999
67,Islay,0.6518023871883577,0.3481989616497867,-6.177067,55.73625
68,Wicklow,0.8287302317212137,0.17126848540165393,-6.044589,52.980819999999994
69,Kilkeel,0.8292380590599221,0.17076209793799052,-6.007004,54.06312
70,Mull,0.44878741227982516,0.5512109913910133,-6.0008870000000005,56.4392
71,Belfast,0.89723893876083,0.1027629865952073,-5.93012,54.597280000000005
72,Broadford,0.6715956574764651,0.3284040661665757,-5.9096592,57.24139
73,Down,0.8853309874642659,0.11467024955257245,-5.7156921999999994,54.32875
74,Kyle of Lochalsh,0.6723713937261359,0.3276273308158444,-5.7143293,57.28261
75,Campbeltown,0.670967870923886,0.32903277195393976,-5.605373999999999,55.424119999999995
76,Penzance,0.6075214427094815,0.3924774350883167,-5.537592,50.1188
77,Oban,0.4201331547273993,0.5798668677608165,-5.471047,56.41516
78,Lochgilphead,0.5580102765059922,0.44198992519268837,-5.4323449,56.03829
79,Helston,0.6106483795509565,0.389353179584652,-5.274996,50.10159
80,Redruth,0.6075214427094815,0.3924774350883167,-5.226666000000001,50.23302
81,Ullapool,0.6882140072375402,0.31178488865273823,-5.161313,57.895419999999994
82,Ballachulish,0.5911430113761345,0.4088581338566324,-5.133719999999999,56.673930000000006
83,Fort William,0.6589719495371589,0.34102956440681526,-5.1052179,56.81981999999999
84,Achnasheen,0.6841953735729926,0.3158040392477475,-5.078765799999999,57.578590000000005
85,Newquay,0.6052902013315524,0.3947085948875499,-5.0737190000000005,50.4155
86,Falmouth,0.6097486854469504,0.3902523132318357,-5.066269999999999,50.152570000000004
87,Rothesay,0.5219865245816473,0.47801533061655227,-5.055793,55.83596
88,Truro,0.6052902013315524,0.3947085948875499,-5.051041000000001,50.2632
89,Milford Haven,0.8241078033468657,0.17589083047624018,-5.0426971,51.71431
90,Stranraer,0.8777095787432339,0.12228921361913568,-5.024055000000001,54.903369999999995
91,Fishguard,0.8282543935062132,0.1717466424839729,-4.975989,51.99393
92,Inchnadamph,0.7185876801887355,0.2814121572497819,-4.974295,58.15221
93,Haverfordwest,0.8459883639562573,0.15401376443018333,-4.971319,51.800470000000004
94,Dunoon,0.5356898654457501,0.4643104401468332,-4.926214,55.95097
95,Pembroke,0.8322010516424427,0.16780110680688876,-4.908637000000001,51.674040000000005
96,Girvan,0.6027390687166436,0.3972629645627142,-4.8542179,55.240159999999996
97,Wadebridge,0.5702261231181424,0.42977276782254753,-4.836456,50.51665
98,Invergarry,0.6740068376751935,0.3259917680847782,-4.800261,57.07095
99,St Austell,0.6067417078193461,0.3932595685997867,-4.7834252,50.340379999999996
100,Greenock,0.53257492452566,0.46742657841620205,-4.7719830000000005,55.956480000000006
101,Helensburgh,0.5311354139592601,0.468864008654971,-4.734014,56.00232
102,Bodmin,0.586696523182117,0.4133025395587215,-4.7188629,50.4715
103,Tenby,0.8401103624767555,0.15988892264627594,-4.703579,51.672740000000005
104,Camelford,0.526836875462343,0.4731619042759751,-4.682364,50.62206
105,Irvine,0.6058220205130305,0.3941770959798578,-4.6696364,55.61156999999999
106,Cardigan,0.7609532758862023,0.23904563237213816,-4.660864,52.0837
107,Holyhead,0.8941799788072085,0.10582202431987371,-4.633038,53.30944
108,Ayr,0.637351300557814,0.36264787861479836,-4.629179,55.45856
109,Dumbarton,0.5704220565007913,0.42957759432206255,-4.564554,55.94529
110,Bude,0.46204690405262633,0.5379539483307249,-4.543678,50.826640000000005
111,Isle of Man,0.9106943639162757,0.0893067314104738,-4.5126330999999995,54.27697
112,Kilmarnock,0.6154667413079623,0.3845327819905201,-4.498792,55.61472
113,Newton Stewart,0.7191794789771512,0.2808199590235615,-4.483164,54.9603
114,Liskeard,0.5716456404822372,0.42835457103055846,-4.4647190000000005,50.45552
115,Altnaharra,0.7104984305336232,0.28950044140960285,-4.442655,58.28023
116,Pwllheli,0.8178619269448449,0.18213702227377085,-4.417633900000001,52.888819999999996
117,Lairg,0.6924885538916831,0.3075119045438838,-4.402414,58.022059999999996
118,Launceston,0.47078793210308745,0.5292132064762894,-4.360451599999999,50.636829999999996
119,Carmarthen,0.8644900733750563,0.13551042888666973,-4.312131,51.857620000000004
120,Llangefni,0.8695683467621087,0.1304312794544643,-4.311401999999999,53.255790000000005
121,Caernarfon,0.8922406381830249,0.10775772478801025,-4.273911,53.13955
122,Cumnock,0.6933042765459729,0.30669598254482733,-4.265828900000001,55.45355
123,Aberaeron,0.7016254473479109,0.2983738580590821,-4.2581619,52.24279
124,Alness,0.6972629306035918,0.30273913072337993,-4.256825,57.69595
125,Glasgow,0.5571105824019861,0.4428874993712142,-4.251806,55.86424
126,Dalwhinnie,0.7039766479397063,0.29602249921406776,-4.242783,56.9366
127,Inverness,0.7058879980806556,0.2941126699311011,-4.224721,57.47776999999999
128,Saltash,0.4384429294040052,0.5615563865079891,-4.21643,50.409209999999995
129,Bideford,0.5591578863186556,0.4408434358245459,-4.206666,51.01668
130,Invergordon,0.6980906491792843,0.30191021315217476,-4.1728819999999995,57.688109999999995
131,Llanelli,0.8583641561868973,0.1416349421425132,-4.160248,51.680890000000005
132,Plymouth,0.4483475618289791,0.5516530807623228,-4.1426565,50.37546
133,Tavistock,0.49190875102465315,0.5080917229881435,-4.141654,50.551120000000004
134,Porthmadog,0.777355699062319,0.22264637992543185,-4.1333839999999995,52.92784
135,Bangor,0.8720115160845316,0.12798779199950994,-4.129263,53.22739
136,Tywyn,0.7163284483275766,0.28367238714425225,-4.087249,52.58701
137,Aberystwyth,0.6744906731711233,0.3255105320515194,-4.08292,52.4153
138,Lampeter,0.7551792390587219,0.24482038479849147,-4.0785089999999995,52.1129
139,Barnstaple,0.5321950536817516,0.4678049295044192,-4.058338,51.07816
140,Tain,0.7001499490173386,0.29984903543664604,-4.05523,57.8115
141,Okehampton,0.5206629745886446,0.47933596065148687,-4.004263,50.73831
142,Llandeilo,0.8700561808984986,0.12994612475637302,-3.9914300000000003,51.88469
143,Motherwell,0.6059259851650474,0.39407477084407805,-3.9810968,55.78321
144,Golspie,0.6975308395145675,0.30246858290443285,-3.976086,57.97341
145,Airdrie,0.5695063678349401,0.4304922826694489,-3.9625660000000003,55.86626999999999
146,Swansea,0.8879221064838028,0.11207893246613015,-3.9436459999999998,51.62144
147,Stirling,0.6811364136193755,0.318864596454696,-3.9369029,56.116519999999994
148,Tregaron,0.6680648579483031,0.3319348631534263,-3.934385,52.22
149,Tregaron,0.6680648579483031,0.3319348631534263,-3.934385,52.22
150,Castle Douglas,0.8111442109682747,0.1888554531699959,-3.9314139999999997,54.940419999999996
151,Dolgellau,0.7247895715456816,0.2752102703566841,-3.8844,52.74215
152,Aberfeldy,0.8298578483315721,0.17014302886720437,-3.866969,56.62175
153,Machynlleth,0.6668052862026981,0.33319487384258434,-3.853485,52.59027
154,Brora,0.7113141531879176,0.2886848792879291,-3.8525480000000005,58.012159999999994
155,Llandudno,0.7895995361577124,0.2104005523238123,-3.827609,53.324059999999996
156,Llandudno,0.7895995361577124,0.2104005523238123,-3.827609,53.324059999999996
157,Aviemore,0.8921166803286895,0.10788364188553676,-3.823812,57.19449
158,Dalbeattie,0.8316212487754252,0.1683771905236448,-3.8225269999999996,54.934219999999996
159,Falkirk,0.7159645720455087,0.2840362231780388,-3.7839131,56.00188000000001
160,Kingsbridge,0.49192874422696714,0.5080728094323702,-3.777493,50.28395
161,Pitlochry,0.7495971369734347,0.25040192305677617,-3.729711,56.70436
162,Colwyn Bay,0.8840794129995813,0.11591938394750136,-3.72764,53.29318000000001
163,Totnes,0.5016414419097568,0.49835943897195356,-3.685797,50.43374
164,Grantown-on-Spey,0.6890777135773873,0.3109212629073022,-3.609628,57.33041
165,Dumfries,0.8618869584341302,0.13811378187224052,-3.60512,55.070859999999996
166,Whitehaven,0.8313813303476838,0.16861798847896545,-3.589233,54.5497
167,Dartmouth,0.5077753563788361,0.49222532898590804,-3.578807,50.35252
168,Bridgend,0.9160125557310561,0.08398598429543089,-3.576945,51.504290000000005
169,Paignton,0.5000819721294817,0.49991666839274523,-3.564235,50.43508
170,Workington,0.8199052322210498,0.18009655750092826,-3.5427519999999997,54.64357
171,Llanidloes,0.6863746326249133,0.313626861055901,-3.5401949999999998,52.447790000000005
172,Exeter,0.5362616710318607,0.46373863497229234,-3.533899,50.71841
173,Torquay,0.4927484655217261,0.5072530887276088,-3.525315,50.46192
174,Thurso,0.7382250034988131,0.2617743282508784,-3.5220800000000003,58.59356999999999
175,Livingston,0.7293760121558706,0.27062451281599337,-3.518068,55.90071
176,Rhyl,0.891892756462802,0.10810620605347346,-3.4916339999999995,53.319140000000004
177,Tiverton,0.5832257032608968,0.4167728371589232,-3.491207,50.90205
178,Tiverton,0.5832257032608968,0.4167728371589232,-3.491207,50.90205
179,Minehead,0.6943639162684734,0.30563670346239635,-3.481152,51.20428
180,Dunfermline,0.719927224743592,0.280072893563705,-3.452151,56.071740000000005
181,Perth,0.7104944318931586,0.2895049598700731,-3.4308381000000003,56.39499
182,Prestatyn,0.8852910010596423,0.11470739689572969,-3.4076129999999996,53.33651
183,Builth Wells,0.6281024451686489,0.37189948640699144,-3.4045919999999996,52.15002
184,Braemar,0.8066897254933368,0.19331005539792487,-3.3979439,57.00646999999999
185,Brecon,0.7835535917787916,0.21644757198327386,-3.391463,51.94895
186,Merthyr Tydfil,0.8204210568406785,0.17957909381115664,-3.381646,51.74873
187,Llandrindod Wells,0.5751764400103992,0.42482377404370786,-3.377742,52.2417
188,Corwen,0.7841413919267471,0.21585745304859727,-3.369242,52.98005
189,Cockermouth,0.8046744107003617,0.19532416914908754,-3.367985,54.66326
190,Lockerbie,0.853545794429896,0.1464562194369135,-3.349008,55.122240000000005
191,Blairgowrie,0.6921886558570128,0.3078096031120276,-3.3378318,56.58941
192,Elgin,0.7350380870504094,0.2649626419286421,-3.318485,57.64945
193,Newtown,0.772681288361967,0.2273179882150554,-3.313106,52.51211
194,Ruthin,0.8111841973728983,0.18881558675328144,-3.3103108,53.114869999999996
195,Ruthin,0.8111841973728983,0.18881558675328144,-3.3103108,53.114869999999996
196,Sidmouth,0.5214347121978598,0.47856602298464873,-3.2375599999999998,50.67865
197,Barrow-in-Furness,0.8736829477977484,0.12631904057649476,-3.2188939999999997,54.10896999999999
198,Peebles,0.6308575084471357,0.3691411862150328,-3.1936419999999996,55.65306999999999
199,Edinburgh,0.7279165083871522,0.27208237609281766,-3.1882669999999997,55.95325
200,Cardiff,0.8019793270288169,0.19801917090808827,-3.17909,51.48158
201,Llangollen,0.7557550432852836,0.24424634038690332,-3.1716599999999997,52.96921
202,Kirkcaldy,0.7010296499190307,0.29897237413268557,-3.158137,56.11682
203,Welshpool,0.800531819181479,0.19946831715497892,-3.146407,52.66035
204,Mold,0.8397784753183954,0.1602218092251608,-3.1419029999999997,53.1672
205,Mold,0.8397784753183954,0.1602218092251608,-3.1419029999999997,53.1672
206,Taunton,0.25182238039066906,0.7481779608051945,-3.106849,51.01534
207,Wick,0.7332506947637777,0.2667507526835457,-3.093716,58.43894
208,John o' Groats,0.7341663834296376,0.26583458484025313,-3.0688997000000002,58.63734
209,Dalkeith,0.7385528920167176,0.26144871919239676,-3.066606,55.893119999999996
210,Oswestry,0.7869164484075479,0.21308415796569788,-3.056412,52.85715
211,Blackpool,0.9413519403402872,0.05864925702514638,-3.0356748,53.81751
212,Birkenhead,0.8831317352100357,0.1168682206598568,-3.023009,53.389990000000004
213,Cupar,0.6897094987704265,0.3102921972425555,-3.010137,56.32023
214,Southport,0.87690585201032,0.12309537894248676,-3.010113,53.64571
215,Bridgwater,0.24206569766280459,0.7579325172327285,-3.003632,51.12789
216,Langholm,0.8877501649439191,0.11224839472694866,-2.998913,55.153059999999996
217,Newport,0.8190855109262909,0.18091551846454879,-2.997664,51.58415
218,Axminster,0.42976188096047724,0.5702381084716817,-2.9949369999999997,50.78273
219,Wrexham,0.8144990703160975,0.1855012760052395,-2.9924939999999998,53.043040000000005
220,Liverpool,0.8995061679029182,0.10049535922120618,-2.9915726,53.40837
221,Weston-super-Mare,0.6778935162044943,0.32210669180796725,-2.977255,51.347409999999996
222,Dundee,0.6386428614271134,0.36135555893396,-2.9707209999999997,56.462019999999995
223,Kirkwall,0.7354699402203263,0.26453158879706506,-2.9622491,58.984669999999994
224,Ambleside,0.9164564048223623,0.08354393491049728,-2.961333,54.428740000000005
225,Orkney Islands,0.7354699402203263,0.26453158879706506,-2.9605206,58.980940000000004
226,Lyme Regis,0.32551732410980583,0.6744833900193526,-2.936639,50.725159999999995
227,Carlisle,0.8735270008197275,0.12647258825972812,-2.932931,54.892469999999996
228,Chester,0.8278305376172166,0.17217081795890501,-2.893075,53.19339
229,Forfar,0.660387468260798,0.33961084779194023,-2.889062,56.64356
230,Morecambe,0.8745586500589847,0.12544237927253427,-2.864968,54.074169999999995
231,Selkirk,0.748713437431278,0.2512866216222809,-2.838524,55.55066
232,Galashiels,0.7295919387408291,0.2704089862502049,-2.814449,55.62373
233,Lancaster,0.9330187736169688,0.06698057837733526,-2.8007399,54.046569999999996
234,St Andrews,0.6716396425215487,0.3283614406899282,-2.7967214,56.339780000000005
235,Hawick,0.9019933222704292,0.09800680712067784,-2.780914,55.42706
236,Bridport,0.24610832317012624,0.7538934134361741,-2.758301,50.733579999999996
237,Shrewsbury,0.7803586780494631,0.2196423234675481,-2.7553267999999997,52.7073
238,Penrith,0.8690685167043251,0.1309305493432278,-2.752708,54.6641
239,Kendal,0.9450346882060144,0.05496575206895506,-2.74629,54.32801
240,Street,0.26253873682948164,0.7374625717525526,-2.7429189999999997,51.12468
241,Glastonbury,0.19268248795410187,0.807319010266822,-2.718454,51.14743
242,Hereford,0.802379191075035,0.19762110653658088,-2.715974,52.0564
243,Ludlow,0.9817821940540217,0.01821935230228356,-2.7139129,52.36775
244,Preston,0.9896075334386406,0.010393498727113686,-2.70309,53.7632
245,Whitchurch,0.8166343443229344,0.1833654837123895,-2.682045,52.96872
246,Wells,0.2116040546214374,0.7883943382810609,-2.6445979,51.20935
247,Yeovil,0.2197852730071773,0.7802164046666021,-2.633308,50.94206
248,Wigan,0.9957214547054014,0.01,-2.6325074,53.54506
249,Warrington,0.9798588479916831,0.020142736966660715,-2.5969501,53.39004
250,Arbroath,0.6451886358638088,0.35481050896338606,-2.591543,56.55911
251,Bristol,0.3579662914609049,0.6420328065821413,-2.58791,51.45451
252,Guernsey,0.3117260131555311,0.6882724118238432,-2.5852779999999997,49.46569
253,Ross-on-Wye,0.6301377531639291,0.3698642198630083,-2.582446,51.91445
254,Jedburgh,0.9326748905372194,0.06732378144118736,-2.5549369,55.47772
255,Sedbergh,0.9084951116620366,0.09150402274936885,-2.5281740000000004,54.32363
256,Sedbergh,0.9084951116620366,0.09150402274936885,-2.5281740000000004,54.32363
257,Nantwich,0.8373912869624366,0.1626071964760167,-2.524102,53.067190000000004
258,Banff,0.6630385668872679,0.33696346980656744,-2.524038,57.666509999999995
259,Dunbar,0.7415998560489498,0.25839851845679135,-2.516737,56.00209
260,Cinderford,0.5873562988583905,0.4126440439213551,-2.5009579,51.8253
261,Banchory,0.6386948437531262,0.361306975487312,-2.4909599,57.05386
262,Blackburn,1.0,0.01,-2.487529,53.748580000000004
263,Market Drayton,0.8198772417378111,0.18012450797764185,-2.483485,52.90355
264,Telford,0.8102125277405697,0.18978713572711506,-2.4672611,52.67759
265,Montrose,0.6510746346242263,0.34892679366286317,-2.4661150000000003,56.70692
266,Turriff,0.6366835276006158,0.36331781035565563,-2.4623,57.53893000000001
267,Weymouth,0.20711358138234054,0.7928846083562409,-2.457621,50.61443
268,Crewe,0.8665493732131107,0.13345101057167796,-2.4438209,53.10041
269,Fortuneswell,0.21862566727313348,0.7813724507785709,-2.4422189999999997,50.55919
270,Dorchester,0.1853809704700496,0.8146172036263805,-2.4411810000000003,50.71116
271,Alston,0.9417198152628109,0.05828094251726553,-2.438685,54.812169999999995
272,Kelso,0.9284043425235412,0.071595445999639,-2.432207,55.600030000000004
273,Wincanton,0.33685346982026837,0.6631460128904879,-2.416007,51.055690000000006
274,Clitheroe,0.9642921406721703,0.0357088332863227,-2.3930830000000003,53.8711
275,Sark,0.2979666913249552,0.7020339230017548,-2.3666256000000003,49.43007
276,Bath,0.40146350240918566,0.5985383460147459,-2.3590167,51.38106
277,Kidderminster,0.815194833756521,0.18480691258874277,-2.2496839,52.3886
278,Manchester,0.8733470619989236,0.12665416639242677,-2.2426305,53.48076
279,Burnley,0.9482855829018204,0.05171362013534746,-2.2405035,53.78929
280,Gloucester,0.605346182298021,0.39465297383875375,-2.238156,51.86424
281,Newcastle-under-Lyme,0.8637543235300003,0.13624713787518317,-2.2273002,53.01321
282,Worcester,0.7372373393046396,0.26276367116196164,-2.221575,52.19364
283,Trowbridge,0.41439510566408233,0.5856031932799857,-2.208853,51.31966
284,Shaftesbury,0.24487674190776,0.7551231144524437,-2.198083,51.0046
285,Alderney,0.34365115860607687,0.6563472093788205,-2.1973557,49.715
286,Stoke-on-Trent,0.8577803546794153,0.142219183079941,-2.179404,53.002669999999995
287,Colne,0.947173960853316,0.05282668089328601,-2.176991,53.85564
288,Blandford Forum,0.20606593758122943,0.7939324913215569,-2.165353,50.85691
289,Rochdale,0.90902293220305,0.09097728222040188,-2.1561,53.60971
290,Jersey,0.3365255813023639,0.6634737012405133,-2.13125,49.21444
291,Wolverhampton,0.8845952376192098,0.11540431944028029,-2.12882,52.586969999999994
292,Stafford,0.867165163844296,0.13283414075156313,-2.12066,52.80669
293,Macclesfield,0.8868264789971433,0.11317299969554376,-2.119287,53.25866
294,Hexham,0.9194713797308958,0.08052992184502901,-2.1121439,54.97266
295,Aberdeen,0.6097926704920297,0.39020928789142967,-2.094278,57.149719999999995
296,Dudley,0.887670192134672,0.11233188627970676,-2.081112,52.51226
297,Cheltenham,0.6267069196473237,0.37329441112824036,-2.0782533,51.899390000000004
298,Bromsgrove,0.8052302217246184,0.19477059776193054,-2.061906,52.33559
299,Skipton,0.8727992482555962,0.12720201972783832,-2.0162787,53.96285
300,Fraserburgh,0.6296059339824466,0.37039487905680774,-2.007631,57.69335
301,Berwick,0.9547833736529632,0.04521767343430743,-2.005395,55.77024
302,Poole,0.19988403942660182,0.800114584958613,-1.987248,50.71505
303,Walsall,0.8134794169982206,0.1865204087663251,-1.9829189999999999,52.586209999999994
304,Cirencester,0.4833476617949915,0.5166507267643768,-1.968243,51.71849
305,Evesham,0.7114341124017883,0.28856452029664453,-1.9467700000000001,52.09215
306,Buxton,0.8313413439430601,0.16865973425534456,-1.91483,53.259080000000004
307,Keighley,0.7797988683847552,0.22020077319255785,-1.9123580000000002,53.8678
308,Birmingham,0.7882679888837849,0.21173073910257292,-1.8904009999999998,52.48624
309,Bournemouth,0.18151028650259823,0.8184878848078881,-1.880769,50.719159999999995
310,Halifax,0.693308275186442,0.30668998458845104,-1.8575400000000002,53.727019999999996
311,Salisbury,0.2569686306655793,0.743029994820165,-1.794472,51.06878
312,Ringwood,0.22525141451907169,0.7747503470617491,-1.7888169999999999,50.84495
313,Huddersfield,0.7067517044205027,0.29324760467613475,-1.7850351000000002,53.645790000000005
314,Peterhead,0.6281424315732724,0.3718578206033641,-1.784066,57.50812
315,Swindon,0.30708759021932924,0.6929131106449411,-1.7797176,51.55577
316,Bradford,0.6567527040806146,0.3432481684840341,-1.759398,53.79598000000001
317,Ashbourne,0.7617130175740237,0.23828605117664317,-1.7321790000000001,53.016630000000006
318,Marlborough,0.3518443729132149,0.6481558003557029,-1.7270619999999999,51.42007
319,Stratford-upon-Avon,0.9431833176719983,0.0568165214748031,-1.7082979999999999,52.19173
320,Alnwick,0.9181198392546588,0.0818806616209725,-1.7062990000000002,55.41274
321,Otley,0.718355759041932,0.28164339846127623,-1.691786,53.90583
322,Bishop Auckland,0.8520822920207131,0.14791876111971133,-1.6787880000000002,54.663819999999994
323,Burton upon Trent,0.7442029709898671,0.2557971647900128,-1.6371358999999999,52.81403
324,Newcastle,0.8817721974528696,0.11822859715237821,-1.61778,54.97825
325,Durham,0.8740268308775067,0.125972718575327,-1.5848520000000001,54.77525
326,Ashington,0.9056640742147671,0.09433745734153456,-1.5659829,55.18298000000001
327,Darlington,0.880472639302641,0.11952891410838495,-1.559458,54.52361
328,Leeds,0.6585001099626229,0.3414985646090664,-1.5490774,53.80076
329,Harrogate,0.693436231681233,0.3065659068642132,-1.5418120000000002,53.99211999999999
330,Leamington Spa,0.921398724433699,0.07860093908803392,-1.5200789,52.28519
331,Coventry,0.8592078693244259,0.14079246918989763,-1.519693,52.40682
332,Blyth,0.8946838075054522,0.10531795606600917,-1.510277,55.12696
333,Wakefield,0.6831197392886473,0.3168797527306496,-1.505924,53.6833
334,Andover,0.3310314493072441,0.6689669495809389,-1.4919233,51.2112
335,Witney,0.4911969930223801,0.5088027607233664,-1.4850543999999999,51.785940000000004
336,Barnsley,0.6419337425275428,0.3580648001612891,-1.479726,53.55263000000001
337,Derby,0.759205870004203,0.240792677119052,-1.4746186000000001,52.92253
338,Sheffield,0.5272447367894991,0.4727540032560106,-1.470085,53.381130000000006
339,Nuneaton,0.8293220305096294,0.1706778866304673,-1.465382,52.52049
340,Northallerton,0.883211708019274,0.11679008728146148,-1.429959,54.337959999999995
341,South Shields,0.8938201011656052,0.10618098201580757,-1.427406,54.99941999999999
342,Chesterfield,0.5059839654517486,0.49401455935933514,-1.421629,53.23505
343,Southampton,0.29367615010896736,0.7063245011159798,-1.4043508999999998,50.9097
344,Wetherby,0.7275446348241684,0.2724563686660681,-1.384816,53.92706
345,Sunderland,0.885043085350985,0.11495747169024566,-1.383801,54.90687
346,Rotherham,0.556450806725717,0.4435509133328093,-1.3635008999999998,53.4326
347,Castleford,0.6837595217626068,0.3162418900632177,-1.345968,53.72346999999999
348,Thirsk,0.8114840954075595,0.1885178481987617,-1.341377,54.23385
349,Banbury,0.5484535258012323,0.451547908596583,-1.339775,52.0629
350,Stockton,0.8644420896895081,0.13555697302814984,-1.3289821000000002,54.57046
351,Newbury,0.13267489053721854,0.8673264045474426,-1.3231138999999998,51.40141
352,Isle of Wight,0.16725913189516342,0.8327410284767773,-1.304734,50.69385
353,Isle of Wight,0.16725913189516342,0.8327410284767773,-1.304734,50.69385
354,Abingdon,0.4904012635703909,0.5095987695072536,-1.2879528999999998,51.67078
355,Shetland Islands,0.6327408681048508,0.3672589875177729,-1.2659409,60.52965
356,Rugby,0.8452686086730551,0.15473283942695046,-1.265032,52.37088
357,Oxford,0.5052042305616133,0.4947958931432882,-1.2577263,51.75202
358,Middlesbrough,0.8660175540316326,0.13398258945212185,-1.234956,54.57423000000001
359,Hartlepool,0.8997620808925001,0.10023864668830039,-1.212926,54.69174
360,Loughborough,0.4414978907171622,0.5585014273936585,-1.206166,52.7721
361,Mansfield,0.5952856028950173,0.40471630506053985,-1.198674,53.1472
362,Nottingham,0.6552772057500423,0.344721066638175,-1.1581086,52.95478000000001
363,Bicester,0.47866525381371033,0.5213366901629278,-1.1535898999999998,51.8996
364,Leicester,0.3969250454845405,0.603075640067916,-1.1397591999999999,52.636880000000005
365,Doncaster,0.5442389587540271,0.45576159291006374,-1.128462,53.522819999999996
366,Worksop,0.51093428234401,0.48906668519901897,-1.122745,53.3093
367,Basingstoke,0.35828218405742895,0.6417175140086269,-1.0923964,51.26654
368,Portsmouth,0.18021872563328994,0.8197820838483912,-1.0879769,50.81977
369,York,0.8317332107083624,0.16826730796283093,-1.0872979,53.95997
370,Selby,0.8043425235419972,0.19565873515575777,-1.067189,53.783519999999996
371,Helmsley,0.7868444728792255,0.2131547339190591,-1.0562636,54.24651
372,Towcester,0.3909710698362607,0.6090280119757595,-0.9896879999999999,52.13511
373,Reading,0.30687566227483093,0.6931246785595212,-0.9781303,51.45426
374,Retford,0.44425295399564907,0.5557472857847874,-0.9455030000000001,53.32136
375,Petersfield,0.24555251214587848,0.7544485842783647,-0.93899,51.00759
376,Northampton,0.4244356918647676,0.5755643737065907,-0.9026559999999999,52.24048
377,Melton Mowbray,0.5561029250055075,0.44389795508874214,-0.887126,52.7664
378,Aylesbury,0.4847431873163166,0.5152584811303093,-0.8084,51.81561
379,Newark-on-Trent,0.6764620029190103,0.3235396435726419,-0.80657,53.070040000000006
380,Malton,0.8421496691125003,0.15784861781893675,-0.7978970000000001,54.13684
381,Chichester,0.19830057780355698,0.801698565264843,-0.774936,50.83761
382,Gainsborough,0.6525221424715644,0.3474774074977173,-0.774465,53.400580000000005
383,Milton Keynes,0.26340244316932876,0.7365962669199351,-0.7594171,52.040620000000004
384,Aldershot,0.5942059699702118,0.4057942177941132,-0.7557509,51.24837
385,High Wycombe,0.3812383789511659,0.6187607358420838,-0.748229,51.628609999999995
386,Midhurst,0.4800007997280979,0.5199982262043676,-0.737274,50.9869
387,Kettering,0.42464761980927473,0.575351686173487,-0.7302489999999999,52.39632
388,Wellingborough,0.4367834936121778,0.5632153012825469,-0.693964,52.30242
389,Corby,0.4103764719995215,0.5896234235071427,-0.6842333,52.4923
390,Bognor Regis,0.24155387168363165,0.7584466620533054,-0.673061,50.783
391,Scunthorpe,0.7858368154827424,0.2141624705630298,-0.654413,53.58865
392,Grantham,0.6316412419777312,0.3683597724583279,-0.643582,52.912519999999994
393,Whitby,0.8990543215306783,0.10094676541808675,-0.613347,54.48633
394,Slough,0.47413079552952975,0.5258689859191176,-0.5950406,51.51054
395,Guildford,0.5325029489973465,0.46749763420607343,-0.570409,51.23622
396,Woking,0.464502069296443,0.5354981050856352,-0.5600349,51.31677
397,Lincoln,0.7701781394325932,0.2298216551656519,-0.540579,53.23069
398,Bedford,0.381298358558099,0.6187027955834888,-0.46677820000000003,52.13864
399,Heathrow,0.24158586080733052,0.7584137532659873,-0.4542955,51.47002
400,Driffield,0.8676849871043848,0.13231687699367073,-0.443377,54.006
401,Beverley,0.9307315512725668,0.06926835888476081,-0.435093,53.84196
402,Luton,0.4137113381450347,0.5862889596256764,-0.4200255,51.87867
403,Scarborough,0.8715436751504513,0.12845747197015034,-0.399752,54.28311
404,Worthing,0.42571125817222644,0.5742886083853509,-0.372882,50.81787
405,Dorking,0.5731411320151191,0.42685800094191906,-0.332378,51.2322
406,Hull,0.9099706099926044,0.09002792568516056,-0.3274198,53.767619999999994
407,Horsham,0.47371093828098887,0.5262890427973381,-0.325858,51.06288
408,Biggleswade,0.4737269328428383,0.5262744477701556,-0.26421999999999995,52.086940000000006
409,Peterborough,0.598052662094889,0.4019462488740837,-0.2405299,52.5695
410,Welwyn Garden City,0.4466521382729883,0.5533466237383599,-0.208661,51.80317
411,Bridlington,0.8873223104144624,0.11267660882584087,-0.198802,54.08535
412,Stevenage,0.4456364835955849,0.5543638771397809,-0.19661199999999998,51.90376
413,Crawley,0.4071655637083436,0.5928330499232303,-0.18722750000000002,51.109140000000004
414,Huntingdon,0.5403322870224166,0.45966674234754734,-0.182552,52.33146
415,Hove,0.39507367495052437,0.6049258496645024,-0.168749,50.82793
416,Spalding,0.6438250994661914,0.3561732046657062,-0.1537024,52.7901
417,Brighton,0.3899394205970034,0.6100618597231551,-0.137163,50.82253
418,London,0.5558030269708328,0.44419737307104723,-0.12775830000000002,51.50735
419,Grimsby,0.8882419977207825,0.11175816175912545,-0.08078400000000001,53.56746999999999
420,Boston,0.7227662594717817,0.2772347805655657,-0.026576999999999996,52.97894
421,Royston,0.4914928924165813,0.5085086209426725,-0.024066,52.048140000000004
422,Louth_Lincs,0.8515784633224781,0.14842190968693145,-0.007711,53.36596
423,Lewes,0.4027990483235732,0.5972006417973269,0.00878,50.873870000000004
424,Chatteris,0.5468900573804926,0.4531092566140865,0.054012,52.4561
425,Uckfield,0.44503268888578884,0.5549653122188208,0.095913,50.966409999999996
426,Cambridge,0.46629346022353046,0.5337067154479126,0.12181700000000001,52.20534
427,Bishop's Stortford,0.38204210568407093,0.6179594888429615,0.15365020000000001,51.87216
428,Wisbech,0.5842453565787737,0.4157554238119988,0.158797,52.66631999999999
429,Sevenoaks,0.5660075574304769,0.4339934897381765,0.190898,51.27241
430,Tunbridge Wells,0.3764280144750804,0.6235708969240001,0.26369499999999996,51.13238
431,Eastbourne,0.42404382509947425,0.5759544008165538,0.29047199999999995,50.768029999999996
432,Brentwood,0.1278965151848408,0.8721046964878127,0.30717490000000003,51.620470000000005
433,Skegness,0.7387328308375171,0.2612683406509734,0.337881,53.1464
434,Downham Market,0.47385888797808945,0.5261408532884676,0.385472,52.606609999999996
435,King's Lynn,0.5271447707779424,0.47285696817380385,0.4022963,52.75168000000001
436,Bexhill,0.538496911050241,0.46150383641285736,0.4662071,50.849909999999994
437,Chelmsford,0.016002559129907556,0.9839956929874852,0.4685497,51.73559
438,Mildenhall,0.4834796169302515,0.516520571111011,0.5156095,52.347570000000005
439,Medway,0.05558510106564433,0.9444149389420036,0.5417860999999999,51.404740000000004
440,Braintree,0.29186876462003936,0.7081316453857841,0.5509269,51.88009
441,Gillingham,0.13671751604455795,0.8632827023176664,0.551438,51.38632
442,Hastings,0.4873263090549243,0.5126730420411159,0.573453,50.85426
443,Maldon,0.05504528460324156,0.9449560745662738,0.6714479999999999,51.731809999999996
444,Southend,0.01,1.0,0.7077123000000001,51.54593
445,Bury St Edmunds,0.4887658196213376,0.5112333325789238,0.7104931999999999,52.24292
446,Thetford,0.5080912489753557,0.4919095965622594,0.751657,52.412859999999995
447,Ashford,0.22349601135614766,0.7765021102010123,0.8750190000000001,51.14647
448,Faversham,0.19209868644661093,0.8079023315176054,0.889358,51.31599
449,Colchester,0.347989683507613,0.6520106069460013,0.891874,51.89593
450,New Romney,0.27546634144391374,0.7245339767834305,0.939473,50.98512
451,Canterbury,0.2130115760641474,0.7869868578377975,1.0789089,51.280229999999996
452,Ipswich,0.4810724353719787,0.5189272711001908,1.14822,52.056740000000005
453,Clacton,0.3199152288222046,0.6800849614519343,1.153035,51.78953
454,Folkestone,0.2705680068776653,0.7294316680420648,1.169456,51.0814
455,Sheringham,0.5266729312033975,0.4733286874496122,1.2109589,52.944419999999994
456,Harwich,0.4051062638702893,0.5948936278431214,1.260297,51.93473
457,Norwich,0.5480296699122357,0.4519701647254748,1.297355,52.63089
458,Cromer,0.5507727372693332,0.4492281789748598,1.301866,52.93145
459,Dover,0.25387768158826773,0.7461203418771156,1.3134027,51.12788
460,Felixstowe,0.46640142351600744,0.5335994320015286,1.3512549999999999,51.961729999999996
461,Margate,0.17003018973549527,0.8299693728352875,1.3868339,51.38965
462,Ramsgate,0.16835875802227854,0.8316422828413904,1.4198950000000001,51.33555
463,Great Yarmouth,0.5467740968070909,0.45322545702228334,1.728047,52.59823000000001
464,Lowestoft,0.5628286382629936,0.4371709271217111,1.7534490000000003,52.48114
465,Swaffham,0.4781134414299183,0.5218878623675343,0.687481,52.64747
466,Dereham,0.5414239158686115,0.4585777933742416,0.9378270000000001,52.681619999999995
467,Ely,0.4726073135134092,0.5273909873427925,0.262363,52.39954
468,March,0.5830777535637919,0.4169227060955792,0.088622,52.551719999999996
469,St Neots,0.5333146730111807,0.46668347160755386,-0.26510300000000003,52.23008
470,Banham,0.5438830797528883,0.4561157922272724,1.0402849,52.45125
471,Holt,0.5527240738149061,0.44727428470571506,1.086747,52.90936
472,Cromer,0.5507727372693332,0.4492281789748598,1.301866,52.93145
473,Hunstanton,0.5633844492872413,0.4366167559389166,0.49103199999999997,52.93891
474,Horncastle,0.7471499690105428,0.2528484894626703,-0.11245,53.20731
475,Market Weighton,0.9027050802727067,0.09729616924921344,-0.6677465,53.86484
476,Hawes,0.7278445328588297,0.2721545515012125,-2.1968695,54.303830000000005
477,Reeth,0.8756302857028656,0.12437102430459893,-1.9428115000000001,54.38946
478,Aysgarth,0.8465681668232836,0.15343304229382965,-1.9967433999999997,54.29159
479,Stanhope,0.9086790491233006,0.09132164488915338,-2.011302,54.74946
480,Keswick,0.8227682587920092,0.17723325308600854,-3.134706,54.60128
481,Oxenholme,0.9426674930523652,0.0573346249465882,-2.7243327999999996,54.30134
