,placename,off,outside_of,longitude,latitude
0,Dingle,0.8363417999999999,0.4582593305414571,-10.264013499999999,52.14094
1,Tralee,0.8363417999999999,0.4582593305414571,-9.6999325,52.27131
2,Killarney,0.8363417999999999,0.4631743084671986,-9.5044265,52.059940000000005
3,Bantry,0.8363417999999999,0.44402120782707427,-9.4539805,51.68035
4,Mayo,0.8363417999999999,0.4948040724633357,-9.4289369,54.01526
5,Ballycastle,0.8363417999999999,0.47985463163290837,-9.3724643,54.279669999999996
6,Abbeyfeale,0.8363417999999999,0.4575922067462321,-9.2970823,52.386179999999996
7,Ennistymon,0.8363417999999999,0.4005478610258208,-9.2934951,52.940369999999994
8,Galway,0.8363417999999999,0.44320057994833095,-9.0567905,53.270669999999996
9,Claremorris,0.8363417999999999,0.4454979418692415,-9.0017356,53.72388
10,Clare,0.8363417999999999,0.47562200411712807,-8.9811351,52.90453
11,Adare,0.8363417999999999,0.47902038645643374,-8.7925892,52.56363
12,Charleville,0.8363417999999999,0.45437493446675464,-8.681017599999999,52.36206
13,Mallow,0.8363417999999999,0.44352269093648755,-8.6539164,52.13898
14,Limerick,0.8363417999999999,0.4996473738855634,-8.6267343,52.66384
15,Loughrea,0.8363417999999999,0.4942556667456057,-8.5660931,53.19891
16,Sligo,0.8363417999999999,0.44622423901279046,-8.476088800000001,54.27661
17,Cork,0.8363417999999999,0.4359600151572904,-8.4756035,51.898509999999995
18,Nenagh,0.8363417999999999,0.5368878359279031,-8.19834,52.8635
19,Roscommon,0.8363417999999999,0.5080399620646845,-8.1890955,53.627590000000005
20,Tipperary,0.8363417999999999,0.5413666889453911,-8.161851400000002,52.47379
21,Donegal,0.8363417999999999,0.5573079642251307,-8.1096143,54.653830000000006
22,Leitrim,0.8363417999999999,0.49616704017263763,-8.0020132,54.12469
23,Athlone,0.8363417999999999,0.5665226658063838,-7.9406898,53.423930000000006
24,Longford,0.8363417999999999,0.6793718117727976,-7.7932573000000005,53.727630000000005
25,Offaly,0.8363417999999999,0.5879878598076915,-7.7122229,53.235690000000005
26,Fermanagh,0.8363417999999999,0.5167044010239713,-7.6318728,54.343830000000004
27,Enniskillen,0.8363417999999999,0.5167044010239713,-7.631533599999999,54.343819999999994
28,Doon,0.8363417999999999,0.3466289327220075,-7.60964,54.185930000000006
29,Westmeath,0.8363417999999999,0.5994319606148135,-7.4653217000000005,53.534530000000004
30,Strabane,0.8363417999999999,0.6392786496493362,-7.4633103,54.82739
31,Cavan,0.8363417999999999,0.37808241460933023,-7.3633319,53.98972
32,Mullingar,0.8363417999999999,0.6213178053224074,-7.340186800000001,53.525819999999996
33,Laois,0.8363417999999999,0.6303721941712768,-7.332300699999999,52.99429
34,Omagh,0.8363417999999999,0.6388471051048649,-7.309959700000001,54.59771
35,Derry,0.8363417999999999,0.6099477330974982,-7.308574799999999,54.99661
36,Kilkenny,0.8363417999999999,0.5996546653295308,-7.2447879,52.65415
37,Tyrone,0.8363417999999999,0.7328042311667513,-7.131232000000001,54.491209999999995
38,Waterford,0.8363417999999999,0.6748836742341292,-7.110070200000001,52.25932
39,Monaghan,0.8363417999999999,0.46160448162599443,-6.9683132,54.2492
40,Carlow,0.8363417999999999,0.595208617620214,-6.934135899999999,52.83651
41,Kildare,0.8363417999999999,0.4931972313310252,-6.8194707999999995,53.21204
42,Dungannon,0.8363417999999999,0.6272430629462064,-6.7669352,54.508269999999996
43,Cookstown,0.8363417999999999,0.5648846286829065,-6.7443895000000005,54.641819999999996
44,Coleraine,0.8363417999999999,0.5788418636831745,-6.6646103000000005,55.132580000000004
45,Meath,0.8363417999999999,0.5428024473007481,-6.656416900000001,53.60555
46,Armagh,0.8363417999999999,0.623049554213,-6.652792,54.350280000000005
47,Magherafelt,0.8363417999999999,0.6683799290439755,-6.607980499999999,54.75536999999999
48,Louth,0.8363417999999999,0.4724302333224931,-6.4889423,53.925230000000006
49,Wexford,0.8363417999999999,0.6829192416254549,-6.4633381,52.33692
50,Craigavon,0.8363417999999999,0.6473982729057494,-6.4175653,54.442930000000004
51,Drogheda,0.8363417999999999,0.6383469788972737,-6.3560985,53.717859999999995
52,Rosslare,0.8363417999999999,0.664455423837773,-6.3414908,52.25131
53,Newry,0.8363417999999999,0.45286106233986523,-6.34023,54.1751
54,Ballymena,0.8363417999999999,0.4305818015214483,-6.2802213,54.86529
55,Banbridge,0.8363417999999999,0.8340809023465207,-6.2704803,54.34873
56,Dublin,0.8363417999999999,0.5424880115167677,-6.2603097000000005,53.34981
57,Antrim,0.8363417999999999,0.46875096326907256,-6.2072498,54.719530000000006
58,Wicklow,0.8363417999999999,0.5401582156685333,-6.044589,52.980819999999994
59,Kilkeel,0.8363417999999999,0.5406499239102541,-6.007004,54.06312
60,Belfast,0.8363417999999999,0.4993305860228838,-5.93012,54.597280000000005
61,Down,0.8363417999999999,0.43771417069233187,-5.7156921999999994,54.32875
62,Balivanich,0.890872200407034,0.10912803367087316,-7.3743509000000005,57.472269999999995
63,Western Isles,0.8544644935107387,0.14553610744097428,-7.0194034,57.759890000000006
64,Dunvegan,0.8814787396818006,0.11852223599494975,-6.581398200000001,57.4366
65,Stornoway,0.8363417999999999,0.2337198706455751,-6.384869200000001,58.209430000000005
66,Scilly Isles,0.8363417999999999,0.6337401232811102,-6.327496599999999,49.92773
67,Portree,0.8677203155252081,0.13228028706749145,-6.1960231,57.41246999999999
68,Islay,0.9958343443146542,0.08287856,-6.177067,55.73625
69,Mull,0.9641964060233028,0.08287856,-6.0008870000000005,56.4392
70,Broadford,0.8631696616472486,0.13683118796934032,-5.9096592,57.24139
71,Kyle of Lochalsh,0.8497132939504531,0.15028767779393837,-5.7143293,57.28261
72,Campbeltown,0.9871960247389187,0.08287856,-5.605373999999999,55.424119999999995
73,Penzance,0.8363417999999999,0.6310715043065942,-5.537592,50.1188
74,Oban,0.9555234242308708,0.08287856,-5.471047,56.41516
75,Lochgilphead,0.9831913007739582,0.08287856,-5.4323449,56.03829
76,Helston,0.8363417999999999,0.6747676796161803,-5.274996,50.10159
77,Redruth,0.8363417999999999,0.6461691260950628,-5.226666000000001,50.23302
78,Ullapool,0.8363417999999999,0.3142876030225944,-5.161313,57.895419999999994
79,Ballachulish,0.9125150409261753,0.08748531962459342,-5.133719999999999,56.673930000000006
80,Fort William,0.9448499373604242,0.08287856,-5.1052179,56.81981999999999
81,Achnasheen,0.8363417999999999,0.24787133782893978,-5.078765799999999,57.578590000000005
82,Newquay,0.8363417999999999,0.6367499174606068,-5.0737190000000005,50.4155
83,Falmouth,0.8363417999999999,0.6742472512556077,-5.066269999999999,50.152570000000004
84,Rothesay,1.0,0.08287856,-5.055793,55.83596
85,Truro,0.8363417999999999,0.6472679182283746,-5.051041000000001,50.2632
86,Milford Haven,0.8363417999999999,0.4442222486590367,-5.0426971,51.71431
87,Stranraer,0.9394488212370445,0.08287856,-5.024055000000001,54.903369999999995
88,Fishguard,0.8363417999999999,0.4019161518605995,-4.975989,51.99393
89,Inchnadamph,0.8363417999999999,0.3105336854188823,-4.974295,58.15221
90,Haverfordwest,0.8363417999999999,0.44964242833061463,-4.971319,51.80048
91,Dunoon,0.9903589520126359,0.08287856,-4.926214,55.95097
92,Pembroke,0.8363417999999999,0.4578654192561713,-4.908637000000001,51.674040000000005
93,Girvan,0.9469333841712515,0.08287856,-4.8542179,55.240159999999996
94,Wadebridge,0.8363417999999999,0.6420617777184119,-4.836456,50.51665
95,Invergarry,0.8652692016301154,0.13473177203999862,-4.800261,57.07095
96,St Austell,0.8363417999999999,0.6683096142702348,-4.7834252,50.340379999999996
97,Greenock,0.9974114751744257,0.08287856,-4.7719830000000005,55.956480000000006
98,Helensburgh,0.9797102238684031,0.08287856,-4.734014,56.00232
99,Bodmin,0.8363417999999999,0.6481269221279974,-4.7188629,50.4715
100,Tenby,0.8363417999999999,0.4342359414708736,-4.703579,51.672740000000005
101,Camelford,0.8363417999999999,0.6287470315838366,-4.682364,50.62206
102,Irvine,0.9941965545756596,0.08287856,-4.6696364,55.61156999999999
103,Cardigan,0.8363417999999999,0.4118446474302117,-4.660864,52.0837
104,Holyhead,0.8363417999999999,0.3602298896961745,-4.633038,53.30944
105,Ayr,0.9954481081857304,0.08287856,-4.629179,55.45856
106,Dumbarton,0.9705693021505433,0.08287856,-4.564554,55.94529
107,Bude,0.8363417999999999,0.5978731514054103,-4.543678,50.826640000000005
108,Isle of Man,0.8363417999999999,0.38613655104301686,-4.5126330999999995,54.27697
109,Kilmarnock,0.9992597140862304,0.08287856,-4.498792,55.61472
110,Newton Stewart,0.9100007922792396,0.08999944416666524,-4.483164,54.9603
111,Liskeard,0.8363417999999999,0.6686842137514653,-4.4647190000000005,50.45552
112,Altnaharra,0.8363417999999999,0.33918670813092555,-4.442655,58.28023
113,Pwllheli,0.8363417999999999,0.43841731842973736,-4.417633900000001,52.888819999999996
114,Lairg,0.8363417999999999,0.32178343024929185,-4.402414,58.022059999999996
115,Launceston,0.8363417999999999,0.6604076201902931,-4.360451599999999,50.636829999999996
116,Carmarthen,0.8363417999999999,0.38132716907150205,-4.312131,51.857620000000004
117,Llangefni,0.8363417999999999,0.37416892703492877,-4.311401999999999,53.25578
118,Caernarfon,0.8363417999999999,0.3825059318805823,-4.273911,53.13955
119,Cumnock,0.9860212231801078,0.08287856,-4.265828900000001,55.45355
120,Aberaeron,0.8363417999999999,0.4152921758349662,-4.2581619,52.24279
121,Alness,0.8363417999999999,0.32612895754262744,-4.256825,57.69595
122,Glasgow,0.973381893448346,0.08287856,-4.251806,55.86424
123,Dalwhinnie,0.8363417999999999,0.19806136721878206,-4.242783,56.9366
124,Inverness,0.8363417999999999,0.3207847871511139,-4.224721,57.47776999999999
125,Saltash,0.8363417999999999,0.6839426434467806,-4.21643,50.409209999999995
126,Bideford,0.8363417999999999,0.5974253898972772,-4.206666,51.01668
127,Invergordon,0.8363417999999999,0.3289375870965458,-4.1728819999999995,57.688109999999995
128,Llanelli,0.8363417999999999,0.40464790557914315,-4.160248,51.680890000000005
129,Plymouth,0.8363417999999999,0.659391522192296,-4.1426565,50.37546
130,Tavistock,0.8363417999999999,0.6805473559478685,-4.141654,50.551120000000004
131,Porthmadog,0.8363417999999999,0.40309875227176756,-4.1333839999999995,52.92784
132,Bangor,0.8363417999999999,0.38048116350153205,-4.129263,53.22739
133,Tywyn,0.8363417999999999,0.39330618209223844,-4.087249,52.58701
134,Aberystwyth,0.8363417999999999,0.3933190566282754,-4.08292,52.4153
135,Lampeter,0.8363417999999999,0.37498410799457926,-4.0785089999999995,52.1129
136,Barnstaple,0.8363417999999999,0.5365414613910614,-4.058338,51.07816
137,Tain,0.8363417999999999,0.3415040008239703,-4.05523,57.8115
138,Okehampton,0.8363417999999999,0.6383334853931582,-4.004263,50.73831
139,Llandeilo,0.8363417999999999,0.38714720212192166,-3.9914300000000003,51.88469
140,Motherwell,0.9444302769511126,0.08287856,-3.9810968,55.78321
141,Golspie,0.8363417999999999,0.32973803661592316,-3.976086,57.97341
142,Airdrie,0.9513441512461067,0.08287856,-3.9625660000000003,55.86626999999999
143,Swansea,0.8363417999999999,0.5229293629914777,-3.9436459999999998,51.62144
144,Stirling,0.9490812036702345,0.08287856,-3.9369029,56.116519999999994
145,Tregaron,0.8363417999999999,0.4074007042123626,-3.934385,52.22
146,Castle Douglas,0.8363417999999999,0.19381202756487687,-3.9314139999999997,54.940419999999996
147,Dolgellau,0.8363417999999999,0.38486209576896946,-3.8844,52.74215
148,Aberfeldy,0.8363417999999999,0.16528477916642578,-3.866969,56.62175
149,Machynlleth,0.8363417999999999,0.37849241906466247,-3.853485,52.59027
150,Brora,0.8363417999999999,0.32247964554421593,-3.8525480000000005,58.012159999999994
151,Llandudno,0.8363417999999999,0.3603729951159705,-3.827609,53.324059999999996
152,Aviemore,0.8363417999999999,0.3000137039532625,-3.823812,57.19449
153,Dalbeattie,0.8363417999999999,0.20403106675063176,-3.8225269999999996,54.934219999999996
154,Falkirk,0.9324755259991387,0.08287856,-3.7839131,56.00188000000001
155,Kingsbridge,0.8363417999999999,0.6671583336438492,-3.777493,50.28395
156,Pitlochry,0.8363417999999999,0.17598029997916553,-3.729711,56.70436
157,Colwyn Bay,0.8363417999999999,0.3615392547698609,-3.72764,53.29318000000001
158,Totnes,0.8363417999999999,0.6801775844176521,-3.685797,50.43374
159,Grantown-on-Spey,0.8363417999999999,0.29367138563803413,-3.609628,57.33041
160,Dumfries,0.8363417999999999,0.18487227160418324,-3.60512,55.070859999999996
161,Whitehaven,0.8363417999999999,0.511181844032176,-3.589233,54.5497
162,Dartmouth,0.8363417999999999,0.6802731530890035,-3.578807,50.35252
163,Bridgend,0.8363417999999999,0.49393120367875015,-3.576945,51.504290000000005
164,Paignton,0.8363417999999999,0.7015197275649141,-3.564235,50.43508
165,Workington,0.8363417999999999,0.469744035654542,-3.5427519999999997,54.64357
166,Llanidloes,0.8363417999999999,0.41568200193093285,-3.5401949999999998,52.447790000000005
167,Exeter,0.8363417999999999,0.6784656425055778,-3.533899,50.71841
168,Torquay,0.8363417999999999,0.6943135773990493,-3.525315,50.46192
169,Thurso,0.8363417999999999,0.3174817258959284,-3.5220800000000003,58.59356999999999
170,Livingston,0.8363417999999999,0.20072218719550636,-3.518068,55.90071
171,Rhyl,0.8363417999999999,0.33884961811526443,-3.4916339999999995,53.319140000000004
172,Tiverton,0.8363417999999999,0.6255857140186737,-3.491207,50.90205
173,Minehead,0.8363417999999999,0.6345884809297794,-3.481152,51.20428
174,Dunfermline,0.8363417999999999,0.22088606270815117,-3.452151,56.071740000000005
175,Perth,0.8363417999999999,0.22712117575214824,-3.4308381000000003,56.39499
176,Prestatyn,0.8363417999999999,0.3393540770994066,-3.4076129999999996,53.33651
177,Builth Wells,0.8363417999999999,0.4109673220754594,-3.4045919999999996,52.15002
178,Braemar,0.8363417999999999,0.2958853106619356,-3.3979439,57.00646999999999
179,Brecon,0.8363417999999999,0.44007082975518197,-3.391463,51.94895
180,Merthyr Tydfil,0.8363417999999999,0.5243472950661683,-3.381646,51.74873
181,Llandrindod Wells,0.8363417999999999,0.42545996446380474,-3.377742,52.2417
182,Corwen,0.8363417999999999,0.4025302919882877,-3.369242,52.98005
183,Cockermouth,0.8363417999999999,0.4787128831149346,-3.367985,54.66326
184,Lockerbie,0.8363417999999999,0.32397494862874426,-3.349008,55.122240000000005
185,Blairgowrie,0.8363417999999999,0.25262674578399186,-3.3378318,56.58941
186,Elgin,0.8363417999999999,0.284531207813457,-3.318485,57.64945
187,Newtown,0.8363417999999999,0.4310350099486739,-3.313106,52.51211
188,Ruthin,0.8363417999999999,0.3931240816834843,-3.3103108,53.114869999999996
189,Sidmouth,0.8363417999999999,0.691320247770446,-3.2375599999999998,50.67865
190,Barrow-in-Furness,0.8363417999999999,0.442611198543791,-3.2188939999999997,54.10896999999999
191,Peebles,0.8363417999999999,0.20491136315216177,-3.1936419999999996,55.65306999999999
192,Edinburgh,0.8363417999999999,0.2010243674115287,-3.1882669999999997,55.95325
193,Cardiff,0.8363417999999999,0.5149311812721057,-3.17909,51.48158
194,Llangollen,0.8363417999999999,0.41949583564466336,-3.1716599999999997,52.96921
195,Kirkcaldy,0.8363417999999999,0.2104258735589339,-3.158137,56.11682
196,Welshpool,0.8363417999999999,0.49107157115514677,-3.146407,52.66035
197,Mold,0.8363417999999999,0.3869724055364961,-3.1419029999999997,53.1672
198,Taunton,0.8363417999999999,0.6586076610174277,-3.106849,51.01534
199,Wick,0.8363417999999999,0.3140335785230951,-3.093716,58.43894
200,John o' Groats,0.8363417999999999,0.31561405161525286,-3.0688997000000002,58.63734
201,Dalkeith,0.8363417999999999,0.202640864445867,-3.066606,55.893119999999996
202,Oswestry,0.8363417999999999,0.5112104403574119,-3.056412,52.85715
203,Blackpool,0.8363417999999999,0.42725014394102667,-3.0356748,53.81751
204,Birkenhead,0.8363417999999999,0.4282874106473155,-3.023009,53.389990000000004
205,Cupar,0.8363417999999999,0.21744187673102158,-3.010137,56.32023
206,Southport,0.8363417999999999,0.4243494119369975,-3.010113,53.64571
207,Bridgwater,0.8363417999999999,0.6249599372911061,-3.003632,51.12789
208,Langholm,0.8363417999999999,0.7747934163088929,-2.998913,55.153059999999996
209,Newport,0.8363417999999999,0.6009922553476058,-2.997664,51.58415
210,Axminster,0.8363417999999999,0.6520329820854546,-2.9949369999999997,50.78273
211,Wrexham,0.8363417999999999,0.4128431667347738,-2.9924939999999998,53.043040000000005
212,Liverpool,0.8363417999999999,0.4306017322935825,-2.9915726,53.40837
213,Weston-super-Mare,0.8363417999999999,0.594298734544522,-2.977255,51.347409999999996
214,Dundee,0.8363417999999999,0.2472359051993442,-2.9707209999999997,56.462019999999995
215,Kirkwall,0.8363417999999999,0.31179910375898073,-2.9622491,58.984669999999994
216,Ambleside,0.8363417999999999,0.5372927648449899,-2.961333,54.428740000000005
217,Orkney Islands,0.8363417999999999,0.31179910375898073,-2.9605206,58.980940000000004
218,Lyme Regis,0.8363417999999999,0.6633754483340535,-2.936639,50.725159999999995
219,Carlisle,0.8363417999999999,0.842119935959087,-2.932931,54.892469999999996
220,Chester,0.8363417999999999,0.4063576192061339,-2.893075,53.19339
221,Forfar,0.8363417999999999,0.26863524099707825,-2.889062,56.64356
222,Morecambe,0.8363417999999999,0.47415579253229867,-2.864968,54.074169999999995
223,Selkirk,0.8363417999999999,0.28117838152474367,-2.838524,55.55066
224,Galashiels,0.8363417999999999,0.22567291424160124,-2.814449,55.62373
225,Lancaster,0.8363417999999999,0.4668628630417998,-2.8007399,54.046569999999996
226,St Andrews,0.8363417999999999,0.2295529775397529,-2.7967214,56.339780000000005
227,Hawick,0.8363417999999999,0.367516381918655,-2.780914,55.42706
228,Bridport,0.8363417999999999,0.63225620920923,-2.758301,50.733579999999996
229,Shrewsbury,0.8363417999999999,0.5884501051688662,-2.7553267999999997,52.7073
230,Penrith,0.8363417999999999,0.836260412745246,-2.752708,54.6641
231,Kendal,0.8363417999999999,0.5166996968665731,-2.74629,54.32801
232,Street,0.8363417999999999,0.5768731738120547,-2.7429189999999997,51.12468
233,Glastonbury,0.8363417999999999,0.5643396891864171,-2.718454,51.14743
234,Hereford,0.8363417999999999,0.4840098881388509,-2.715974,52.0564
235,Ludlow,0.8363417999999999,0.6013649979246002,-2.7139129,52.36775
236,Preston,0.8363417999999999,0.5760579928524043,-2.70309,53.7632
237,Whitchurch,0.8363417999999999,0.5477482498368091,-2.682045,52.96872
238,Wells,0.8363417999999999,0.5751497190937168,-2.6445979,51.20935
239,Yeovil,0.8363417999999999,0.5965965916398953,-2.633308,50.94206
240,Wigan,0.8363417999999999,0.5382839803262236,-2.6325074,53.54506
241,Warrington,0.8363417999999999,0.5439899994565461,-2.5969501,53.39004
242,Arbroath,0.8363417999999999,0.2705971222193323,-2.591543,56.55911
243,Bristol,0.8363417999999999,0.553707798292168,-2.58791,51.45451
244,Guernsey,0.8363417999999999,0.6978763576600583,-2.5852779999999997,49.46569
245,Ross-on-Wye,0.8363417999999999,0.468987285281521,-2.582446,51.91445
246,Jedburgh,0.8363417999999999,0.5358594823619477,-2.5549369,55.47772
247,Sedbergh,0.8363417999999999,0.6123764400447094,-2.5281740000000004,54.32363
248,Nantwich,0.8363417999999999,0.5784897946400088,-2.524102,53.06718000000001
249,Banff,0.8363417999999999,0.2952176916922476,-2.524038,57.666509999999995
250,Dunbar,0.8363417999999999,0.2085065773404947,-2.516737,56.00209
251,Cinderford,0.8363417999999999,0.5813105559682697,-2.5009579,51.8253
252,Banchory,0.8363417999999999,0.2692502476800767,-2.4909599,57.05386
253,Blackburn,0.8363417999999999,0.5721136806676832,-2.487529,53.748580000000004
254,Market Drayton,0.8363417999999999,0.6095409472761752,-2.483485,52.90355
255,Telford,0.8363417999999999,0.6895530939057517,-2.4672611,52.67759
256,Montrose,0.8363417999999999,0.28262206267150825,-2.4661150000000003,56.70692
257,Turriff,0.8363417999999999,0.2835749021318623,-2.4623,57.53893000000001
258,Weymouth,0.8363417999999999,0.6235425003908783,-2.457621,50.61443
259,Crewe,0.8363417999999999,0.5971847351082781,-2.4438209,53.1004
260,Fortuneswell,0.8363417999999999,0.6149143329610035,-2.4422189999999997,50.55919
261,Dorchester,0.8363417999999999,0.5228121304373714,-2.4411810000000003,50.71116
262,Alston,0.8363417999999999,0.8841247190968119,-2.438685,54.812169999999995
263,Kelso,0.8363417999999999,0.35005677794185935,-2.432207,55.600030000000004
264,Wincanton,0.8363417999999999,0.5950273837667699,-2.416007,51.055690000000006
265,Clitheroe,0.8363417999999999,0.5496132006579384,-2.3930830000000003,53.8711
266,Sark,0.8363417999999999,0.6731713609412079,-2.3666256000000003,49.43007
267,Bath,0.8363417999999999,0.6108930211472922,-2.3590167,51.38106
268,Kidderminster,0.8363417999999999,0.6962724875745255,-2.2496839,52.3886
269,Manchester,0.8363417999999999,0.5703860169664103,-2.2426305,53.48076
270,Burnley,0.8363417999999999,0.5475110612690506,-2.2405035,53.78929
271,Gloucester,0.8363417999999999,0.5325372330963222,-2.238156,51.86424
272,Newcastle-under-Lyme,0.8363417999999999,0.6886277366280924,-2.2273002,53.01321
273,Worcester,0.8363417999999999,0.6603114325508629,-2.221575,52.19364
274,Trowbridge,0.8363417999999999,0.605642562522894,-2.208853,51.31966
275,Shaftesbury,0.8363417999999999,0.5624425520251954,-2.198083,51.0046
276,Alderney,0.8363417999999999,0.6409359985768684,-2.1973557,49.715
277,Stoke-on-Trent,0.8363417999999999,0.6602898924617241,-2.179404,53.002669999999995
278,Colne,0.8363417999999999,0.5427937817476465,-2.176991,53.85564
279,Blandford Forum,0.8363417999999999,0.5947072534764654,-2.165353,50.85691
280,Rochdale,0.8363417999999999,0.5697153031563286,-2.1561,53.60971
281,Jersey,0.8363417999999999,0.6613177508532165,-2.13125,49.21444
282,Wolverhampton,0.8363417999999999,0.7108964749891712,-2.12882,52.586969999999994
283,Stafford,0.8363417999999999,0.7156855548077045,-2.12066,52.80669
284,Macclesfield,0.8363417999999999,0.5827734251254741,-2.119287,53.25866
285,Hexham,0.8363417999999999,0.9761528930382309,-2.1121439,54.97266
286,Aberdeen,0.8363417999999999,0.24393940500579286,-2.094278,57.149719999999995
287,Dudley,0.8363417999999999,0.690281247953537,-2.081112,52.51225
288,Cheltenham,0.8363417999999999,0.580001809862662,-2.0782533,51.899390000000004
289,Bromsgrove,0.8363417999999999,0.6925664781001046,-2.061906,52.33559
290,Skipton,0.8363417999999999,0.5393091152581697,-2.0162787,53.96285
291,Fraserburgh,0.8363417999999999,0.2808014299648141,-2.007631,57.69335
292,Berwick,0.8363417999999999,0.5362277683687754,-2.005395,55.77024
293,Poole,0.8363417999999999,0.601159500522471,-1.987248,50.71505
294,Walsall,0.8363417999999999,0.7030136689196691,-1.9829189999999999,52.586209999999994
295,Cirencester,0.8363417999999999,0.5353630699628285,-1.968243,51.71849
296,Evesham,0.8363417999999999,0.6518919811571262,-1.9467700000000001,52.09215
297,Buxton,0.8363417999999999,0.565530088595377,-1.91483,53.259080000000004
298,Keighley,0.8363417999999999,0.5130366437768145,-1.9123580000000002,53.8678
299,Birmingham,0.8363417999999999,0.7025240651694158,-1.8904009999999998,52.48624
300,Bournemouth,0.8363417999999999,0.622179780268808,-1.880769,50.719159999999995
301,Halifax,0.8363417999999999,0.47165342838372204,-1.8575400000000002,53.727019999999996
302,Salisbury,0.8363417999999999,0.6854445075929433,-1.794472,51.06878
303,Ringwood,0.8363417999999999,0.6493080370157768,-1.7888169999999999,50.84495
304,Huddersfield,0.8363417999999999,0.4767232721227547,-1.7850351000000002,53.645790000000005
305,Peterhead,0.8363417999999999,0.2829726461912851,-1.784066,57.50812
306,Swindon,0.8363417999999999,0.6609504551953149,-1.7797176,51.55577
307,Bradford,0.8363417999999999,0.5002705509472007,-1.759398,53.79598000000001
308,Ashbourne,0.8363417999999999,0.7110712715745967,-1.7321790000000001,53.016630000000006
309,Marlborough,0.8363417999999999,0.6191163834536959,-1.7270619999999999,51.42007
310,Stratford-upon-Avon,0.8363417999999999,0.6857468116025813,-1.7082979999999999,52.19173
311,Alnwick,0.8363417999999999,0.9721277436224316,-1.7062990000000002,55.41274
312,Otley,0.8363417999999999,0.5365231399359318,-1.691786,53.90583
313,Bishop Auckland,0.8363417999999999,0.9819856768310716,-1.6787880000000002,54.663819999999994
314,Burton upon Trent,0.8363417999999999,0.7510608184416836,-1.6371358999999999,52.81403
315,Newcastle,0.8363417999999999,0.9995372594643623,-1.61778,54.97825
316,Durham,0.8363417999999999,0.9964727485067087,-1.5848520000000001,54.77525
317,Ashington,0.8363417999999999,0.9881970215008465,-1.5659829,55.18298000000001
318,Darlington,0.8363417999999999,0.9612503699881693,-1.559458,54.52361
319,Leeds,0.8363417999999999,0.5577067034614304,-1.5490774,53.80076
320,Harrogate,0.8363417999999999,0.5409550751730541,-1.5418120000000002,53.99211999999999
321,Leamington Spa,0.8363417999999999,0.6662235680513934,-1.5200789,52.28519
322,Coventry,0.8363417999999999,0.6665497642288691,-1.519693,52.40682
323,Blyth,0.8363417999999999,0.9971439574912531,-1.510277,55.12696
324,Wakefield,0.8363417999999999,0.5564749569848133,-1.505924,53.6833
325,Andover,0.8363417999999999,0.7826930583101354,-1.4919233,51.2112
326,Witney,0.8363417999999999,0.6305606080544335,-1.4850543999999999,51.785940000000004
327,Barnsley,0.8363417999999999,0.5285200064719302,-1.479726,53.55263000000001
328,Derby,0.8363417999999999,0.7409193978529978,-1.4746186000000001,52.92253
329,Sheffield,0.8363417999999999,0.521089913655191,-1.470085,53.381130000000006
330,Nuneaton,0.8363417999999999,0.6751977386372626,-1.465382,52.52049
331,Northallerton,0.8363417999999999,0.7522129656233796,-1.429959,54.337959999999995
332,South Shields,0.8363417999999999,1.0,-1.427406,54.99941999999999
333,Chesterfield,0.8363417999999999,0.6218837897335725,-1.421629,53.23505
334,Southampton,0.8363417999999999,0.6574985940140093,-1.4043508999999998,50.9097
335,Wetherby,0.8363417999999999,0.5585221320083124,-1.384816,53.92706
336,Sunderland,0.8363417999999999,0.9972262802457205,-1.383801,54.90687
337,Rotherham,0.8363417999999999,0.5404932011927268,-1.3635008999999998,53.4326
338,Castleford,0.8363417999999999,0.5887817482654347,-1.345968,53.72346999999999
339,Thirsk,0.8363417999999999,0.5891250279618829,-1.341377,54.23385
340,Banbury,0.8363417999999999,0.5669413358148176,-1.339775,52.0629
341,Stockton,0.8363417999999999,0.9652338009554641,-1.3289821000000002,54.57046
342,Newbury,0.8363417999999999,0.780461554592799,-1.3231138999999998,51.40141
343,Isle of Wight,0.8363417999999999,0.6607167328487971,-1.304734,50.69385
344,Abingdon,0.8363417999999999,0.7382561020039586,-1.2879528999999998,51.67078
345,Shetland Islands,0.8363417999999999,0.3018408977215909,-1.2659409,60.52965
346,Rugby,0.8363417999999999,0.5522414629137229,-1.265032,52.37088
347,Oxford,0.8363417999999999,0.7525070992543785,-1.2577263,51.75202
348,Middlesbrough,0.8363417999999999,0.9658448462427587,-1.234956,54.57423000000001
349,Hartlepool,0.8363417999999999,0.9823018457256726,-1.212926,54.69174
350,Loughborough,0.8363417999999999,0.7511889448339748,-1.206166,52.7721
351,Mansfield,0.8363417999999999,0.636979183236958,-1.198674,53.1472
352,Nottingham,0.8363417999999999,0.7466074669090382,-1.1581086,52.95478000000001
353,Bicester,0.8363417999999999,0.5816356380032041,-1.1535898999999998,51.8996
354,Leicester,0.8363417999999999,0.7853579634761794,-1.1397591999999999,52.636880000000005
355,Doncaster,0.8363417999999999,0.5439581844973008,-1.128462,53.522819999999996
356,Worksop,0.8363417999999999,0.6057527388409031,-1.122745,53.3093
357,Basingstoke,0.8363417999999999,0.7308646327953303,-1.0923964,51.26654
358,Portsmouth,0.8363417999999999,0.6383519306419034,-1.0879769,50.81977
359,York,0.8363417999999999,0.5555062719416446,-1.0872979,53.95997
360,Selby,0.8363417999999999,0.5728029635201258,-1.067189,53.783519999999996
361,Helmsley,0.8363417999999999,0.6082088041771929,-1.0562636,54.24651
362,Towcester,0.8363417999999999,0.6348210891337555,-0.9896879999999999,52.13511
363,Reading,0.8363417999999999,0.7564220723521692,-0.9781303,51.45426
364,Retford,0.8363417999999999,0.6112189697375365,-0.9455030000000001,53.32136
365,Petersfield,0.8363417999999999,0.6362125293746778,-0.93899,51.00759
366,Northampton,0.8363417999999999,0.6240680042896963,-0.9026559999999999,52.24048
367,Melton Mowbray,0.8363417999999999,0.779846424116185,-0.887126,52.7664
368,Aylesbury,0.8363417999999999,0.6425909954257022,-0.8084,51.81561
369,Newark-on-Trent,0.8363417999999999,0.7281198807471343,-0.80657,53.070040000000006
370,Malton,0.8363417999999999,0.5600243675353225,-0.7978970000000001,54.13684
371,Chichester,0.8363417999999999,0.5949510031058581,-0.774936,50.83761
372,Gainsborough,0.8363417999999999,0.5513948383756743,-0.774465,53.400569999999995
373,Milton Keynes,0.8363417999999999,0.6697400495001151,-0.7594171,52.040620000000004
374,Aldershot,0.8363417999999999,0.6703773390339469,-0.7557509,51.24837
375,High Wycombe,0.8363417999999999,0.729260638916182,-0.748229,51.628609999999995
376,Midhurst,0.8363417999999999,0.6088204684325663,-0.737274,50.9869
377,Kettering,0.8363417999999999,0.6192094762527328,-0.7302489999999999,52.39632
378,Wellingborough,0.8363417999999999,0.6578975808375407,-0.693964,52.30242
379,Corby,0.8363417999999999,0.665745353313788,-0.6842333,52.4923
380,Bognor Regis,0.8363417999999999,0.5916455897719733,-0.673061,50.783
381,Scunthorpe,0.8363417999999999,0.5703418226455909,-0.654413,53.58865
382,Grantham,0.8363417999999999,0.7089544007454357,-0.643582,52.912519999999994
383,Whitby,0.8363417999999999,0.7757377140097605,-0.613347,54.486340000000006
384,Slough,0.8363417999999999,0.669574289848639,-0.5950406,51.51054
385,Guildford,0.8363417999999999,0.7059479489935641,-0.570409,51.23622
386,Woking,0.8363417999999999,0.6561982658742721,-0.5600349,51.31677
387,Lincoln,0.8363417999999999,0.7748420671998787,-0.540579,53.23069
388,Bedford,0.8363417999999999,0.7620545580747419,-0.46677820000000003,52.13864
389,Heathrow,0.8363417999999999,0.6826685595535806,-0.4542955,51.47002
390,Driffield,0.8363417999999999,0.5835405741622174,-0.443377,54.006
391,Beverley,0.8363417999999999,0.5402342249485977,-0.435093,53.84196
392,Luton,0.8363417999999999,0.7090263248361808,-0.4200255,51.87867
393,Scarborough,0.8363417999999999,0.6530019147158547,-0.399752,54.28311
394,Worthing,0.8363417999999999,0.5525697635826665,-0.372882,50.81787
395,Dorking,0.8363417999999999,0.6675342948548525,-0.332378,51.2322
396,Hull,0.8363417999999999,0.5492601412658467,-0.3274198,53.767619999999994
397,Horsham,0.8363417999999999,0.5502305594196358,-0.325858,51.06288
398,Biggleswade,0.8363417999999999,0.7841414436142983,-0.26421999999999995,52.086940000000006
399,Peterborough,0.8363417999999999,0.7955725460917674,-0.2405299,52.5695
400,Welwyn Garden City,0.8363417999999999,0.6983334036893718,-0.208661,51.80317
401,Bridlington,0.8363417999999999,0.5568464616256505,-0.198802,54.08535
402,Stevenage,0.8363417999999999,0.7698492230898367,-0.19661199999999998,51.90376
403,Crawley,0.8363417999999999,0.6135221499583867,-0.18722750000000002,51.109140000000004
404,Huntingdon,0.8363417999999999,0.8542493582229478,-0.182552,52.33146
405,Hove,0.8363417999999999,0.5531338910895954,-0.168749,50.82793
406,Spalding,0.8363417999999999,0.6834443741434255,-0.1537024,52.7901
407,Brighton,0.8363417999999999,0.5492507329510505,-0.137163,50.82253
408,London,0.8363417999999999,0.8121959241942368,-0.12775830000000002,51.50735
409,Grimsby,0.8363417999999999,0.5528123990695177,-0.08078400000000001,53.56746999999999
410,Boston,0.8363417999999999,0.702165435064616,-0.026576999999999996,52.97894
411,Royston,0.8363417999999999,0.8335815189006238,-0.024066,52.048140000000004
412,Louth_Lincs,0.8363417999999999,0.6049609548746273,-0.007711,53.36596
413,Lewes,0.8363417999999999,0.5342458325807715,0.00878,50.873870000000004
414,Chatteris,0.8363417999999999,0.8845083555119911,0.054012,52.4561
415,Uckfield,0.8363417999999999,0.552901035298388,0.095913,50.966409999999996
416,Cambridge,0.8363417999999999,0.9269386173070159,0.12181700000000001,52.20534
417,Bishop's Stortford,0.8363417999999999,0.7592136183871153,0.15365020000000001,51.87216
418,Wisbech,0.8363417999999999,0.8221972104099043,0.158797,52.66631999999999
419,Sevenoaks,0.8363417999999999,0.6373638100010633,0.190898,51.27241
420,Tunbridge Wells,0.8363417999999999,0.6349346078793895,0.26369499999999996,51.13238
421,Eastbourne,0.8363417999999999,0.5623822645343299,0.29047199999999995,50.768029999999996
422,Brentwood,0.8363417999999999,0.7057897407526479,0.30717490000000003,51.620470000000005
423,Skegness,0.8363417999999999,0.5817112759024214,0.337881,53.1464
424,Downham Market,0.8363417999999999,0.7691202024867414,0.385472,52.606609999999996
425,King's Lynn,0.8363417999999999,0.7566795630729091,0.4022963,52.75168000000001
426,Bexhill,0.8363417999999999,0.5394938153328545,0.4662071,50.849909999999994
427,Chelmsford,0.8363417999999999,0.6878598448296545,0.4685497,51.73559
428,Mildenhall,0.8363417999999999,0.7894925464482934,0.5156095,52.347570000000005
429,Medway,0.8363417999999999,0.6340445317822158,0.5417860999999999,51.404740000000004
430,Braintree,0.8363417999999999,0.6289546334774332,0.5509269,51.88009
431,Gillingham,0.8363417999999999,0.6158826466233248,0.551438,51.38632
432,Hastings,0.8363417999999999,0.5616221717336837,0.573453,50.85426
433,Maldon,0.8363417999999999,0.6425267465391328,0.6714479999999999,51.7318
434,Southend,0.8363417999999999,0.6529419986058362,0.7077123000000001,51.54593
435,Bury St Edmunds,0.8363417999999999,0.7394469965873816,0.7104931999999999,52.24292
436,Thetford,0.8363417999999999,0.7262473785154447,0.751657,52.412859999999995
437,Ashford,0.8363417999999999,0.5984629041907977,0.8750190000000001,51.14647
438,Faversham,0.8363417999999999,0.6133579996239151,0.889358,51.31599
439,Colchester,0.8363417999999999,0.6198241115548837,0.891874,51.89593
440,New Romney,0.8363417999999999,0.6191715954063163,0.939473,50.98512
441,Canterbury,0.8363417999999999,0.6280532921612272,1.0789089,51.280229999999996
442,Ipswich,0.8363417999999999,0.6584024112025298,1.14822,52.056740000000005
443,Clacton,0.8363417999999999,0.624718168359565,1.153035,51.78953
444,Folkestone,0.8363417999999999,0.610208690039479,1.169456,51.0814
445,Sheringham,0.8363417999999999,0.6268797286840084,1.2109589,52.944419999999994
446,Harwich,0.8363417999999999,0.647573440872022,1.260297,51.93473
447,Norwich,0.8363417999999999,0.6438799345527911,1.297355,52.63089
448,Cromer,0.8363417999999999,0.6044966050219852,1.301866,52.93145
449,Dover,0.8363417999999999,0.6258829424900667,1.3134027,51.12788
450,Felixstowe,0.8363417999999999,0.6311736340395799,1.3512549999999999,51.961729999999996
451,Margate,0.8363417999999999,0.6234033563667861,1.3868339,51.38965
452,Ramsgate,0.8363417999999999,0.6306585288044841,1.4198950000000001,51.33555
453,Great Yarmouth,0.8363417999999999,0.6483706717573904,1.728047,52.59823000000001
454,Lowestoft,0.8363417999999999,0.6573241688094312,1.7534490000000003,52.48114
455,Swaffham,0.8363417999999999,0.7332695713683193,0.687481,52.64747
456,Dereham,0.8363417999999999,0.6618831162963029,0.9378270000000001,52.681619999999995
457,Ely,0.8363417999999999,0.8442335881542383,0.262363,52.39954
458,March,0.8363417999999999,0.8377554682425431,0.088622,52.551719999999996
459,St Neots,0.8363417999999999,0.7914804243298527,-0.26510300000000003,52.23008
460,Banham,0.8363417999999999,0.6792858990034739,1.0402849,52.45125
461,Holt,0.8363417999999999,0.6159430579078063,1.086747,52.90936
462,Hunstanton,0.8363417999999999,0.6867386460518937,0.49103199999999997,52.93891
463,Horncastle,0.8363417999999999,0.6705948444168028,-0.11245,53.20731
464,Market Weighton,0.8363417999999999,0.5553216956605759,-0.6677465,53.86484
465,Hawes,0.8363417999999999,0.5701258027861239,-2.1968695,54.303830000000005
466,Reeth,0.8363417999999999,0.766524374158281,-1.9428115000000001,54.38946
467,Aysgarth,0.8363417999999999,0.5739104212065397,-1.9967433999999997,54.29159
468,Stanhope,0.8363417999999999,0.9842981415731027,-2.011302,54.74946
469,Keswick,0.8363417999999999,0.5374608765751656,-3.134706,54.60128
470,Oxenholme,0.8363417999999999,0.4822771488993324,-2.7243327999999996,54.30134
