,placename,outside,outside_of,longitude,latitude
0,Dingle,0.01,0.4093032331045027,-10.2640135,52.14094
1,Tralee,0.01,0.4093032331045027,-9.6999325,52.27131
2,Killarney,0.01,0.4146623684505714,-9.5044265,52.05994000000001
3,Bantry,0.01,0.3937784377029441,-9.4539805,51.68035
4,Mayo,0.01,0.44915045543296395,-9.4289369,54.01526
5,Ballycastle,0.01,0.4328500614192472,-9.3724643,54.27967
6,Abbeyfeale,0.01,0.4085758225717983,-9.2970823,52.38618
7,Ennistymon,0.01,0.3463764853494438,-9.2934951,52.94037
8,Galway,0.01,0.3928836512079916,-9.0567905,53.27067
9,Claremorris,0.01,0.3953886214558909,-9.0017356,53.72388
10,Clare,0.01,0.428234939221493,-8.9811351,52.90453
11,Adare,0.01,0.4319404270566762,-8.7925892,52.56363
12,Charleville,0.01,0.4050678113759445,-8.681017599999999,52.36206
13,Mallow,0.01,0.3932348707674827,-8.6539164,52.13898
14,Limerick,0.01,0.4544314370031121,-8.6267343,52.66384
15,Loughrea,0.01,0.4485524913097722,-8.5660931,53.19891
16,Sligo,0.01,0.3961805527224296,-8.476088800000001,54.27661
17,Cork,0.01,0.3849887700338686,-8.4756035,51.89851
18,Nenagh,0.01,0.4950372503862773,-8.19834,52.8635
19,Roscommon,0.01,0.4635824477777824,-8.1890955,53.62759000000001
20,Tipperary,0.01,0.4999208490267015,-8.161851400000002,52.47379
21,Donegal,0.01,0.517302707725523,-8.1096143,54.653830000000006
22,Leitrim,0.01,0.4506365920009869,-8.0020132,54.12469
23,Athlone,0.01,0.5273501247625221,-7.9406898,53.42393000000001
24,Longford,0.01,0.6503972383120795,-7.7932573,53.72763000000001
25,Offaly,0.01,0.5507550884511996,-7.7122229,53.23569000000001
26,Fermanagh,0.01,0.4730298759823686,-7.6318728,54.34383
27,Enniskillen,0.01,0.4730298759823686,-7.631533599999999,54.34382
28,Doon,0.01,0.28758500370682377,-7.60964,54.185930000000006
29,Westmeath,0.01,0.5632333713786186,-7.4653217,53.53453
30,Strabane,0.01,0.6066809316433996,-7.4633103,54.82739
31,Cavan,0.01,0.3218808782938607,-7.3633319,53.98972
32,Mullingar,0.01,0.5870969991961015,-7.3401868000000015,53.52582
33,Laois,0.01,0.5969696163370434,-7.3323006999999985,52.99429
34,Omagh,0.01,0.6062103892204993,-7.309959700000001,54.59771
35,Derry,0.01,0.5746994346762825,-7.308574799999999,54.99661
36,Kilkenny,0.01,0.5634762015044931,-7.2447879,52.65415
37,Tyrone,0.01,0.7086582461388661,-7.1312320000000025,54.49121
38,Waterford,0.01,0.6455035161255517,-7.110070200000001,52.25932
39,Monaghan,0.01,0.4129506792753579,-6.9683132,54.2492
40,Carlow,0.01,0.5586283727269684,-6.9341358999999985,52.83651
41,Kildare,0.01,0.4473984070539505,-6.8194708,53.21204
42,Dungannon,0.01,0.5935577113388674,-6.7669352,54.50827
43,Cookstown,0.01,0.5255640612685998,-6.7443895000000005,54.64182
44,Coleraine,0.01,0.5407825856553681,-6.6646103000000005,55.13258
45,Meath,0.01,0.5014863541961773,-6.656416900000001,53.60555
46,Armagh,0.01,0.5889852430153634,-6.652792,54.35028000000001
47,Magherafelt,0.01,0.6384120395702182,-6.607980499999999,54.75536999999999
48,Louth,0.01,0.4247547340322708,-6.4889423,53.925230000000006
49,Wexford,0.01,0.654265242807381,-6.4633381,52.33692
50,Craigavon,0.01,0.6155343101626207,-6.4175653,54.44293
51,Drogheda,0.01,0.6056650675370469,-6.3560985,53.71786
52,Rosslare,0.01,0.634132884122492,-6.3414908,52.25131
53,Newry,0.01,0.4034171334385828,-6.34023,54.1751
54,Ballymena,0.01,0.37912453722753264,-6.2802213,54.86529
55,Banbridge,0.01,0.8190871018635445,-6.2704803,54.34873
56,Dublin,0.01,0.501143503434799,-6.2603097000000005,53.34981
57,Antrim,0.01,0.4207429751822972,-6.2072498,54.719530000000006
58,Wicklow,0.01,0.4986031682658442,-6.044589,52.98082
59,Kilkeel,0.01,0.4991393112674961,-6.007004,54.06312
60,Belfast,0.01,0.4540860216100539,-5.93012,54.59728000000001
61,Down,0.01,0.386901445344394,-5.7156922,54.32875
62,Balivanich,0.33319687254921554,0.02862158982007133,-7.3743509,57.47227
63,Western Isles,0.1107350167039525,0.06831979354988613,-7.0194034,57.75989000000001
64,Dunvegan,0.2758000496266037,0.03886472874840844,-6.5813982000000015,57.4366
65,Stornoway,0.01,0.1644725595397433,-6.3848692000000025,58.20943000000001
66,Scilly Isles,0.01,0.6006418989410063,-6.327496599999999,49.92773
67,Portree,0.1917320093048084,0.05386606932609868,-6.1960231,57.41246999999999
68,Islay,0.9745466118694586,0.01,-6.177067,55.73625
69,Mull,0.7812294527454342,0.01,-6.0008870000000005,56.4392
70,Broadford,0.16392616836338594,0.05882822668428767,-5.9096592,57.24139
71,Kyle of Lochalsh,0.08170378233692673,0.07350075448452971,-5.7143293,57.28261
72,Campbeltown,0.9217639246852206,0.01,-5.6053739999999985,55.42412
73,Penzance,0.01,0.5977321218295738,-5.537592,50.1188
74,Oban,0.7282349691666583,0.01,-5.471047,56.41516
75,Lochgilphead,0.8972938769579418,0.01,-5.4323449,56.03829
76,Helston,0.01,0.6453770392895627,-5.274996,50.10159
77,Redruth,0.01,0.6141940876391057,-5.226666000000002,50.23302
78,Ullapool,0.01,0.2523210481510436,-5.161313,57.89542
79,Ballachulish,0.4654410284738268,0.01,-5.1337199999999985,56.67393000000001
80,Fort William,0.6630168079596638,0.01,-5.1052179,56.81981999999999
81,Achnasheen,0.01,0.17990286851100076,-5.078765799999998,57.57859000000001
82,Newquay,0.01,0.6039236826265961,-5.0737190000000005,50.4155
83,Falmouth,0.01,0.6448095807852967,-5.0662699999999985,50.15257
84,Rothesay,1.0,0.01,-5.055793,55.83596
85,Truro,0.01,0.6153921755753247,-5.0510410000000014,50.2632
86,Milford Haven,0.01,0.3939976462212428,-5.0426971,51.71431
87,Stranraer,0.6300143911948467,0.01,-5.0240550000000015,54.90337
88,Fishguard,0.01,0.3478684260838996,-4.975989,51.99393
89,Inchnadamph,0.01,0.24822789599039616,-4.974295,58.15221
90,Haverfordwest,0.01,0.3999076374559673,-4.971319,51.80048
91,Dunoon,0.9410903456877568,0.01,-4.926214,55.95097
92,Pembroke,0.01,0.40887372478847656,-4.9086370000000015,51.67404000000001
93,Girvan,0.6757472841034036,0.01,-4.8542179,55.24016
94,Wadebridge,0.01,0.6097155658234441,-4.836456,50.51665
95,Invergarry,0.17675497854745756,0.05653909043931915,-4.800261,57.07095
96,St Austell,0.01,0.6383353705810594,-4.7834252,50.34038
97,Greenock,0.9841833478214084,0.01,-4.7719830000000005,55.956480000000006
98,Helensburgh,0.8760234676197297,0.01,-4.734014,56.00232
99,Bodmin,0.01,0.616328806060839,-4.7188629,50.4715
100,Tenby,0.01,0.3831088950127189,-4.703579,51.67274000000001
101,Camelford,0.01,0.5951975908270518,-4.682364,50.62206
102,Irvine,0.9645392322270414,0.01,-4.6696364,55.61156999999999
103,Cardigan,0.01,0.3586941413453509,-4.660864,52.0837
104,Holyhead,0.01,0.30241505388443923,-4.633038,53.30944
105,Ayr,0.9721865949016326,0.01,-4.629179,55.45856
106,Dumbarton,0.8201697327145427,0.01,-4.564554,55.94529
107,Bude,0.01,0.5615336954781149,-4.543678,50.82664000000001
108,Isle of Man,0.01,0.3306628520678973,-4.5126331,54.27697
109,Kilmarnock,0.9954766341450072,0.01,-4.498792,55.61472
110,Newton Stewart,0.4500782257121221,0.01,-4.483164,54.9603
111,Liskeard,0.01,0.6387438219211898,-4.4647190000000005,50.45552
112,Altnaharra,0.01,0.2794702391113281,-4.442655,58.28023
113,Pwllheli,0.01,0.3876681352359807,-4.417633900000001,52.88882
114,Lairg,0.01,0.2604942593527111,-4.402414,58.02206
115,Launceston,0.01,0.6297192879825086,-4.360451599999998,50.63683
116,Carmarthen,0.01,0.3254188551861813,-4.312131,51.85762
117,Llangefni,0.01,0.3176137361208444,-4.311401999999998,53.25578
118,Caernarfon,0.01,0.32670414059950703,-4.273911,53.13955
119,Cumnock,0.9145855397414108,0.01,-4.265828900000002,55.45355
120,Aberaeron,0.01,0.3624532164845762,-4.2581619,52.24279
121,Alness,0.01,0.26523248387108633,-4.256825,57.69595
122,Glasgow,0.8373554973007521,0.01,-4.251806,55.86424
123,Dalwhinnie,0.01,0.12559166343203368,-4.242783,56.9366
124,Inverness,0.01,0.2594053707337972,-4.224721,57.47776999999999
125,Saltash,0.01,0.6553811275492377,-4.21643,50.40921
126,Bideford,0.01,0.5610454705946872,-4.206666,51.01668
127,Invergordon,0.01,0.26829492405776256,-4.172882,57.68811
128,Llanelli,0.01,0.3508470433088373,-4.160248,51.68089000000001
129,Plymouth,0.01,0.6286113670969201,-4.1426565,50.37546
130,Tavistock,0.01,0.6516790142294225,-4.141654,50.55112
131,Porthmadog,0.01,0.3491578958962813,-4.133384,52.92784
132,Bangor,0.01,0.3244963976652123,-4.129263,53.22739
133,Tywyn,0.01,0.3384803893497882,-4.087249,52.58701
134,Aberystwyth,0.01,0.33849442733371865,-4.08292,52.4153
135,Lampeter,0.01,0.31850258346874905,-4.078509,52.1129
136,Barnstaple,0.01,0.4946595746263019,-4.058338,51.07816
137,Tain,0.01,0.2819969412381967,-4.05523,57.8115
138,Okehampton,0.01,0.6056503546500429,-4.004263,50.73831
139,Llandeilo,0.01,0.3317648338064387,-3.99143,51.88469
140,Motherwell,0.6604525587542367,0.01,-3.9810968,55.78321
141,Golspie,0.01,0.269167708712516,-3.976086,57.97341
142,Airdrie,0.7026983753096812,0.01,-3.962566,55.86626999999999
143,Swansea,0.01,0.4798173761933619,-3.943646,51.62144
144,Stirling,0.6888710964084563,0.01,-3.9369029,56.11652
145,Tregaron,0.01,0.3538486072382765,-3.934385,52.22
146,Castle Douglas,0.01,0.12095831885129288,-3.931414,54.94042
147,Dolgellau,0.01,0.32927322663939634,-3.8844,52.74215
148,Aberfeldy,0.01,0.08985311603491222,-3.866969,56.62175
149,Machynlleth,0.01,0.3223279340898001,-3.853485,52.59027
150,Brora,0.01,0.2612533903298738,-3.852548000000001,58.01216
151,Llandudno,0.01,0.302571091475051,-3.827609,53.32406
152,Aviemore,0.01,0.2367572433518319,-3.823812,57.19449
153,Dalbeattie,0.01,0.13210083361548255,-3.822527,54.93422
154,Falkirk,0.5874054951058908,0.01,-3.7839131,56.00188000000001
155,Kingsbridge,0.01,0.6370800508642009,-3.777493,50.28395
156,Pitlochry,0.01,0.10151517118514372,-3.729711,56.70436
157,Colwyn Bay,0.01,0.3038427438462903,-3.72764,53.29318000000001
158,Totnes,0.01,0.6512758271332659,-3.685797,50.43374
159,Grantown-on-Spey,0.01,0.22984178151808785,-3.609628,57.33041
160,Dumfries,0.01,0.11121069375957808,-3.60512,55.07086
161,Whitehaven,0.01,0.46700825577927396,-3.589233,54.5497
162,Dartmouth,0.01,0.6513800321678266,-3.578807,50.35252
163,Bridgend,0.01,0.4481987071186017,-3.576945,51.50429000000001
164,Paignton,0.01,0.6745466200909163,-3.564235,50.43508
165,Workington,0.01,0.4218257896735487,-3.542752,54.64357
166,Llanidloes,0.01,0.36287827044031695,-3.540195,52.44779000000001
167,Exeter,0.01,0.6494091802123586,-3.533899,50.71841
168,Torquay,0.01,0.6666892635276843,-3.525315,50.46192
169,Thurso,0.01,0.2558038179719453,-3.5220800000000003,58.59356999999999
170,Livingston,0.01,0.12849293676473905,-3.518068,55.90071
171,Rhyl,0.01,0.2791026868974565,-3.4916339999999995,53.31914
172,Tiverton,0.01,0.5917505908690497,-3.491207,50.90205
173,Minehead,0.01,0.6015669210936552,-3.481152,51.20428
174,Dunfermline,0.01,0.1504789842315225,-3.452151,56.07174000000001
175,Perth,0.01,0.15727755285292236,-3.4308381000000003,56.39499
176,Prestatyn,0.01,0.2796527329024242,-3.407613,53.33651
177,Builth Wells,0.01,0.35773753372885864,-3.404592,52.15002
178,Braemar,0.01,0.2322557748316685,-3.3979439,57.00646999999999
179,Brecon,0.01,0.3894710713067421,-3.391463,51.94895
180,Merthyr Tydfil,0.01,0.4813634441543186,-3.381646,51.74873
181,Llandrindod Wells,0.01,0.3735398492742737,-3.377742,52.2417
182,Corwen,0.01,0.3485380649135056,-3.369242,52.98005
183,Cockermouth,0.01,0.4316051352097217,-3.367985,54.66326
184,Lockerbie,0.01,0.2628838211750281,-3.349008,55.12224000000001
185,Blairgowrie,0.01,0.18508801384470075,-3.3378318,56.58941
186,Elgin,0.01,0.2198756228111481,-3.318485,57.64945
187,Newtown,0.01,0.3796187012580078,-3.313106,52.51211
188,Ruthin,0.01,0.33828183286554103,-3.3103108,53.11487
189,Sidmouth,0.01,0.6634254322638516,-3.23756,50.67865
190,Barrow-in-Furness,0.01,0.3922410085013289,-3.218894,54.10896999999999
191,Peebles,0.01,0.1330606807667278,-3.193642,55.65306999999999
192,Edinburgh,0.01,0.1288224244452607,-3.188267,55.95325
193,Cardiff,0.01,0.4710964136571769,-3.17909,51.48158
194,Llangollen,0.01,0.3670367532184869,-3.17166,52.96921
195,Kirkcaldy,0.01,0.139073527229866,-3.158137,56.11682
196,Welshpool,0.01,0.4450806549186625,-3.146407,52.66035
197,Mold,0.01,0.3315742411784595,-3.141903,53.1672
198,Taunton,0.01,0.6277566698445385,-3.106849,51.01534
199,Wick,0.01,0.2520440679296464,-3.093716,58.43894
200,John o' Groats,0.01,0.2537673654377254,-3.0688997,58.63734
201,Dalkeith,0.01,0.1305850013122221,-3.066606,55.89312
202,Oswestry,0.01,0.4670394363012732,-3.056412,52.85715
203,Blackpool,0.01,0.3754918039436813,-3.0356748,53.81751
204,Birkenhead,0.01,0.3766228065143865,-3.023009,53.38999
205,Cupar,0.01,0.14672355356889447,-3.010137,56.32023
206,Southport,0.01,0.3723289381796565,-3.010113,53.64571
207,Bridgwater,0.01,0.5910682638616606,-3.003632,51.12789
208,Langholm,0.01,0.7544419159025362,-2.998913,55.15306
209,Newport,0.01,0.5649346670464991,-2.997664,51.58415
210,Axminster,0.01,0.6205878493969725,-2.994937,50.78273
211,Wrexham,0.01,0.35978289498365,-2.992494,53.04304000000001
212,Liverpool,0.01,0.3791462691065019,-2.9915726,53.40837
213,Weston-super-Mare,0.01,0.5576362652088059,-2.977255,51.34741
214,Dundee,0.01,0.17921001301566367,-2.970721,56.46202
215,Kirkwall,0.01,0.2496076678340229,-2.9622491,58.98467
216,Ambleside,0.01,0.4954787719770131,-2.961333,54.42874000000001
217,Orkney Islands,0.01,0.2496076678340229,-2.9605206,58.98094
218,Lyme Regis,0.01,0.6329553132397095,-2.936639,50.72516
219,Carlisle,0.01,0.8278526080025858,-2.932931,54.89247
220,Chester,0.01,0.35271126057867963,-2.893075,53.19339
221,Forfar,0.01,0.20254316701731265,-2.889062,56.64356
222,Morecambe,0.01,0.4266362288207968,-2.864968,54.07417
223,Selkirk,0.01,0.2162198078421804,-2.838524,55.55066
224,Galashiels,0.01,0.1556984146413601,-2.814449,55.62373
225,Lancaster,0.01,0.4186842508466489,-2.8007399,54.04657
226,St Andrews,0.01,0.15992911204840324,-2.7967214,56.33978000000001
227,Hawick,0.01,0.3103600128666222,-2.780914,55.42706
228,Bridport,0.01,0.5990238863124059,-2.758301,50.73358
229,Shrewsbury,0.01,0.5512591060665489,-2.7553268,52.7073
230,Penrith,0.01,0.8214635705662339,-2.752708,54.6641
231,Kendal,0.01,0.4730247467190094,-2.74629,54.32801
232,Street,0.01,0.5386359889395397,-2.742919,51.12468
233,Glastonbury,0.01,0.52496987660262,-2.718454,51.14743
234,Hereford,0.01,0.4373808207328038,-2.715974,52.0564
235,Ludlow,0.01,0.5653410936774089,-2.7139129,52.36775
236,Preston,0.01,0.5377471415916352,-2.70309,53.7632
237,Whitchurch,0.01,0.5068790997153105,-2.682045,52.96872
238,Wells,0.01,0.5367567888214638,-2.6445979,51.20935
239,Yeovil,0.01,0.5601417753791639,-2.633308,50.94206
240,Wigan,0.01,0.4965595617590443,-2.6325074,53.54506
241,Warrington,0.01,0.5027812232331479,-2.5969501,53.39004
242,Arbroath,0.01,0.2046823397993316,-2.591543,56.55911
243,Bristol,0.01,0.5133772014883525,-2.58791,51.45451
244,Guernsey,0.01,0.6705740056192103,-2.585278,49.46569
245,Ross-on-Wye,0.01,0.4210006531757899,-2.582446,51.91445
246,Jedburgh,0.01,0.4939159664198317,-2.5549369,55.47772
247,Sedbergh,0.01,0.5773476193563956,-2.5281740000000004,54.32363
248,Nantwich,0.01,0.5403987007871159,-2.524102,53.06718000000001
249,Banff,0.01,0.2315278243765053,-2.524038,57.66651
250,Dunbar,0.01,0.13698078777930944,-2.516737,56.00209
251,Cinderford,0.01,0.5434743690740342,-2.5009579,51.8253
252,Banchory,0.01,0.20321375071122166,-2.4909599,57.05386
253,Blackburn,0.01,0.5334463892455542,-2.487529,53.74858
254,Market Drayton,0.01,0.5742558883763259,-2.483485,52.90355
255,Telford,0.01,0.6614985839887809,-2.4672611,52.67759
256,Montrose,0.01,0.21779395177099808,-2.4661150000000003,56.70692
257,Turriff,0.01,0.21883289756246715,-2.4623,57.53893000000001
258,Weymouth,0.01,0.5895227358231624,-2.457621,50.61443
259,Crewe,0.01,0.5607830682796796,-2.4438209,53.1004
260,Fortuneswell,0.01,0.5801148569386879,-2.442219,50.55919
261,Dorchester,0.01,0.4796895495512257,-2.4411810000000003,50.71116
262,Alston,0.01,0.8736532853237101,-2.438685,54.81217
263,Kelso,0.01,0.2913226169283092,-2.432207,55.60003
264,Wincanton,0.01,0.5584307611070239,-2.416007,51.05569000000001
265,Clitheroe,0.01,0.5089125826760068,-2.3930830000000003,53.8711
266,Sark,0.01,0.6436364642628002,-2.3666256000000003,49.43007
267,Bath,0.01,0.575730146650254,-2.3590167,51.38106
268,Kidderminster,0.01,0.66882519677495,-2.2496839,52.3886
269,Manchester,0.01,0.5315625997865783,-2.2426305,53.48076
270,Burnley,0.01,0.5066204768575148,-2.2405035,53.78929
271,Gloucester,0.01,0.4902934916626987,-2.238156,51.86424
272,Newcastle-under-Lyme,0.01,0.6604896038937792,-2.2273002,53.01321
273,Worcester,0.01,0.6296144080448745,-2.221575,52.19364
274,Trowbridge,0.01,0.5700052138383048,-2.208853,51.31966
275,Shaftesbury,0.01,0.5229012986820977,-2.198083,51.0046
276,Alderney,0.01,0.6084880521132168,-2.1973557,49.715
277,Stoke-on-Trent,0.01,0.629590921417914,-2.179404,53.00267
278,Colne,0.01,0.5014769055531474,-2.176991,53.85564
279,Blandford Forum,0.01,0.5580817012373687,-2.165353,50.85691
280,Rochdale,0.01,0.5308312748160469,-2.1561,53.60971
281,Jersey,0.01,0.6307116654619006,-2.13125,49.21444
282,Wolverhampton,0.01,0.6847707267525783,-2.12882,52.58697
283,Stafford,0.01,0.6899925868134807,-2.12066,52.80669
284,Macclesfield,0.01,0.5450694349981331,-2.119287,53.25866
285,Hexham,0.01,0.973997874303572,-2.1121439,54.97266
286,Aberdeen,0.01,0.17561561422639174,-2.094278,57.14972
287,Dudley,0.01,0.6622925399645405,-2.081112,52.51225
288,Cheltenham,0.01,0.5420473540152566,-2.0782533,51.89939
289,Bromsgrove,0.01,0.6647842821121973,-2.061906,52.33559
290,Skipton,0.01,0.4976773362295071,-2.0162787,53.96285
291,Fraserburgh,0.01,0.2158087918703701,-2.007631,57.69335
292,Berwick,0.01,0.4943175337486118,-2.005395,55.77024
293,Poole,0.01,0.5651170258569803,-1.987248,50.71505
294,Walsall,0.01,0.6761755661493085,-1.982919,52.58621
295,Cirencester,0.01,0.4933746941548205,-1.968243,51.71849
296,Evesham,0.01,0.6204341064768111,-1.94677,52.09215
297,Buxton,0.01,0.526267850193729,-1.91483,53.25908
298,Keighley,0.01,0.4690306703295634,-1.912358,53.8678
299,Birmingham,0.01,0.6756417178181068,-1.890401,52.48624
300,Bournemouth,0.01,0.588036869216369,-1.880769,50.71916
301,Halifax,0.01,0.423907730674928,-1.85754,53.72702
302,Salisbury,0.01,0.6570187123669721,-1.794472,51.06878
303,Ringwood,0.01,0.6176166561058444,-1.788817,50.84495
304,Huddersfield,0.01,0.4294357267700064,-1.7850351000000002,53.64579000000001
305,Peterhead,0.01,0.21817621687187366,-1.784066,57.50812
306,Swindon,0.01,0.6303111779780385,-1.7797176,51.55577
307,Bradford,0.01,0.4551109294175925,-1.759398,53.79598000000001
308,Ashbourne,0.01,0.6849613193805574,-1.732179,53.016630000000006
309,Marlborough,0.01,0.5846966389246073,-1.727062,51.42007
310,Stratford-upon-Avon,0.01,0.6573483350281085,-1.708298,52.19173
311,Alnwick,0.01,0.9696089796160818,-1.7062990000000002,55.41274
312,Otley,0.01,0.4946395974953239,-1.691786,53.90583
313,Bishop Auckland,0.01,0.9803577559271448,-1.6787880000000002,54.66382
314,Burton upon Trent,0.01,0.7285646472747204,-1.6371359,52.81403
315,Newcastle,0.01,0.9994954424621918,-1.61778,54.97825
316,Durham,0.01,0.9961539973448976,-1.584852,54.77525
317,Ashington,0.01,0.9871304082705192,-1.5659829,55.18298000000001
318,Darlington,0.01,0.9577486379428324,-1.559458,54.52361
319,Leeds,0.01,0.5177374802855229,-1.5490774,53.80076
320,Harrogate,0.01,0.4994720384827707,-1.5418120000000002,53.99211999999999
321,Leamington Spa,0.01,0.6360608122424806,-1.5200789,52.28519
322,Coventry,0.01,0.6364164861622569,-1.519693,52.40682
323,Blyth,0.01,0.9968858622378876,-1.510277,55.12696
324,Wakefield,0.01,0.5163944231690989,-1.505924,53.6833
325,Andover,0.01,0.763055433869407,-1.4919233,51.2112
326,Witney,0.01,0.5971750568326409,-1.4850544,51.78594
327,Barnsley,0.01,0.4859132357345503,-1.479726,53.55263000000001
328,Derby,0.01,0.7175067653559574,-1.4746186,52.92253
329,Sheffield,0.01,0.4778116992392972,-1.470085,53.38113000000001
330,Nuneaton,0.01,0.6458459619450861,-1.465382,52.52049
331,Northallerton,0.01,0.7298209118558822,-1.429959,54.33796
332,South Shields,0.01,1.0,-1.427406,54.99941999999999
333,Chesterfield,0.01,0.5877141305665828,-1.421629,53.23505
334,Southampton,0.01,0.6265473785172979,-1.4043508999999998,50.9097
335,Wetherby,0.01,0.518626597594657,-1.384816,53.92706
336,Sunderland,0.01,0.9969756243466736,-1.383801,54.90687
337,Rotherham,0.01,0.4989684258092656,-1.3635008999999998,53.4326
338,Castleford,0.01,0.5516207191333731,-1.345968,53.72346999999999
339,Thirsk,0.01,0.5519950203779806,-1.341377,54.23385
340,Banbury,0.01,0.5278066292014912,-1.339775,52.0629
341,Stockton,0.01,0.9620920441631632,-1.3289821000000002,54.57046
342,Newbury,0.01,0.760622273308537,-1.3231138999999998,51.40141
343,Isle of Wight,0.01,0.6300563345774547,-1.304734,50.69385
344,Abingdon,0.01,0.7146027924109577,-1.2879528999999998,51.67078
345,Shetland Islands,0.01,0.23874955722503985,-1.2659409,60.52965
346,Rugby,0.01,0.5117783561070417,-1.265032,52.37088
347,Oxford,0.01,0.7301416257964469,-1.2577263,51.75202
348,Middlesbrough,0.01,0.9627583084774016,-1.234956,54.57423000000001
349,Hartlepool,0.01,0.9807024964171296,-1.212926,54.69174
350,Loughborough,0.01,0.7287043522109512,-1.206166,52.7721
351,Mansfield,0.01,0.60417366672505,-1.198674,53.1472
352,Nottingham,0.01,0.7237088546409276,-1.1581086,52.95478000000001
353,Bicester,0.01,0.5438288281682785,-1.1535898999999998,51.8996
354,Leicester,0.01,0.7659611615623982,-1.1397592,52.63688000000001
355,Doncaster,0.01,0.5027465332151659,-1.128462,53.52282
356,Worksop,0.01,0.5701253465854021,-1.122745,53.3093
357,Basingstoke,0.01,0.7065433698674958,-1.0923964,51.26654
358,Portsmouth,0.01,0.6056704667616356,-1.0879769,50.81977
359,York,0.01,0.5153381998589462,-1.0872979,53.95997
360,Selby,0.01,0.5341979613082929,-1.067189,53.78352
361,Helmsley,0.01,0.5728033619813674,-1.0562636,54.24651
362,Towcester,0.01,0.6018205496687062,-0.989688,52.13511
363,Reading,0.01,0.7344103877368401,-0.9781303,51.45426
364,Retford,0.01,0.5760855506088011,-0.945503,53.32136
365,Petersfield,0.01,0.6033377317781141,-0.93899,51.00759
366,Northampton,0.01,0.5900957285326317,-0.902656,52.24048
367,Melton Mowbray,0.01,0.7599515546340133,-0.887126,52.7664
368,Aylesbury,0.01,0.610292607951355,-0.8084,51.81561
369,Newark-on-Trent,0.01,0.7035505796780133,-0.80657,53.07004000000001
370,Malton,0.01,0.5202645873542358,-0.7978970000000001,54.13684
371,Chichester,0.01,0.5583474780677443,-0.774936,50.83761
372,Gainsborough,0.01,0.5108552236829992,-0.774465,53.40057
373,Milton Keynes,0.01,0.6398950715841024,-0.7594171,52.04062
374,Aldershot,0.01,0.6405899517886605,-0.7557509,51.24837
375,High Wycombe,0.01,0.704794426042621,-0.748229,51.62861
376,Midhurst,0.01,0.5734703011986791,-0.737274,50.9869
377,Kettering,0.01,0.5847981443468738,-0.7302489999999999,52.39632
378,Wellingborough,0.01,0.6269824210385275,-0.693964,52.30242
379,Corby,0.01,0.6355393821278323,-0.6842333,52.4923
380,Bognor Regis,0.01,0.5547433606742127,-0.673061,50.783
381,Scunthorpe,0.01,0.5315144117071245,-0.654413,53.58865
382,Grantham,0.01,0.682653150868914,-0.643582,52.91252
383,Whitby,0.01,0.7554715480315896,-0.613347,54.48634000000001
384,Slough,0.01,0.6397143325409982,-0.5950406,51.51054
385,Guildford,0.01,0.6793750116599215,-0.570409,51.23622
386,Woking,0.01,0.6251295421403212,-0.5600349,51.31677
387,Lincoln,0.01,0.7544949632841194,-0.540579,53.23069
388,Bedford,0.01,0.7405518707258025,-0.4667782,52.13864
389,Heathrow,0.01,0.6539919070625811,-0.4542955,51.47002
390,Driffield,0.01,0.5459059098675278,-0.443377,54.006
391,Beverley,0.01,0.4986860463632796,-0.435093,53.84196
392,Luton,0.01,0.6827315746060639,-0.4200255,51.87867
393,Scarborough,0.01,0.6216443426683544,-0.399752,54.28311
394,Worthing,0.01,0.5121363246972687,-0.372882,50.81787
395,Dorking,0.01,0.637489986991093,-0.332378,51.2322
396,Hull,0.01,0.5085276179628367,-0.3274198,53.76762
397,Horsham,0.01,0.5095857310015954,-0.325858,51.06288
398,Biggleswade,0.01,0.7646347070615842,-0.26421999999999995,52.08694000000001
399,Peterborough,0.01,0.7770988170244579,-0.2405299,52.5695
400,Welwyn Garden City,0.01,0.6710723540487417,-0.208661,51.80317
401,Bridlington,0.01,0.5167994999938619,-0.198802,54.08535
402,Stevenage,0.01,0.7490509251313945,-0.196612,51.90376
403,Crawley,0.01,0.5785968649455918,-0.1872275,51.10914
404,Huntingdon,0.01,0.8410781436130724,-0.182552,52.33146
405,Hove,0.01,0.5127514313585292,-0.168749,50.82793
406,Spalding,0.01,0.654837830575006,-0.1537024,52.7901
407,Brighton,0.01,0.5085173594361185,-0.137163,50.82253
408,London,0.01,0.7952244189103645,-0.12775830000000002,51.50735
409,Grimsby,0.01,0.5124008867021119,-0.08078400000000001,53.56746999999999
410,Boston,0.01,0.6752506789772748,-0.026577,52.97894
411,Royston,0.01,0.8185425900637803,-0.024066,52.04814
412,Louth_Lincs,0.01,0.5692620105736785,-0.007711,53.36596
413,Lewes,0.01,0.49215649410700896,0.00878,50.87387
414,Chatteris,0.01,0.8740715902487146,0.054012,52.4561
415,Uckfield,0.01,0.5124975328222487,0.095913,50.96641
416,Cambridge,0.01,0.920336195942618,0.121817,52.20534
417,Bishop's Stortford,0.01,0.7374542005986855,0.1536502,51.87216
418,Wisbech,0.01,0.8061295027732689,0.158797,52.66631999999999
419,Sevenoaks,0.01,0.6045930514949724,0.190898,51.27241
420,Tunbridge Wells,0.01,0.601944326892401,0.263695,51.13238
421,Eastbourne,0.01,0.522835563122731,0.29047199999999995,50.76803
422,Brentwood,0.01,0.6792025064343146,0.30717490000000003,51.62047000000001
423,Skegness,0.01,0.5439113013238699,0.337881,53.1464
424,Downham Market,0.01,0.7482560242913321,0.385472,52.60661
425,King's Lynn,0.01,0.7346911474154492,0.4022963,52.75168000000001
426,Bexhill,0.01,0.4978787273066634,0.4662071,50.84991
427,Chelmsford,0.01,0.6596523191406958,0.4685497,51.73559
428,Mildenhall,0.01,0.7704693791132975,0.5156095,52.34757000000001
429,Medway,0.01,0.6009738162725928,0.5417860999999999,51.40474
430,Braintree,0.01,0.5954239533179305,0.5509269,51.88009
431,Gillingham,0.01,0.5811706753069962,0.551438,51.38632
432,Hastings,0.01,0.5220067821483747,0.573453,50.85426
433,Maldon,0.01,0.6102225530123173,0.6714479999999999,51.7318
434,Southend,0.01,0.6215790120508318,0.7077123000000001,51.54593
435,Bury St Edmunds,0.01,0.7159013059245257,0.7104931999999999,52.24292
436,Thetford,0.01,0.7015088628998192,0.751657,52.41286
437,Ashford,0.01,0.562176743126622,0.8750190000000001,51.14647
438,Faversham,0.01,0.5784178806504786,0.889358,51.31599
439,Colchester,0.01,0.5854683230989385,0.891874,51.89593
440,New Romney,0.01,0.5847568402787707,0.939473,50.98512
441,Canterbury,0.01,0.5944411594621833,1.0789089,51.28023
442,Ipswich,0.01,0.627532871985339,1.14822,52.05674000000001
443,Clacton,0.01,0.5908046467211201,1.153035,51.78953
444,Folkestone,0.01,0.5749839738121039,1.169456,51.0814
445,Sheringham,0.01,0.5931615432346761,1.2109589,52.94442
446,Harwich,0.01,0.6157253077324437,1.260297,51.93473
447,Norwich,0.01,0.6116980261117776,1.297355,52.63089
448,Cromer,0.01,0.5687556982878791,1.301866,52.93145
449,Dover,0.01,0.5920746793249829,1.3134027,51.12788
450,Felixstowe,0.01,0.5978434808367143,1.351255,51.96173
451,Margate,0.01,0.5893710176122217,1.3868339,51.38965
452,Ramsgate,0.01,0.5972818264988813,1.419895,51.33555
453,Great Yarmouth,0.01,0.6165945828912149,1.728047,52.59823000000001
454,Lowestoft,0.01,0.6263571908311633,1.7534490000000005,52.48114
455,Swaffham,0.01,0.7091656382695832,0.687481,52.64747
456,Dereham,0.01,0.6313281219293084,0.937827,52.68162
457,Ely,0.01,0.8301572670182459,0.262363,52.39954
458,March,0.01,0.8230937314501591,0.088622,52.55172
459,St Neots,0.01,0.7726368978244066,-0.26510300000000003,52.23008
460,Banham,0.01,0.6503035617654669,1.0402849,52.45125
461,Holt,0.01,0.5812365458469778,1.086747,52.90936
462,Hunstanton,0.01,0.6584297997132132,0.491032,52.93891
463,Horncastle,0.01,0.6408271127287165,-0.11245,53.20731
464,Market Weighton,0.01,0.515136943762405,-0.6677465,53.86484
465,Hawes,0.01,0.5312788705344452,-2.1968695,54.30383000000001
466,Reeth,0.01,0.7454256157813527,-1.9428115,54.38946
467,Aysgarth,0.01,0.5354054978875422,-1.9967434,54.29159
468,Stanhope,0.01,0.9828791938100401,-2.011302,54.74946
469,Keswick,0.01,0.4956620756517977,-3.134706,54.60128
470,Oxenholme,0.01,0.4354914970686242,-2.7243328,54.30134
