,placename,plural_control,plural_dem,longitude,latitude
0,Dingle,0.9178981236778648,0.0821019135976482,-10.264013499999999,52.14094
1,Tralee,0.9178254405989089,0.08217448258414049,-9.6999325,52.27131
2,Killarney,0.9194629227556356,0.08053716516288045,-9.5044265,52.059940000000005
3,Bantry,0.9223985585086104,0.07760161380106362,-9.4539805,51.68035
4,Mayo,0.9546428006987719,0.04535700260716751,-9.4289369,54.01526
5,Ballycastle,0.9498178274689637,0.050182212683459806,-9.3724643,54.279669999999996
6,Abbeyfeale,0.9168704187475016,0.08312971576393365,-9.2970823,52.386179999999996
7,Ennistymon,0.9268854709060618,0.07311473079433016,-9.2934951,52.940369999999994
8,Galway,0.9417402864558463,0.05825956810444931,-9.0567905,53.270669999999996
9,Claremorris,0.9432277541182149,0.0567724215370283,-9.0017356,53.72388
10,Clare,0.9222012154977229,0.0777985976306414,-8.9811351,52.90453
11,Adare,0.9170187429376974,0.08298131550377892,-8.7925892,52.56363
12,Charleville,0.91818716568953,0.08181290537985383,-8.681017599999999,52.36206
13,Mallow,0.9225278667769867,0.07747227594689893,-8.6539164,52.13898
14,Limerick,0.9180426446836977,0.08195715594311602,-8.6267343,52.66384
15,Loughrea,0.9253650423125389,0.07463496506711628,-8.5660931,53.19891
16,Sligo,0.9659822061680886,0.034017748786055194,-8.476088800000001,54.27661
17,Cork,0.9225278667769867,0.07747227594689893,-8.4756035,51.898509999999995
18,Nenagh,0.9127710085791395,0.08722900355847073,-8.19834,52.8635
19,Roscommon,0.9224632126427993,0.07753689205197398,-8.1890955,53.627590000000005
20,Tipperary,0.9228490245677257,0.07715081388782694,-8.161851400000002,52.47379
21,Donegal,0.9847171149212446,0.015283042077715204,-8.1096143,54.653830000000006
22,Leitrim,0.9860304812549489,0.01396945594896025,-8.0020132,54.12469
23,Athlone,0.9124363283551058,0.08756372605425225,-7.9406898,53.423930000000006
24,Longford,0.9124194253134875,0.08758053190409096,-7.7932573000000005,53.727630000000005
25,Offaly,0.8623483902810887,0.13765174653431642,-7.7122229,53.235690000000005
26,Fermanagh,0.9848988226186368,0.015100992086037837,-7.6318728,54.343830000000004
27,Enniskillen,0.9848988226186368,0.015100992086037837,-7.631533599999999,54.343819999999994
28,Doon,0.9854950774117046,0.014504897846674955,-7.60964,54.185930000000006
29,Westmeath,0.8227352670976383,0.17726465165217312,-7.4653217000000005,53.534530000000004
30,Strabane,0.9828222839558866,0.017177890026186617,-7.4633103,54.82739
31,Cavan,0.909962568214337,0.09003751165411947,-7.3633319,53.98972
32,Mullingar,0.822254375563611,0.1777456953339025,-7.340186800000001,53.525819999999996
33,Laois,0.8276502490240609,0.17234974980750603,-7.332300699999999,52.99429
34,Omagh,0.9831193549123196,0.01688053593124079,-7.309959700000001,54.59771
35,Derry,0.983514463510137,0.01648541041368548,-7.308574799999999,54.99661
36,Kilkenny,0.8650363964743637,0.13496371909865035,-7.2447879,52.65415
37,Tyrone,0.9806599623569263,0.01933986520415347,-7.131232000000001,54.491209999999995
38,Waterford,0.8756430550895478,0.12435674310321011,-7.110070200000001,52.25932
39,Monaghan,0.9634923881377834,0.03650765143678607,-6.9683132,54.2492
40,Carlow,0.8543076133834908,0.14569229558062777,-6.934135899999999,52.83651
41,Kildare,0.8501059398133397,0.14989396087680984,-6.8194707999999995,53.21204
42,Dungannon,1.0,0.01,-6.7669352,54.508269999999996
43,Cookstown,1.0,0.01,-6.7443895000000005,54.641819999999996
44,Coleraine,0.9631741883793279,0.03682580049956096,-6.6646103000000005,55.132580000000004
45,Meath,0.8470312765430573,0.15296870879223157,-6.656416900000001,53.60555
46,Armagh,0.9793867407470636,0.020613467186271824,-6.652792,54.350280000000005
47,Magherafelt,1.0,0.01,-6.607980499999999,54.75536999999999
48,Louth,0.9159889251271326,0.08401114603514422,-6.4889423,53.925230000000006
49,Wexford,0.8516208749183374,0.1483792792534298,-6.4633381,52.33692
50,Craigavon,0.9906196570541886,0.01,-6.4175653,54.442930000000004
51,Drogheda,0.8474914618511029,0.15250865446331807,-6.3560985,53.717859999999995
52,Rosslare,0.8516208749183374,0.1483792792534298,-6.3414908,52.25131
53,Newry,0.9271419745626124,0.0728579397752208,-6.34023,54.1751
54,Ballymena,0.9815469494658217,0.018453102023087108,-6.2802213,54.86529
55,Banbridge,0.9787114642344312,0.021288464827240977,-6.2704803,54.34873
56,Dublin,0.8505035838673994,0.1494962449680171,-6.2603097000000005,53.34981
57,Antrim,0.9792515164141208,0.020748416850490774,-6.2072498,54.719530000000006
58,Wicklow,0.8573941087829046,0.14260570708405237,-6.044589,52.980819999999994
59,Kilkeel,0.9509773761239465,0.04902274426892842,-6.007004,54.06312
60,Belfast,0.9586217766956077,0.041378318019669985,-5.93012,54.597280000000005
61,Down,0.9587730589180873,0.04122693437254365,-5.7156921999999994,54.32875
62,Balivanich,0.8804997215223891,0.11950036804261797,-7.3743509000000005,57.472269999999995
63,Western Isles,0.885625991469035,0.11437401336413688,-7.0194034,57.759890000000006
64,Dunvegan,0.8855959885701636,0.11440392752330412,-6.581398200000001,57.4366
65,Stornoway,0.8853889263103449,0.11461128559511323,-6.384869200000001,58.209430000000005
66,Scilly Isles,0.8364372952090865,0.16356253422073744,-6.327496599999999,49.92773
67,Portree,0.8817695625239282,0.11823026499026236,-6.1960231,57.41246999999999
68,Islay,0.8623378258800779,0.13766225600088638,-6.177067,55.73625
69,Mull,0.8703718415610298,0.12962813856218244,-6.0008870000000005,56.4392
70,Broadford,0.8791060657409998,0.12089373653118048,-5.9096592,57.24139
71,Kyle of Lochalsh,0.8793900368401795,0.1206101372869324,-5.7143293,57.28261
72,Campbeltown,0.8564834574157446,0.14351639652153983,-5.605373999999999,55.424119999999995
73,Penzance,0.8426664886212952,0.15733369550918705,-5.537592,50.1188
74,Oban,0.8678148339402929,0.13218526883802867,-5.471047,56.41516
75,Lochgilphead,0.8680379540896485,0.1319621402277237,-5.4323449,56.03829
76,Helston,0.841475669339319,0.1585243035534548,-5.274996,50.10159
77,Redruth,0.8444214469172658,0.15557839062668832,-5.226666000000001,50.23302
78,Ullapool,0.8850905876257907,0.11490921861925893,-5.161313,57.895419999999994
79,Ballachulish,0.8766631536511836,0.12333699946235649,-5.133719999999999,56.673930000000006
80,Fort William,0.8758395529483547,0.12416060865150952,-5.1052179,56.81981999999999
81,Achnasheen,0.8855672533994126,0.11443265001798696,-5.078765799999999,57.578590000000005
82,Newquay,0.8411785983828859,0.15882159426199183,-5.0737190000000005,50.4155
83,Falmouth,0.8440736668359787,0.15592631439853122,-5.066269999999999,50.152570000000004
84,Rothesay,0.8620204712737033,0.13797944159024836,-5.055793,55.83596
85,Truro,0.8409491395929242,0.15905076570993054,-5.051041000000001,50.2632
86,Milford Haven,0.8172958683050219,0.18270424083387105,-5.0426971,51.71431
87,Stranraer,0.8579485285479701,0.14205162535640592,-5.024055000000001,54.903369999999995
88,Fishguard,0.8161604064843445,0.1838397365086149,-4.975989,51.99393
89,Inchnadamph,0.8852173604379239,0.1147826824443608,-4.974295,58.15221
90,Haverfordwest,0.8165403023447051,0.1834596716017775,-4.971319,51.80048
91,Dunoon,0.867926394014971,0.13207361156614336,-4.926214,55.95097
92,Pembroke,0.8093805964914356,0.1906195298849803,-4.908637000000001,51.674040000000005
93,Girvan,0.8583542015467974,0.1416456058280676,-4.8542179,55.240159999999996
94,Wadebridge,0.8411785983828859,0.15882159426199183,-4.836456,50.51665
95,Invergarry,0.8804954957619849,0.11950433603180545,-4.800261,57.07095
96,St Austell,0.8409491395929242,0.15905076570993054,-4.7834252,50.340379999999996
97,Greenock,0.8654572822106479,0.13454265586263642,-4.7719830000000005,55.956480000000006
98,Helensburgh,0.8652967033152781,0.13470348408466581,-4.734014,56.00232
99,Bodmin,0.8122329847644433,0.1877671922005644,-4.7188629,50.4715
100,Tenby,0.809965019155372,0.19003505648722072,-4.703579,51.672740000000005
101,Camelford,0.8141426058912172,0.18585752450972834,-4.682364,50.62206
102,Irvine,0.8563575297556916,0.1436424551854921,-4.6696364,55.61156999999999
103,Cardigan,0.8195405922318693,0.1804595252636885,-4.660864,52.0837
104,Holyhead,0.831491887807751,0.16850814466756134,-4.633038,53.30944
105,Ayr,0.8538799664305593,0.14612021722606794,-4.629179,55.45856
106,Dumbarton,0.8620234293059862,0.13797650891240373,-4.564554,55.94529
107,Bude,0.8142305017076301,0.18576966672144662,-4.543678,50.826640000000005
108,Isle of Man,0.7830215708165604,0.2169785989313305,-4.5126330999999995,54.27697
109,Kilmarnock,0.8551481171279361,0.1448519861856506,-4.498792,55.61472
110,Newton Stewart,0.859105119170669,0.1408950938454797,-4.483164,54.9603
111,Liskeard,0.8181194690078508,0.18188069080536615,-4.4647190000000005,50.45552
112,Altnaharra,0.8804325319319585,0.11956731254177429,-4.442655,58.28023
113,Pwllheli,0.8301054158190496,0.16989475193919096,-4.417633900000001,52.888819999999996
114,Lairg,0.8810232932365015,0.11897671179116934,-4.402414,58.022059999999996
115,Launceston,0.8136938301362642,0.1863060763183348,-4.360451599999999,50.636829999999996
116,Carmarthen,0.818910953931605,0.181088986108615,-4.312131,51.857620000000004
117,Llangefni,0.827752512425848,0.1722476934636654,-4.311401999999999,53.25578
118,Caernarfon,0.8243976812407507,0.17560232195402212,-4.273911,53.13955
119,Cumnock,0.8542066177098235,0.14579346451474598,-4.265828900000001,55.45355
120,Aberaeron,0.8138700443451297,0.1861299973263613,-4.2581619,52.24279
121,Alness,0.8764822911058734,0.12351761269543562,-4.256825,57.69595
122,Glasgow,0.8594474057634299,0.14055247340316854,-4.251806,55.86424
123,Dalwhinnie,0.8741910838145767,0.12580882853507375,-4.242783,56.9366
124,Inverness,0.8762435356430216,0.12375625829860146,-4.224721,57.47776999999999
125,Saltash,0.8194353707977983,0.18056443822168333,-4.21643,50.409209999999995
126,Bideford,0.8089761912207291,0.191023609789211,-4.206666,51.01668
127,Invergordon,0.8729647681452044,0.12703517383659213,-4.1728819999999995,57.688109999999995
128,Llanelli,0.8038330182324662,0.19616683370393956,-4.160248,51.680890000000005
129,Plymouth,0.8184279495173756,0.18157199476901548,-4.1426565,50.37546
130,Tavistock,0.8168804760572639,0.18311940490811107,-4.141654,50.551120000000004
131,Porthmadog,0.8351032226493992,0.16489661106255946,-4.1333839999999995,52.92784
132,Bangor,0.8292822376922614,0.1707176342975237,-4.129263,53.22739
133,Tywyn,0.8596379875576705,0.1403618282144653,-4.087249,52.58701
134,Aberystwyth,0.848881737024169,0.15111807920250095,-4.08292,52.4153
135,Lampeter,0.8283136934075603,0.17168642794302783,-4.0785089999999995,52.1129
136,Barnstaple,0.8184685168172586,0.18153164720696877,-4.058338,51.07816
137,Tain,0.8778091798728728,0.12219066893747771,-4.05523,57.8115
138,Okehampton,0.8171230347044801,0.18287681244456067,-4.004263,50.73831
139,Llandeilo,0.8122693263039212,0.18773073233825405,-3.9914300000000003,51.88469
140,Motherwell,0.8567695413951263,0.14323055762418274,-3.9810968,55.78321
141,Golspie,0.8772348990339068,0.12276490331734462,-3.976086,57.97341
142,Airdrie,0.863185090841171,0.13681504171311656,-3.9625660000000003,55.86626999999999
143,Swansea,0.803387623085836,0.19661255847871603,-3.9436459999999998,51.62144
144,Stirling,0.8693766749857806,0.13062349111295082,-3.9369029,56.116519999999994
145,Tregaron,0.8113912132918758,0.18860879890404053,-3.934385,52.22
146,Castle Douglas,0.8524284177316285,0.1475715251179843,-3.9314139999999997,54.940419999999996
147,Dolgellau,0.8340176248014949,0.1659825258883827,-3.8844,52.74215
148,Aberfeldy,0.8693335722296549,0.13066641216319264,-3.866969,56.62175
149,Machynlleth,0.8486332623123864,0.15136679479313617,-3.853485,52.59027
150,Brora,0.8777052261669225,0.12229467335694717,-3.8525480000000005,58.012159999999994
151,Llandudno,0.8162601344298893,0.18373981839962927,-3.827609,53.324059999999996
152,Aviemore,0.8740013471724171,0.1259984510897159,-3.823812,57.19449
153,Dalbeattie,0.8543764932780828,0.14562357626202657,-3.8225269999999996,54.934219999999996
154,Falkirk,0.8694185100137839,0.13058144479514971,-3.7839131,56.00188000000001
155,Kingsbridge,0.809647664548997,0.19035255478286586,-3.777493,50.28395
156,Pitlochry,0.8694730223230017,0.13052715644893959,-3.729711,56.70436
157,Colwyn Bay,0.8166653848526773,0.183334669377971,-3.72764,53.29318000000001
158,Totnes,0.8092893200666991,0.1907104978330511,-3.685797,50.43374
159,Grantown-on-Spey,0.8752935847040992,0.12470625576103224,-3.609628,57.33041
160,Dumfries,0.8499047936180879,0.15009532259435163,-3.60512,55.070859999999996
161,Whitehaven,0.7273754900825632,0.27262447918029037,-3.589233,54.5497
162,Dartmouth,0.7920680786904196,0.20793177374314364,-3.578807,50.35252
163,Bridgend,0.7147168022149749,0.28528341690267894,-3.576945,51.504290000000005
164,Paignton,0.7932483335713846,0.20675151036078318,-3.564235,50.43508
165,Workington,0.7630459788086571,0.23695392556043834,-3.5427519999999997,54.64357
166,Llanidloes,0.8138231384046405,0.1861767680444942,-3.5401949999999998,52.447790000000005
167,Exeter,0.8144540444330254,0.18554606060019577,-3.533899,50.71841
168,Torquay,0.7970422212625049,0.20295790140954048,-3.525315,50.46192
169,Thurso,0.8739476800152806,0.12605251547061513,-3.5220800000000003,58.59356999999999
170,Livingston,0.8690250917201296,0.1309749307175988,-3.518068,55.90071
171,Rhyl,0.813130113698309,0.1868698561665193,-3.4916339999999995,53.319140000000004
172,Tiverton,0.8154407594874659,0.18455930747221386,-3.491207,50.90205
173,Minehead,0.7336879309747395,0.2663120337956048,-3.481152,51.20428
174,Dunfermline,0.8728075698581579,0.1271924228394077,-3.452151,56.071740000000005
175,Perth,0.8713708113206429,0.12862932511349653,-3.4308381000000003,56.39499
176,Prestatyn,0.8137377780444699,0.18626222560076477,-3.4076129999999996,53.33651
177,Builth Wells,0.814121899665235,0.18587793915910494,-3.4045919999999996,52.15002
178,Braemar,0.8770426269355039,0.12295751771047952,-3.3979439,57.00646999999999
179,Brecon,0.8256370967673775,0.1743630246963168,-3.391463,51.94895
180,Merthyr Tydfil,0.7104961127230034,0.2895038995107372,-3.381646,51.74873
181,Llandrindod Wells,0.8260955917712612,0.1739044789639314,-3.377742,52.2417
182,Corwen,0.8256531546569149,0.17434682735600204,-3.369242,52.98005
183,Cockermouth,0.7919729990813191,0.2080269674517975,-3.367985,54.66326
184,Lockerbie,0.8580529048299597,0.141947240618484,-3.349008,55.122240000000005
185,Blairgowrie,0.8701335086742182,0.12986669965013659,-3.3378318,56.58941
186,Elgin,0.8767611912925676,0.12323876320608286,-3.318485,57.64945
187,Newtown,0.7213140593584112,0.2786861256743733,-3.313106,52.51211
188,Ruthin,0.8291470133593186,0.17085285441041997,-3.3103108,53.114869999999996
189,Sidmouth,0.7249237038958977,0.2750764345009856,-3.2375599999999998,50.67865
190,Barrow-in-Furness,0.7381461082014401,0.2618537718653002,-3.2188939999999997,54.10896999999999
191,Peebles,0.8671116674089918,0.13288839736719904,-3.1936419999999996,55.65306999999999
192,Edinburgh,0.8714380009110739,0.12856208481109943,-3.1882669999999997,55.95325
193,Cardiff,0.7043319960210238,0.29566789815190164,-3.17909,51.48158
194,Llangollen,0.8370944009519793,0.16290577073668402,-3.1716599999999997,52.96921
195,Kirkcaldy,0.8703126809153676,0.12968744288620462,-3.158137,56.11682
196,Welshpool,0.7763254308796598,0.22367449828284103,-3.146407,52.66035
197,Mold,0.8321954769150937,0.16780445411223344,-3.1419029999999997,53.1672
198,Taunton,0.7067001121516815,0.29329970163172253,-3.106849,51.01534
199,Wick,0.8762304357857676,0.12376958634748032,-3.093716,58.43894
200,John o' Groats,0.8762304357857676,0.12376958634748032,-3.0688997000000002,58.63734
201,Dalkeith,0.8715187129347993,0.12848148687949937,-3.066606,55.893119999999996
202,Oswestry,0.808958865603071,0.19104099034248903,-3.056412,52.85715
203,Blackpool,0.7394476424060125,0.26055244889375717,-3.0356748,53.81751
204,Birkenhead,0.7878727437608766,0.212127294783438,-3.023009,53.389990000000004
205,Cupar,0.8716873207749365,0.12831256632595345,-3.010137,56.32023
206,Southport,0.7510866542880056,0.24891351680937834,-3.010113,53.64571
207,Bridgwater,0.7008356018623773,0.29916435161894595,-3.003632,51.12789
208,Langholm,0.8078952417092695,0.19210490585871703,-2.998913,55.153059999999996
209,Newport,0.712371505190501,0.28762853654431414,-2.997664,51.58415
210,Axminster,0.7036693967896053,0.29633048473403845,-2.9949369999999997,50.78273
211,Wrexham,0.8256987928692829,0.17430125252811407,-2.9924939999999998,53.043040000000005
212,Liverpool,0.7723346227536917,0.22766523896528196,-2.9915726,53.40837
213,Weston-super-Mare,0.6897666450589446,0.3102332032461109,-2.977255,51.347409999999996
214,Dundee,0.8762279003295249,0.12377227815697171,-2.9707209999999997,56.462019999999995
215,Kirkwall,0.8762304357857676,0.12376958634748032,-2.9622491,58.984669999999994
216,Ambleside,0.7528749960911711,0.24712522563976855,-2.961333,54.428740000000005
217,Orkney Islands,0.8762304357857676,0.12376958634748032,-2.9605206,58.980940000000004
218,Lyme Regis,0.7010097031910407,0.29899022492836175,-2.936639,50.725159999999995
219,Carlisle,0.8375228930569908,0.16247697858456375,-2.932931,54.892469999999996
220,Chester,0.8210944043325875,0.1789056074532951,-2.893075,53.19339
221,Forfar,0.8783040164162345,0.12169581969592357,-2.889062,56.64356
222,Morecambe,0.7165140181149903,0.2834861333145484,-2.864968,54.074169999999995
223,Selkirk,0.8690736879647811,0.13092634292241517,-2.838524,55.55066
224,Galashiels,0.8734993268363678,0.12650083908815016,-2.814449,55.62373
225,Lancaster,0.7201532429753074,0.27984686604284015,-2.8007399,54.046569999999996
226,St Andrews,0.8771546095862217,0.12284548434590235,-2.7967214,56.339780000000005
227,Hawick,0.8165449506811503,0.18345524723044707,-2.780914,55.42706
228,Bridport,0.7030672259319701,0.2969326218110351,-2.758301,50.733579999999996
229,Shrewsbury,0.473690838297897,0.5263090402668077,-2.7553267999999997,52.7073
230,Penrith,0.8360455672195928,0.16395453690122186,-2.752708,54.6641
231,Kendal,0.7299882777406377,0.27001180550734083,-2.74629,54.32801
232,Street,0.6864371684362744,0.31356273917012567,-2.7429189999999997,51.12468
233,Glastonbury,0.6863163116887068,0.313683760727463,-2.718454,51.14743
234,Hereford,0.6732954761544563,0.32670465174683017,-2.715974,52.0564
235,Ludlow,0.43715237838472865,0.5628475566588923,-2.7139129,52.36775
236,Preston,0.6892591312343697,0.3107407678012595,-2.70309,53.7632
237,Whitchurch,0.7993368091621248,0.2006632373492666,-2.682045,52.96872
238,Wells,0.6915304774517651,0.30846960319558775,-2.6445979,51.20935
239,Yeovil,0.6957135576761355,0.304286531245971,-2.633308,50.94206
240,Wigan,0.5842620850408923,0.41573775081949116,-2.6325074,53.54506
241,Warrington,0.6278909483366983,0.37210886032547064,-2.5969501,53.39004
242,Arbroath,0.882582598825746,0.11741730894353916,-2.591543,56.55911
243,Bristol,0.6719592907145674,0.32804052031113934,-2.58791,51.45451
244,Guernsey,0.7244068933984321,0.27559308021562706,-2.5852779999999997,49.46569
245,Ross-on-Wye,0.6790594133461348,0.3209407607949484,-2.582446,51.91445
246,Jedburgh,0.8141941601681512,0.18580605474582707,-2.5549369,55.47772
247,Sedbergh,0.7607171622497614,0.23928265347677202,-2.5281740000000004,54.32363
248,Nantwich,0.7451604478967968,0.25483960935547895,-2.524102,53.06718000000001
249,Banff,0.8752631592291877,0.12473667278570885,-2.524038,57.666509999999995
250,Dunbar,0.8784755822886551,0.12152428339657678,-2.516737,56.00209
251,Cinderford,0.6820706902103495,0.3179293063215392,-2.5009579,51.8253
252,Banchory,0.8804540833100206,0.11954573580823735,-2.4909599,57.05386
253,Blackburn,0.5084519433849521,0.4915479675169165,-2.487529,53.748580000000004
254,Market Drayton,0.7606770175259185,0.2393230094903399,-2.483485,52.90355
255,Telford,0.4449577804277992,0.5550423317679285,-2.4672611,52.67759
256,Montrose,0.8798362771388897,0.12016380822839257,-2.4661150000000003,56.70692
257,Turriff,0.8752631592291877,0.12473667278570885,-2.4623,57.53893000000001
258,Weymouth,0.6910939564019851,0.30890591297578524,-2.457621,50.61443
259,Crewe,0.5930829373091541,0.40691700382249624,-2.4438209,53.1004
260,Fortuneswell,0.7269398141848632,0.27306034948138713,-2.4422189999999997,50.55919
261,Dorchester,0.6771117603757212,0.32288805043225516,-2.4411810000000003,50.71116
262,Alston,0.8168039897939436,0.1831960433020448,-2.438685,54.812169999999995
263,Kelso,0.8192638049253776,0.18073624919546802,-2.432207,55.600030000000004
264,Wincanton,0.6916454181347663,0.30835457376675723,-2.416007,51.055690000000006
265,Clitheroe,0.547697425413216,0.4523025810227262,-2.3930830000000003,53.8711
266,Sark,0.7160724261527244,0.28392770839243237,-2.3666256000000003,49.43007
267,Bath,0.6688668792505866,0.33113297416340404,-2.3590167,51.38106
268,Kidderminster,0.37988698626374273,0.6201131075529175,-2.2496839,52.3886
269,Manchester,0.5497114228219795,0.45028855394853173,-2.2426305,53.48076
270,Burnley,0.5056481513565955,0.49435167937430347,-2.2405035,53.78929
271,Gloucester,0.6668364013762456,0.3331638070874372,-2.238156,51.86424
272,Newcastle-under-Lyme,0.6729599507783427,0.3270399616233327,-2.2273002,53.01321
273,Worcester,0.39356535011692667,0.6064345571882532,-2.221575,52.19364
274,Trowbridge,0.6662697269060079,0.33373046467857875,-2.208853,51.31966
275,Shaftesbury,0.6564549757906182,0.34354515282230735,-2.198083,51.0046
276,Alderney,0.7257705462809506,0.27422933853451215,-2.1973557,49.715
277,Stoke-on-Trent,0.6617595728263326,0.33824056401395536,-2.179404,53.002669999999995
278,Colne,0.5471113124451178,0.4528885080821264,-2.176991,53.85564
279,Blandford Forum,0.6371956501712699,0.36280419190378926,-2.165353,50.85691
280,Rochdale,0.524570683871709,0.4754293150899924,-2.1561,53.60971
281,Jersey,0.7369565566475856,0.26304344601647905,-2.13125,49.21444
282,Wolverhampton,0.4003231861557328,0.5996769363776672,-2.12882,52.586969999999994
283,Stafford,0.4184449370742017,0.5815550705978805,-2.12066,52.80669
284,Macclesfield,0.5876722736872888,0.4123276423184399,-2.119287,53.25866
285,Hexham,0.8145964525586562,0.18540374120952002,-2.1121439,54.97266
286,Aberdeen,0.8752813299989263,0.12471862878801933,-2.094278,57.149719999999995
287,Dudley,0.3894532626673508,0.6105468349708226,-2.081112,52.51225
288,Cheltenham,0.6785387996643054,0.3214613914018196,-2.0782533,51.899390000000004
289,Bromsgrove,0.3777284678491474,0.6222715753496004,-2.061906,52.33559
290,Skipton,0.7022157352104724,0.2977842646958959,-2.0162787,53.96285
291,Fraserburgh,0.8746102792466995,0.1253898401475061,-2.007631,57.69335
292,Berwick,0.8205873130840533,0.1794125677246802,-2.005395,55.77024
293,Poole,0.71325215365879,0.2867480401661924,-1.987248,50.71505
294,Walsall,0.3899590861877639,0.6100411508791336,-1.9829189999999999,52.586209999999994
295,Cirencester,0.6844675415117574,0.31553239998395904,-1.968243,51.71849
296,Evesham,0.3836200230050395,0.6163799312037727,-1.9467700000000001,52.09215
297,Buxton,0.5755827957461804,0.4244173362842101,-1.91483,53.259080000000004
298,Keighley,0.5919918459727236,0.40800798110949793,-1.9123580000000002,53.8678
299,Birmingham,0.3621472440858368,0.6378529730275195,-1.8904009999999998,52.48624
300,Bournemouth,0.7127070305666156,0.28729298579945833,-1.880769,50.719159999999995
301,Halifax,0.562211644674401,0.4377883188905992,-1.8575400000000002,53.727019999999996
302,Salisbury,0.7055088702936646,0.2944912435690791,-1.794472,51.06878
303,Ringwood,0.7064651598731936,0.293535017335549,-1.7888169999999999,50.84495
304,Huddersfield,0.5758261995454775,0.42417361554258404,-1.7850351000000002,53.645790000000005
305,Peterhead,0.8746647915559165,0.12533515035404058,-1.784066,57.50812
306,Swindon,0.655575172474411,0.34442483785439715,-1.7797176,51.55577
307,Bradford,0.7378659402866244,0.26213385950250373,-1.759398,53.79598000000001
308,Ashbourne,0.5976387296011979,0.4023613085304288,-1.7321790000000001,53.016630000000006
309,Marlborough,0.6404384987056497,0.3595613981672623,-1.7270619999999999,51.42007
310,Stratford-upon-Avon,0.35768272821852903,0.6423174172455572,-1.7082979999999999,52.19173
311,Alnwick,0.8294178846012453,0.17058201696313263,-1.7062990000000002,55.41274
312,Otley,0.7459658778298863,0.25403429348388984,-1.691786,53.90583
313,Bishop Auckland,0.8356496134696962,0.16435024979949822,-1.6787880000000002,54.663819999999994
314,Burton upon Trent,0.28350246235058824,0.7164977116027427,-1.6371358999999999,52.81403
315,Newcastle,0.829250121913188,0.17074969514306715,-1.61778,54.97825
316,Durham,0.8336698447202078,0.16633025527523881,-1.5848520000000001,54.77525
317,Ashington,0.8209012870821042,0.17909867400281243,-1.5659829,55.18298000000001
318,Darlington,0.8217177039922446,0.17828246834620087,-1.559458,54.52361
319,Leeds,0.7362964928724098,0.26370345911042076,-1.5490774,53.80076
320,Harrogate,0.738040464191329,0.2619595088466087,-1.5418120000000002,53.99211999999999
321,Leamington Spa,0.255182683848045,0.7448173814322362,-1.5200789,52.28519
322,Coventry,0.2401546121216779,0.7598453946330052,-1.519693,52.40682
323,Blyth,0.8230365638144751,0.1769632577301099,-1.510277,55.12696
324,Wakefield,0.7315023676935548,0.268497669007076,-1.505924,53.6833
325,Andover,0.6519566538400752,0.34804348764022075,-1.4919233,51.2112
326,Witney,0.63587763550112,0.36412229114484684,-1.4850543999999999,51.785940000000004
327,Barnsley,0.7116898900372626,0.2883100798884264,-1.479726,53.55263000000001
328,Derby,0.4275142640542451,0.5724857685891525,-1.4746186000000001,52.92253
329,Sheffield,0.7588954369393993,0.24110475073104604,-1.470085,53.381130000000006
330,Nuneaton,0.2435322624129598,0.7564676174261745,-1.465382,52.52049
331,Northallerton,0.7895051550051176,0.2104947059882704,-1.429959,54.337959999999995
332,South Shields,0.8271625962733863,0.17283752090008364,-1.427406,54.99941999999999
333,Chesterfield,0.5919335304791418,0.40806644028140354,-1.421629,53.23505
334,Southampton,0.6741245703458104,0.32587541384458046,-1.4043508999999998,50.9097
335,Wetherby,0.7646086650062244,0.23539142945606137,-1.384816,53.92706
336,Sunderland,0.8284391984915719,0.17156094820827542,-1.383801,54.90687
337,Rotherham,0.7213389913447971,0.2786611429778064,-1.3635008999999998,53.4326
338,Castleford,0.7352087821443031,0.26479123327090054,-1.345968,53.72346999999999
339,Thirsk,0.781239567654001,0.21876054300854464,-1.341377,54.23385
340,Banbury,0.5101371766342494,0.48986288632378655,-1.339775,52.0629
341,Stockton,0.8260047379225653,0.1739950834965921,-1.3289821000000002,54.57046
342,Newbury,0.729656555548888,0.27034346432669965,-1.3231138999999998,51.40141
343,Isle of Wight,0.7306952474563035,0.269304962534618,-1.304734,50.69385
344,Abingdon,0.6833544762212236,0.3166456935125997,-1.2879528999999998,51.67078
345,Shetland Islands,0.8751004674536165,0.12489932653631013,-1.2659409,60.52965
346,Rugby,0.23251908564686663,0.7674808707213487,-1.265032,52.37088
347,Oxford,0.6272131363678238,0.37278678641852386,-1.2577263,51.75202
348,Middlesbrough,0.8261957422928476,0.1738042481486626,-1.234956,54.57423000000001
349,Hartlepool,0.8275200956036033,0.17248002578052016,-1.212926,54.69174
350,Loughborough,0.33722328664431495,0.6627766314932667,-1.206166,52.7721
351,Mansfield,0.6165130884477007,0.383486847468087,-1.198674,53.1472
352,Nottingham,0.46061041954194504,0.5393894173179022,-1.1581086,52.95478000000001
353,Bicester,0.5496053562358276,0.4503945444754751,-1.1535898999999998,51.8996
354,Leicester,0.2887162055376049,0.711283731552812,-1.1397591999999999,52.636880000000005
355,Doncaster,0.7360590051376792,0.263941208852343,-1.128462,53.522819999999996
356,Worksop,0.6255642446580051,0.3744357584874718,-1.122745,53.3093
357,Basingstoke,0.6907981531736727,0.3092019951167956,-1.0923964,51.26654
358,Portsmouth,0.7270581354761886,0.27294181689703334,-1.0879769,50.81977
359,York,0.7849937331973198,0.2150063730808233,-1.0872979,53.95997
360,Selby,0.7576919403762113,0.24230800647673875,-1.067189,53.783519999999996
361,Helmsley,0.7957812543578151,0.204218914850882,-1.0562636,54.24651
362,Towcester,0.4603420837562616,0.5396581376591373,-0.9896879999999999,52.13511
363,Reading,0.7130480494312549,0.28695198382345044,-0.9781303,51.45426
364,Retford,0.660468603022771,0.33953134793860423,-0.9455030000000001,53.32136
365,Petersfield,0.7059069369237642,0.29409305860086166,-0.93899,51.00759
366,Northampton,0.26020288720853807,0.7397972032141641,-0.9026559999999999,52.24048
367,Melton Mowbray,0.35881311912672137,0.641187072772964,-0.887126,52.7664
368,Aylesbury,0.5486177960293067,0.4513824047527299,-0.8084,51.81561
369,Newark-on-Trent,0.49825898671336427,0.5017410978754185,-0.80657,53.070040000000006
370,Malton,0.7946660761870797,0.20533383952310771,-0.7978970000000001,54.13684
371,Chichester,0.748411747951985,0.25158823309920786,-0.774936,50.83761
372,Gainsborough,0.6888044394148507,0.31119550612335956,-0.774465,53.400569999999995
373,Milton Keynes,0.514597466741153,0.48540251151319036,-0.7594171,52.040620000000004
374,Aldershot,0.7287568911587798,0.27124293436983915,-0.7557509,51.24837
375,High Wycombe,0.45634704986988855,0.5436528674595686,-0.748229,51.628609999999995
376,Midhurst,0.7474592615568209,0.25254084630743956,-0.737274,50.9869
377,Kettering,0.32827185837955575,0.6717283686168144,-0.7302489999999999,52.39632
378,Wellingborough,0.36522063962799806,0.6347793618416947,-0.693964,52.30242
379,Corby,0.30703656719508376,0.6929634916682158,-0.6842333,52.4923
380,Bognor Regis,0.7592280042832309,0.24077193827904805,-0.673061,50.783
381,Scunthorpe,0.7772753818185811,0.22272445433704388,-0.654413,53.58865
382,Grantham,0.3902865826191091,0.6097136459824278,-0.643582,52.912519999999994
383,Whitby,0.8238597419412633,0.17614007534277573,-0.613347,54.486340000000006
384,Slough,0.4761341729637538,0.523865916785731,-0.5950406,51.51054
385,Guildford,0.5376316641298019,0.4623683934406223,-0.570409,51.23622
386,Woking,0.5797768629476037,0.4202230026826396,-0.5600349,51.31677
387,Lincoln,0.6773467126542081,0.32265312772416305,-0.540579,53.23069
388,Bedford,0.5230198298032737,0.47698012696635733,-0.46677820000000003,52.13864
389,Heathrow,0.45728643640779915,0.5427137259760758,-0.4542955,51.47002
390,Driffield,0.8085743214062656,0.1914256232965167,-0.443377,54.006
391,Beverley,0.8032325376789924,0.19676757627994382,-0.435093,53.84196
392,Luton,0.2803948381491506,0.7196053697415851,-0.4200255,51.87867
393,Scarborough,0.815542177737173,0.18445780470300957,-0.399752,54.28311
394,Worthing,0.6667755504264211,0.3332243030759438,-0.372882,50.81787
395,Dorking,0.26678619934264103,0.7332139457367548,-0.332378,51.2322
396,Hull,0.8078534066812645,0.1921467535657707,-0.3274198,53.767619999999994
397,Horsham,0.4967571514656206,0.5032429416381473,-0.325858,51.06288
398,Biggleswade,0.4840971958699112,0.515902618868638,-0.26421999999999995,52.086940000000006
399,Peterborough,0.4689508028522192,0.531049042106704,-0.2405299,52.5695
400,Welwyn Garden City,0.10674355296863924,0.8932564932297611,-0.208661,51.80317
401,Bridlington,0.7983813647346768,0.20161856772155315,-0.198802,54.08535
402,Stevenage,0.16207439197646398,0.8379255039821666,-0.19661199999999998,51.90376
403,Crawley,0.3955894893506616,0.6044103418052932,-0.18722750000000002,51.109140000000004
404,Huntingdon,0.5565896930323125,0.44341022006113073,-0.182552,52.33146
405,Hove,0.4714879493990548,0.5285121320952475,-0.168749,50.82793
406,Spalding,0.46232861372239603,0.5376713287088581,-0.1537024,52.7901
407,Brighton,0.4739841060699667,0.52601609364015,-0.137163,50.82253
408,London,0.22625819903162478,0.7737417280208367,-0.12775830000000002,51.50735
409,Grimsby,0.8398263550534606,0.16017353339379836,-0.08078400000000001,53.56746999999999
410,Boston,0.5966908915424791,0.4033092353701739,-0.026576999999999996,52.97894
411,Royston,0.4245908830064423,0.5754091370832085,-0.024066,52.048140000000004
412,Louth_Lincs,0.663443115771468,0.33655701677191696,-0.007711,53.36596
413,Lewes,0.45837541486402805,0.5416247939571962,0.00878,50.873870000000004
414,Chatteris,0.71776653349887,0.2822335756201335,0.054012,52.4561
415,Uckfield,0.41505122889338286,0.5849489690813352,0.095913,50.966409999999996
416,Cambridge,0.6263798164160651,0.37362012330853894,0.12181700000000001,52.20534
417,Bishop's Stortford,0.10700808556995782,0.8929918127156432,0.15365020000000001,51.87216
418,Wisbech,0.7470683787194093,0.2529318263538629,0.158797,52.66631999999999
419,Sevenoaks,0.01,1.0,0.190898,51.27241
420,Tunbridge Wells,0.222269926361899,0.7777299966333364,0.26369499999999996,51.13238
421,Eastbourne,0.463437875828566,0.5365623158756881,0.29047199999999995,50.768029999999996
422,Brentwood,0.03418513394392745,0.9658150251903928,0.30717490000000003,51.620470000000005
423,Skegness,0.8098517687765326,0.19014842096638157,0.337881,53.1464
424,Downham Market,0.7606440565947638,0.23935600845473276,0.385472,52.606609999999996
425,King's Lynn,0.7777004933152695,0.2222996132710687,0.4022963,52.75168000000001
426,Bexhill,0.5832576217927535,0.4167422267873584,0.4662071,50.849909999999994
427,Chelmsford,0.14057963910315796,0.8594202704410709,0.4685497,51.73559
428,Mildenhall,0.7626711538607817,0.23732871671806813,0.5156095,52.347570000000005
429,Medway,0.26192995548583986,0.7380701306381207,0.5417860999999999,51.404740000000004
430,Braintree,0.37854995567177335,0.6214501635559505,0.5509269,51.88009
431,Gillingham,0.2614913215558569,0.7385086589426243,0.551438,51.38632
432,Hastings,0.5991895836696333,0.40081056004047266,0.573453,50.85426
433,Maldon,0.39644013492007796,0.603560051163819,0.6714479999999999,51.7318
434,Southend,0.3702366172280871,0.6297633671265999,0.7077123000000001,51.54593
435,Bury St Edmunds,0.7642224305052568,0.23577754142629306,0.7104931999999999,52.24292
436,Thetford,0.7778420562888188,0.22215777139133888,0.751657,52.412859999999995
437,Ashford,0.4501339143472172,0.5498661342433706,0.8750190000000001,51.14647
438,Faversham,0.4228993111165385,0.5771007555279604,0.889358,51.31599
439,Colchester,0.5314612087872151,0.4685390011713386,0.891874,51.89593
440,New Romney,0.66661243607481,0.33338753998150555,0.939473,50.98512
441,Canterbury,0.47497715976501337,0.5250229046788002,1.0789089,51.280229999999996
442,Ipswich,0.6869134116338564,0.313086441017531,1.14822,52.056740000000005
443,Clacton,0.5261050574745668,0.4738948949389291,1.153035,51.78953
444,Folkestone,0.5686800161255022,0.4313198203933431,1.169456,51.0814
445,Sheringham,0.7932550947880319,0.20674471111200513,1.2109589,52.944419999999994
446,Harwich,0.6835991477486413,0.31640091633082784,1.260297,51.93473
447,Norwich,0.7941987070863465,0.20580111145109703,1.297355,52.63089
448,Cromer,0.7959536653823167,0.20404614040368438,1.301866,52.93145
449,Dover,0.5679286759255895,0.43207151981465475,1.3134027,51.12788
450,Felixstowe,0.6803981342422656,0.3196017947481318,1.3512549999999999,51.961729999999996
451,Margate,0.571799895032111,0.4282000131928246,1.3868339,51.38965
452,Ramsgate,0.5801850714026732,0.41981486182248856,1.4198950000000001,51.33555
453,Great Yarmouth,0.7820534491078996,0.21794663193992964,1.728047,52.59823000000001
454,Lowestoft,0.7204105917839388,0.2795893397413894,1.7534490000000003,52.48114
455,Swaffham,0.786085247109791,0.2139147492524524,0.687481,52.64747
456,Dereham,0.7874666481860076,0.2125332086677618,0.9378270000000001,52.681619999999995
457,Ely,0.741580383682142,0.2584195765289256,0.262363,52.39954
458,March,0.734755780628945,0.2652441756447528,0.088622,52.551719999999996
459,St Neots,0.5640384408972475,0.4359616620406562,-0.26510300000000003,52.23008
460,Banham,0.7899640725850412,0.210035826420799,1.0402849,52.45125
461,Holt,0.7933172134659775,0.2066827699133791,1.086747,52.90936
462,Hunstanton,0.7964818854328739,0.20351824571437097,0.49103199999999997,52.93891
463,Horncastle,0.6517533947646214,0.34824651853319283,-0.11245,53.20731
464,Market Weighton,0.8020032639773367,0.19799656690758716,-0.6677465,53.86484
465,Hawes,0.7314956064769075,0.2685044090952059,-2.1968695,54.303830000000005
466,Reeth,0.7421779062033315,0.2578222399159513,-1.9428115000000001,54.38946
467,Aysgarth,0.7484666828372426,0.25153337004955845,-1.9967433999999997,54.29159
468,Stanhope,0.8308825331574291,0.16911726692680168,-2.011302,54.74946
469,Keswick,0.7340302175675004,0.26596963309284394,-3.134706,54.60128
470,Oxenholme,0.7207664008099934,0.2792336870534401,-2.7243327999999996,54.30134
