index,placename,longitude,latitude,preposition_drop_determiner,preposition_drop_no_determiner,preposition_retained
0,Dingle,-10.264013499999999,52.14094,0.01,0.07412493361089609,0.09303109633773485
1,Tralee,-9.6999325,52.27131,0.01,0.1038411338786922,0.16011024677322103
2,Killarney,-9.5044265,52.059940000000005,0.01,0.1517370572142985,0.26743024304733287
3,Bantry,-9.4539805,51.68035,0.01,0.07758801372536601,0.10128509922785084
4,Mayo,-9.4289369,54.01526,0.01,0.01,0.1546474763583433
5,Ballycastle,-9.3724643,54.279669999999996,0.01,0.01,0.01
6,Abbeyfeale,-9.2970823,52.386179999999996,0.01,0.03534114360394854,0.01
7,Ennistymon,-9.2934951,52.940369999999994,0.01,0.03534114360394854,0.01
8,Galway,-9.0567905,53.270669999999996,0.01,0.19818764256590685,0.3715116825455244
9,Claremorris,-9.0017356,53.72388,0.01,0.01,0.24715578338257815
10,Clare,-8.9811351,52.90453,0.01,0.13773126524549886,0.2360475817010771
11,Adare,-8.7925892,52.56363,0.01,0.06977580404441393,0.08378034609932979
12,Charleville,-8.681017599999999,52.36206,0.01,0.03534114360394854,0.01
13,Mallow,-8.6539164,52.13898,0.01,0.0911300416995171,0.1316286084561069
14,Limerick,-8.6267343,52.66384,0.01,0.187092981414796,0.34665196776235435
15,Loughrea,-8.5660931,53.19891,0.01,0.034731812222002605,0.01
16,Sligo,-8.476088800000001,54.27661,0.01,0.01,0.2596237942770763
17,Cork,-8.4756035,51.898509999999995,0.01,0.2280974126969927,0.4476569991873227
18,Nenagh,-8.19834,52.8635,0.01,0.11257847658368512,0.17968793775905048
19,Roscommon,-8.1890955,53.627590000000005,0.01,0.01,0.19512038149178554
20,Tipperary,-8.161851400000002,52.47379,0.01,0.1403104115913408,0.24744082145478774
21,Donegal,-8.1096143,54.653830000000006,0.01,0.01,0.2854138944769496
22,Leitrim,-8.0020132,54.12469,0.01,0.01,0.16701239712648938
23,Athlone,-7.9406898,53.423930000000006,0.07548695300602196,0.13735678566626588,0.1498378025106659
24,Longford,-7.7932573000000005,53.727630000000005,0.07524505471692779,0.1540312069745569,0.16327752973285395
25,Offaly,-7.7122229,53.235690000000005,0.09568239191930987,0.17410460184508406,0.21212517478103898
26,Fermanagh,-7.6318728,54.343830000000004,0.01,0.01,0.13070254764775788
27,Enniskillen,-7.631533599999999,54.343819999999994,0.01,0.01,0.17654898935241775
28,Doon,-7.60964,54.185930000000006,0.01,0.01,0.08963483705705627
29,Westmeath,-7.4653217000000005,53.534530000000004,0.07497010511394522,0.13641632460162104,0.15231781485755388
30,Strabane,-7.4633103,54.82739,0.01,0.01,0.1860442913759217
31,Balivanich,-7.3743509000000005,57.472269999999995,0.01,0.01,0.020022462610311476
32,Cavan,-7.3633319,53.98972,0.0861310292594257,0.1567248543311873,0.1845424183673524
33,Mullingar,-7.340186800000001,53.525819999999996,0.07355968179267638,0.13384990475563743,0.1480870487838975
34,Laois,-7.332300699999999,52.9943,0.09330053530945918,0.16977055518754242,0.2045853907597674
35,Omagh,-7.309959700000001,54.59771,0.01,0.01,0.19997663454516296
36,Derry,-7.308574799999999,54.99661,0.01,0.01,0.3221424156373148
37,Derry,-7.308574799999999,54.99661,0.01,0.01,0.3221424156373148
38,Kilkenny,-7.2447879,52.65415,0.10364638974574127,0.18859597285753762,0.24085181378359655
39,Tyrone,-7.131232000000001,54.491209999999995,0.01,0.01,0.1370669392966825
40,Waterford,-7.110070200000001,52.25932,0.1056409581921592,0.19222530281224834,0.2761105011155279
41,Western Isles,-7.0194034,57.759890000000006,0.01,0.01,0.11806632026677462
42,Monaghan,-6.9683132,54.2492,0.01,0.01,0.20439402602371518
43,Carlow,-6.934135899999999,52.83651,0.09724032067123954,0.17693942712574665,0.21581661684750347
44,Kildare,-6.8194707999999995,53.21204,0.11606817912968956,0.21119878091717312,0.2784142080019219
45,Dungannon,-6.7669352,54.508269999999996,0.01,0.01,0.14242331228920924
46,Cookstown,-6.7443895000000005,54.641819999999996,0.01,0.01,0.18340486117718674
47,Coleraine,-6.6646103000000005,55.132580000000004,0.01,0.01,0.27533226324425614
48,Meath,-6.656416900000001,53.60555,0.10353581860208089,0.18839477653550699,0.24051745640890876
49,Armagh,-6.652792,54.350280000000005,0.01,0.01,0.20287410448824136
50,Armagh,-6.652792,54.350280000000005,0.01,0.01,0.20287410448824136
51,Magherafelt,-6.607980499999999,54.75536999999999,0.01,0.01,0.1989828346841427
52,Dunvegan,-6.581398200000001,57.4366,0.01,0.01,0.01
53,Louth,-6.4889423,53.925230000000006,0.10076498499044782,0.18335294103713248,0.24387692490591784
54,Wexford,-6.4633381,52.33692,0.10982343873701222,0.19983578530256157,0.25633230764282
55,Craigavon,-6.4175653,54.442930000000004,0.01,0.01,0.23687877366674698
56,Stornoway,-6.384869200000001,58.209430000000005,0.01,0.01,0.17914449464704732
57,Drogheda,-6.3560985,53.717859999999995,0.08199952432580758,0.1492071230561621,0.1730055553560601
58,Rosslare,-6.3414908,52.25131,0.023997300122423987,0.04366571931396018,0.01
59,Newry,-6.34023,54.1751,0.09298085301119857,0.16918885348340892,0.20544101787179847
60,Scilly Isles,-6.327496599999999,49.92773,0.01,0.01,0.12342402009140765
61,Ballymena,-6.2802213,54.86529,0.01,0.01,0.22766379197621683
62,Banbridge,-6.2704803,54.34873,0.0791929453550512,0.14410024424040993,0.16421606609149858
63,Dublin,-6.2603097000000005,53.34981,0.2141242224337452,0.3896225053407156,0.5749270243305951
64,Antrim,-6.2072498,54.719530000000006,0.01,0.01,0.25146591235344395
65,Antrim,-6.2072498,54.719530000000006,0.01,0.01,0.25146591235344395
66,Portree,-6.1960231,57.41246999999999,0.01,0.01,0.174024875309281
67,Islay,-6.177067,55.73625,0.01,0.01,0.12698171119166748
68,Wicklow,-6.044589,52.980819999999994,0.103673958944946,0.1886461380389557,0.2409351806075543
69,Kilkeel,-6.007004,54.06312,0.05770886148448699,0.10500759934575464,0.10026014593786411
70,Mull,-6.0008870000000005,56.4392,0.01,0.01,0.12866945627615203
71,Belfast,-5.93012,54.597280000000005,0.01,0.01,0.5177025909754367
72,Broadford,-5.9096592,57.24139,0.01,0.01,0.01
73,Down,-5.7156921999999994,54.32875,0.09943551263902212,0.18093381781769338,0.221844197814035
74,Kyle of Lochalsh,-5.7143293,57.28261,0.01,0.01,0.01
75,Campbeltown,-5.605373999999999,55.424119999999995,0.01,0.01,0.14014606162622908
76,Penzance,-5.537592,50.1188,0.01,0.01,0.2479978492426998
77,Oban,-5.471047,56.41516,0.01,0.01,0.19564836606530425
78,Lochgilphead,-5.4323449,56.03829,0.01,0.01,0.1000149122233764
79,Helston,-5.274996,50.10159,0.01,0.01,0.1696390920078395
80,Redruth,-5.226666000000001,50.23302,0.01,0.01,0.19810116492517135
81,Ullapool,-5.161313,57.895419999999994,0.01,0.06824481325437054,0.11584814644979008
82,Ballachulish,-5.133719999999999,56.673930000000006,0.01,0.01,0.01
83,Fort William,-5.1052179,56.81981999999999,0.01,0.01,0.18664994205834912
84,Achnasheen,-5.078765799999999,57.578590000000005,0.01,0.03597223502235223,0.01
85,Newquay,-5.0737190000000005,50.4155,0.01,0.01,0.23936165755322567
86,Falmouth,-5.066269999999999,50.152570000000004,0.01,0.01,0.2637126730570761
87,Rothesay,-5.055793,55.83596,0.01,0.01,0.18065184920100247
88,Truro,-5.051041000000001,50.2632,0.01,0.01,0.3923871476670674
89,Milford Haven,-5.0426971,51.71431,0.01,0.01,0.15763160408143054
90,Stranraer,-5.024055000000001,54.903369999999995,0.01,0.01,0.1653368612392705
91,Fishguard,-4.975989,51.99393,0.01,0.01,0.11202831463456893
92,Inchnadamph,-4.974295,58.15221,0.01,0.02778544937471306,0.01
93,Haverfordwest,-4.971319,51.800470000000004,0.01,0.01,0.1803199770696403
94,Dunoon,-4.926214,55.95097,0.01,0.01,0.15930333706083774
95,Pembroke,-4.908637000000001,51.674040000000005,0.01,0.01,0.24806225824243144
96,Girvan,-4.8542179,55.240159999999996,0.01,0.01,0.15256737152502498
97,Wadebridge,-4.836456,50.51665,0.01,0.01,0.18858016878989847
98,Invergarry,-4.800261,57.07095,0.01,0.034731812222002605,0.01
99,St Austell,-4.7834252,50.340379999999996,0.01,0.01,0.2097347963677005
100,Greenock,-4.7719830000000005,55.956480000000006,0.01,0.01,0.28365654640500965
101,Helensburgh,-4.734014,56.00232,0.01,0.01,0.17234596322014345
102,Bodmin,-4.7188629,50.4715,0.01,0.01,0.1706197103598699
103,Tenby,-4.703579,51.672740000000005,0.01,0.01,0.1803199770696403
104,Camelford,-4.682364,50.62206,0.01,0.01,0.11375379255677182
105,Irvine,-4.6696364,55.61156999999999,0.01,0.01,0.30901982808307016
106,Cardigan,-4.660864,52.0837,0.01,0.01,0.14430123099979683
107,Holyhead,-4.633038,53.30944,0.1194802801214337,0.1304444839741276,0.12507521878472844
108,Ayr,-4.629179,55.45856,0.01,0.01,0.3375683914704834
109,Dumbarton,-4.564554,55.94529,0.01,0.01,0.26461239203078135
110,Bude,-4.543678,50.826640000000005,0.01,0.01,0.18131042133867362
111,Isle of Man,-4.5126330999999995,54.27697,0.02669783990747072,0.01,0.3088051039945945
112,Kilmarnock,-4.498792,55.61472,0.01,0.01,0.29025321291278056
113,Newton Stewart,-4.483164,54.9603,0.01,0.01,0.1243377647855195
114,Liskeard,-4.4647190000000005,50.45552,0.01,0.01,0.18754793929733643
115,Altnaharra,-4.442655,58.28023,0.01,0.025992840972294727,0.01
116,Pwllheli,-4.417633900000001,52.888819999999996,0.23356657112922347,0.11999999276659452,0.07828085989369121
117,Lairg,-4.402414,58.022059999999996,0.01,0.02778544937471306,0.01
118,Launceston,-4.360451599999999,50.636829999999996,0.01,0.01,0.16864233056959702
119,Carmarthen,-4.312131,51.857620000000004,0.01,0.01,0.23892922422524937
120,Llangefni,-4.311401999999999,53.255790000000005,0.36700031962884333,0.1629878224192324,0.12090622694677626
121,Caernarfon,-4.273911,53.13955,0.3234615573694233,0.15991437799398892,0.11725795046746533
122,Cumnock,-4.265828900000001,55.45355,0.01,0.01,0.21509811246366686
123,Aberaeron,-4.2581619,52.24279,0.01,0.01,0.13030241016528574
124,Alness,-4.256825,57.69595,0.01,0.08033477310048888,0.1733346124793272
125,Glasgow,-4.251806,55.86424,0.01,0.01,0.6407245698747965
126,Dalwhinnie,-4.242783,56.9366,0.01,0.02857368967333397,0.01
127,Inverness,-4.224721,57.47776999999999,0.01,0.1381722116154399,0.32272886828574887
128,Saltash,-4.21643,50.409209999999995,0.01,0.01,0.17177595312826638
129,Bideford,-4.206666,51.01668,0.01,0.01,0.20156128992261377
130,Invergordon,-4.1728819999999995,57.688109999999995,0.01,0.08128080335395153,0.17623035913562443
131,Llanelli,-4.160248,51.680890000000005,0.01,0.01,0.2767603882574701
132,Plymouth,-4.1426565,50.37546,0.01,0.01,0.4184456920832568
133,Tavistock,-4.141654,50.551120000000004,0.01,0.01,0.20168167951953295
134,Porthmadog,-4.1333839999999995,52.92784,0.2852623009693442,0.14655981700479753,0.10433774580953842
135,Bangor,-4.129263,53.22739,0.4592908428703786,0.20397479108408598,0.16547834821439797
136,Tywyn,-4.087249,52.58701,0.025595882196053812,0.16766824952027348,0.08341391858656798
137,Aberystwyth,-4.08292,52.4153,0.01,0.01,0.2637658648328471
138,Lampeter,-4.0785089999999995,52.1129,0.01,0.01,0.1464129905499011
139,Barnstaple,-4.058338,51.07816,0.01,0.01,0.26689749829376963
140,Tain,-4.05523,57.8115,0.01,0.06204549774560024,0.1123869778089969
141,Okehampton,-4.004263,50.73831,0.01,0.01,0.14242331228920924
142,Llandeilo,-3.9914300000000003,51.88469,0.01,0.01,0.1989828346841427
143,Motherwell,-3.9810968,55.78321,0.01,0.01,0.3746635113129607
144,Golspie,-3.976086,57.97341,0.01,0.02668139242401828,0.01
145,Airdrie,-3.9625660000000003,55.86626999999999,0.01,0.01,0.3191251117327768
146,Swansea,-3.9436459999999998,51.62144,0.01,0.01,0.43706642196436235
147,Stirling,-3.9369029,56.116519999999994,0.01,0.01,0.3470293794796127
148,Tregaron,-3.934385,52.22,0.01,0.01,0.14242331228920924
149,Tregaron,-3.934385,52.22,0.01,0.01,0.14242331228920924
150,Castle Douglas,-3.9314139999999997,54.940419999999996,0.01,0.01,0.14460797472633743
151,Dolgellau,-3.8844,52.74215,0.1769637554731823,0.09463002641825174,0.05490874954515566
152,Aberfeldy,-3.866969,56.62175,0.01,0.0935567366593487,0.17262863439039955
153,Machynlleth,-3.853485,52.59027,0.043801710644556555,0.1912848348942262,0.1168647582923343
154,Brora,-3.8525480000000005,58.012159999999994,0.01,0.054634753823979566,0.09029613954922008
155,Llandudno,-3.827609,53.324059999999996,0.4260622092544602,0.17720386384039752,0.12714562900184387
156,Llandudno,-3.827609,53.324059999999996,0.4260622092544602,0.17720386384039752,0.12714562900184387
157,Aviemore,-3.823812,57.19449,0.01,0.07085554359883595,0.15282449572954315
158,Dalbeattie,-3.8225269999999996,54.934219999999996,0.01,0.01,0.1000149122233764
159,Falkirk,-3.7839131,56.00188000000001,0.01,0.01,0.34777307560736076
160,Kingsbridge,-3.777493,50.28395,0.01,0.01,0.180153385558987
161,Pitlochry,-3.729711,56.70436,0.01,0.07313696328966385,0.11764912079351966
162,Colwyn Bay,-3.72764,53.29318000000001,0.39835057207972513,0.16567829533410114,0.11415614477356696
163,Totnes,-3.685797,50.43374,0.01,0.01,0.18828691045824184
164,Grantown-on-Spey,-3.609628,57.33041,0.01,0.0547209410603897,0.10150061468448614
165,Dumfries,-3.60512,55.070859999999996,0.01,0.01,0.2620467825155964
166,Whitehaven,-3.589233,54.5497,0.017272906001305887,0.01,0.21944576474814845
167,Dartmouth,-3.578807,50.35252,0.01,0.01,0.1517671151719178
168,Bridgend,-3.576945,51.504290000000005,0.01,0.01,0.3321612302025697
169,Paignton,-3.564235,50.43508,0.01,0.01,0.27771472122899726
170,Workington,-3.5427519999999997,54.64357,0.019638126027371697,0.01,0.21568000470700208
171,Llanidloes,-3.5401949999999998,52.447790000000005,0.01,0.09074913312789139,0.11443523748246508
172,Exeter,-3.533899,50.71841,0.01,0.01,0.45287893164491305
173,Torquay,-3.525315,50.46192,0.01,0.01,0.28487363952476774
174,Thurso,-3.5220800000000003,58.59356999999999,0.01,0.0778889165182166,0.15961494915566274
175,Livingston,-3.518068,55.90071,0.01,0.01,0.3421540053773943
176,Rhyl,-3.4916339999999995,53.319140000000004,0.3936069504290001,0.16370537197491303,0.11193263130056356
177,Tiverton,-3.491207,50.90205,0.01,0.01,0.1998532004586963
178,Tiverton,-3.491207,50.90205,0.01,0.01,0.1998532004586963
179,Minehead,-3.481152,51.20428,0.01,0.01,0.15335640870658307
180,Dunfermline,-3.452151,56.071740000000005,0.01,0.01,0.3247430446780971
181,Perth,-3.4308381000000003,56.39499,0.01,0.06961588022818134,0.20737655045880884
182,Prestatyn,-3.4076129999999996,53.33651,0.34973316457637643,0.14545779280830118,0.08991231427233237
183,Builth Wells,-3.4045919999999996,52.15002,0.01,0.01,0.16701239712648938
184,Braemar,-3.3979439,57.00646999999999,0.01,0.02502416279313368,0.01
185,Brecon,-3.391463,51.94895,0.01,0.01,0.1998532004586963
186,Merthyr Tydfil,-3.381646,51.74873,0.01,0.01,0.37940904935788
187,Llandrindod Wells,-3.377742,52.2417,0.01,0.01,0.14368248497046576
188,Corwen,-3.369242,52.98005,0.22599988498707632,0.09707761751410887,0.04461077830455432
189,Cockermouth,-3.367985,54.66326,0.015779114434892785,0.01,0.15903796166124134
190,Lockerbie,-3.349008,55.122240000000005,0.01,0.01,0.23165956248432568
191,Blairgowrie,-3.3378318,56.58941,0.01,0.05917427065202508,0.15946906877220346
192,Elgin,-3.318485,57.64945,0.01,0.11390544066472197,0.2897654455141206
193,Newtown,-3.313106,52.51211,0.014199678339733365,0.18603267453239775,0.11538530489039751
194,Ruthin,-3.3103108,53.114869999999996,0.32808670476317275,0.1409287202190347,0.09049218228461792
195,Ruthin,-3.3103108,53.114869999999996,0.32808670476317275,0.1409287202190347,0.09049218228461792
196,Sidmouth,-3.2375599999999998,50.67865,0.01,0.01,0.18228564649549686
197,Barrow-in-Furness,-3.2188939999999997,54.10896999999999,0.04519056167334124,0.01,0.2650070699594872
198,Peebles,-3.1936419999999996,55.65306999999999,0.01,0.01,0.17601668810640125
199,Edinburgh,-3.1882669999999997,55.95325,0.01,0.01,0.5899201864140025
200,Cardiff,-3.17909,51.48158,0.01,0.01,0.5528578283591358
201,Llangollen,-3.1716599999999997,52.96921,0.26417703476888044,0.10987407292344568,0.06481930083351367
202,Kirkcaldy,-3.158137,56.11682,0.01,0.11694385189343089,0.35714069227178574
203,Welshpool,-3.146407,52.66035,0.08820845525932137,0.23112713479354824,0.1486141916947086
204,Mold,-3.1419029999999997,53.1672,0.4601013516589485,0.1799365688617451,0.1404249787738792
205,Mold,-3.1419029999999997,53.1672,0.4601013516589485,0.1799365688617451,0.1404249787738792
206,Taunton,-3.106849,51.01534,0.01,0.01,0.2987226096055802
207,Wick,-3.093716,58.43894,0.01,0.07005921164834275,0.1502913780898553
208,John o' Groats,-3.0688997000000002,58.63734,0.01,0.02502416279313368,0.01
209,Dalkeith,-3.066606,55.893119999999996,0.01,0.01,0.29647572620031143
210,Oswestry,-3.056412,52.85715,0.23735037925211155,0.42403257800395555,0.15459743527754138
211,Blackpool,-3.0356748,53.81751,0.16875241016095746,0.36847621292221217,0.3402550984564753
212,Birkenhead,-3.023009,53.389990000000004,0.6542951327138723,0.255881918660834,0.20813813919452848
213,Cupar,-3.010137,56.32023,0.01,0.06638795281720962,0.16517655685657856
214,Southport,-3.010113,53.64571,0.4139595422058857,0.2757641902875987,0.20634863072673965
215,Bridgwater,-3.003632,51.12789,0.01,0.01,0.35193989104117634
216,Langholm,-2.998913,55.153059999999996,0.01,0.01,0.10297940314000756
217,Newport,-2.997664,51.58415,0.01,0.01,0.3857660047611855
218,Axminster,-2.9949369999999997,50.78273,0.01,0.01,0.1961722256882533
219,Wrexham,-2.9924939999999998,53.043040000000005,0.5049536386528067,0.20355364101133522,0.18195491432698557
220,Liverpool,-2.9915726,53.40837,1.0,0.3690475904741163,0.33228145484639426
221,Weston-super-Mare,-2.977255,51.347409999999996,0.01,0.01,0.31350255684440287
222,Dundee,-2.9707209999999997,56.462019999999995,0.01,0.12909913167647724,0.3923346980546127
223,Kirkwall,-2.9622491,58.984669999999994,0.01,0.0731198812398952,0.16002731311897989
224,Ambleside,-2.961333,54.428740000000005,0.019070890605768758,0.01,0.2398449445900028
225,Orkney Islands,-2.9605206,58.980940000000004,0.01,0.07482369255449316,0.1654471063258641
226,Lyme Regis,-2.936639,50.725159999999995,0.01,0.01,0.17511925526826128
227,Carlisle,-2.932931,54.892469999999996,0.01,0.12769657148764815,0.3694008797555592
228,Chester,-2.893075,53.19339,0.6816904786533436,0.2446837248490762,0.2121709122507749
229,Forfar,-2.889062,56.64356,0.01,0.06922236411978946,0.20717899818115842
230,Morecambe,-2.864968,54.074169999999995,0.037334402533788044,0.01,0.22344634715467523
231,Selkirk,-2.838524,55.55066,0.01,0.01,0.21667067672933557
232,Galashiels,-2.814449,55.62373,0.01,0.01,0.20381339252338077
233,Lancaster,-2.8007399,54.046569999999996,0.04872821058815093,0.01,0.3137840626833452
234,St Andrews,-2.7967214,56.339780000000005,0.01,0.08625994215853798,0.23634025030496775
235,Hawick,-2.780914,55.42706,0.01,0.01,0.1793137686475746
236,Bridport,-2.758301,50.733579999999996,0.01,0.01,0.1838785915835695
237,Shrewsbury,-2.7553267999999997,52.7073,0.13924709042609906,0.18243024744829608,0.3355959798115728
238,Penrith,-2.752708,54.6641,0.026398569202544936,0.17292632674770284,0.31144930284324224
239,Kendal,-2.74629,54.32801,0.021523396080625246,0.01,0.2800207744800244
240,Street,-2.7429189999999997,51.12468,0.01,0.07188961524688812,0.14173150918549474
241,Glastonbury,-2.718454,51.14743,0.01,0.08292549831891446,0.17462859894819535
242,Hereford,-2.715974,52.0564,0.01,0.01,0.322086333206494
243,Ludlow,-2.7139129,52.36775,0.01,0.01,0.216280737470304
244,Preston,-2.70309,53.7632,0.06014807331897296,0.5910084728568614,0.4161521633539721
245,Whitchurch,-2.682045,52.96872,0.18103612089207674,0.2964735653193464,0.1172359736296613
246,Wells,-2.6445979,51.20935,0.01,0.09298247760783923,0.20460765438490994
247,Yeovil,-2.633308,50.94206,0.01,0.01,0.27388029584154017
248,Wigan,-2.6325074,53.54506,0.3053157919795531,1.0,0.3625686386213437
249,Warrington,-2.5969501,53.39004,0.5280453708947227,0.7982333499760892,0.33022303546528226
250,Arbroath,-2.591543,56.55911,0.01,0.07450303499885332,0.22851949683924616
251,Bristol,-2.58791,51.45451,0.01,0.20243946961899692,0.5713906023570866
252,Guernsey,-2.5852779999999997,49.46569,0.01,0.01,0.01
253,Ross-on-Wye,-2.582446,51.91445,0.01,0.01,0.24895859644343046
254,Jedburgh,-2.5549369,55.47772,0.01,0.01,0.1370669392966825
255,Sedbergh,-2.5281740000000004,54.32363,0.013312766086032836,0.01,0.14202861354414648
256,Sedbergh,-2.5281740000000004,54.32363,0.013312766086032836,0.01,0.14202861354414648
257,Nantwich,-2.524102,53.067190000000004,0.25529725258572195,0.3859266507299944,0.15134085998397098
258,Banff,-2.524038,57.666509999999995,0.01,0.07504314452711236,0.15113192917216586
259,Dunbar,-2.516737,56.00209,0.01,0.08824141541601024,0.2516745159554483
260,Cinderford,-2.5009579,51.8253,0.01,0.08559654496015504,0.22540227665362617
261,Banchory,-2.4909599,57.05386,0.01,0.062297068228617046,0.18667011469243816
262,Blackburn,-2.487529,53.748580000000004,0.027641889254065143,0.5432124264008896,0.3367806950932013
263,Market Drayton,-2.483485,52.90355,0.09833953299854994,0.24156840441675234,0.10947201186345887
264,Telford,-2.4672611,52.67759,0.07601541124756328,0.01,0.3115246680549564
265,Montrose,-2.4661150000000003,56.70692,0.01,0.06841879202565848,0.20393156436276463
266,Turriff,-2.4623,57.53893000000001,0.01,0.07930327566740247,0.16065792147175426
267,Weymouth,-2.457621,50.61443,0.01,0.01,0.2578161602717846
268,Crewe,-2.4438209,53.10041,0.2950356217899938,0.483164692984096,0.2142005549046414
269,Fortuneswell,-2.4422189999999997,50.55919,0.01,0.01,0.12783269059604907
270,Dorchester,-2.4411810000000003,50.71116,0.01,0.01,0.3329694781740022
271,Alston,-2.438685,54.812169999999995,0.01,0.05219726016007509,0.09556137142463018
272,Kelso,-2.432207,55.600030000000004,0.01,0.01,0.1708139481690248
273,Wincanton,-2.416007,51.055690000000006,0.01,0.07191445258141477,0.15475413757364376
274,Clitheroe,-2.3930830000000003,53.8711,0.01,0.14113762802448643,0.235209342636912
275,Sark,-2.3666256000000003,49.43007,0.01,0.01,0.01
276,Bath,-2.3590167,51.38106,0.01,0.14966992221192815,0.4005373060272082
277,Kidderminster,-2.2496839,52.3886,0.011590013055154311,0.07592147775920147,0.2646297392128562
278,Manchester,-2.2426305,53.48076,0.049054866741935696,0.1606692642581292,0.7149568565690992
279,Burnley,-2.2405035,53.78929,0.01,0.21948242621262581,0.32701566481052285
280,Gloucester,-2.238156,51.86424,0.01,0.131893917745844,0.4015194672935158
281,Newcastle-under-Lyme,-2.2273002,53.01321,0.19876905375076773,0.16275694021635742,0.21723110682081676
282,Worcester,-2.221575,52.19364,0.01,0.09931607412778519,0.4076102634982102
283,Trowbridge,-2.208853,51.31966,0.01,0.14478137405306468,0.38508472293134594
284,Shaftesbury,-2.198083,51.0046,0.01,0.12482118871524667,0.17465656333345292
285,Alderney,-2.1973557,49.715,0.01,0.01,0.01
286,Stoke-on-Trent,-2.179404,53.002669999999995,0.2641813594015863,0.2163181241608814,0.3241400119222146
287,Colne,-2.176991,53.85564,0.01,0.01,0.22874467943267476
288,Blandford Forum,-2.165353,50.85691,0.01,0.01,0.15256737152502498
289,Rochdale,-2.1561,53.60971,0.02820592262753595,0.09238278921307298,0.3950355608746767
290,Jersey,-2.13125,49.21444,0.01,0.01,0.01
291,Wolverhampton,-2.12882,52.586969999999994,0.01533385917941207,0.10044589623087019,0.36752318661136896
292,Stafford,-2.12066,52.80669,0.03038061868249117,0.09950555382457947,0.3637350325371903
293,Macclesfield,-2.119287,53.25866,0.10862747467683113,0.0790638419899385,0.31865751719004776
294,Hexham,-2.1121439,54.97266,0.01,0.12254078127191315,0.29517015471752717
295,Aberdeen,-2.094278,57.149719999999995,0.01,0.17144920605430097,0.4316506255194555
296,Dudley,-2.081112,52.51226,0.01550562892147279,0.1015710901879009,0.35213259892435844
297,Cheltenham,-2.0782533,51.899390000000004,0.01,0.01,0.3829247253608785
298,Bromsgrove,-2.061906,52.33559,0.013036811943664317,0.08539887084869417,0.29931887315653677
299,Skipton,-2.0162787,53.96285,0.01,0.01,0.22849661894591444
300,Fraserburgh,-2.007631,57.69335,0.01,0.08241197638205683,0.1698003242800174
301,Berwick,-2.005395,55.77024,0.01,0.01,0.20022283399926524
302,Poole,-1.987248,50.71505,0.01,0.01,0.32954091917604206
303,Walsall,-1.9829189999999999,52.586209999999994,0.01521771459487277,0.09968508013428859,0.35820684096273636
304,Cirencester,-1.968243,51.71849,0.028113980443057362,0.18416329047886357,0.3364030674099484
305,Evesham,-1.9467700000000001,52.09215,0.01,0.06948455925564873,0.2383578925842388
306,Buxton,-1.91483,53.259080000000004,0.036013474313309674,0.058977418232794,0.26980561605892955
307,Keighley,-1.9123580000000002,53.8678,0.01490776553965679,0.0976547295048214,0.28105358422217436
308,Birmingham,-1.8904009999999998,52.48624,0.02556359332286618,0.1674567381996288,0.637670168760041
309,Bournemouth,-1.880769,50.719159999999995,0.01,0.01,0.4081678134531734
310,Halifax,-1.8575400000000002,53.727019999999996,0.015124146660964056,0.09907215452502315,0.27627598206730464
311,Salisbury,-1.794472,51.06878,0.01,0.01,0.3051553714832883
312,Ringwood,-1.7888169999999999,50.84495,0.01,0.01,0.25666597785517625
313,Huddersfield,-1.7850351000000002,53.645790000000005,0.019036696862821362,0.12470168502843929,0.39146782566942107
314,Peterhead,-1.784066,57.50812,0.01,0.096267210024821,0.2105472917727803
315,Swindon,-1.7797176,51.55577,0.028757946852851806,0.01,0.36461466390258274
316,Bradford,-1.759398,53.79598000000001,0.02158927699532414,0.14142260284243643,0.4253956050200881
317,Ashbourne,-1.7321790000000001,53.016630000000006,0.05340993628778295,0.01,0.3252391006149923
318,Marlborough,-1.7270619999999999,51.42007,0.021295705174022017,0.01,0.22047377028512394
319,Stratford-upon-Avon,-1.7082979999999999,52.19173,0.016860896179722577,0.07363260084257238,0.28785441832891284
320,Alnwick,-1.7062990000000002,55.41274,0.01,0.01,0.1977197633886238
321,Otley,-1.691786,53.90583,0.011739542403042548,0.07690098390867865,0.21205579441409284
322,Bishop Auckland,-1.6787880000000002,54.663819999999994,0.02627071166149344,0.08604439191030373,0.23901117254067517
323,Burton upon Trent,-1.6371358999999999,52.81403,0.028221905807282437,0.01,0.3145488930412223
324,Newcastle,-1.61778,54.97825,0.01,0.18231942518554858,0.5548067676621391
325,Durham,-1.5848520000000001,54.77525,0.038155034109108886,0.12496908155888678,0.36496113069395136
326,Ashington,-1.5659829,55.18298000000001,0.01,0.01,0.23142089173093403
327,Darlington,-1.559458,54.52361,0.047475444256356115,0.15549620086276258,0.2914077550306953
328,Leeds,-1.5490774,53.80076,0.02641811759383616,0.17305438033552728,0.5644710748573245
329,Harrogate,-1.5418120000000002,53.99211999999999,0.01875354344160077,0.12284686173623595,0.37719265341397745
330,Leamington Spa,-1.5200789,52.28519,0.022870140003388877,0.0998753410687171,0.3683535873294726
331,Coventry,-1.519693,52.40682,0.02562351977578047,0.11189952384118985,0.42367541973954
332,Blyth,-1.510277,55.12696,0.01,0.01,0.24497746126110506
333,Wakefield,-1.505924,53.6833,0.017931136193021124,0.11745960519606509,0.35511928865193254
334,Andover,-1.4919233,51.2112,0.01,0.06670169792270698,0.26371466058489207
335,Witney,-1.4850543999999999,51.785940000000004,0.021438970268207173,0.07021900219836298,0.26084343413581385
336,Barnsley,-1.479726,53.55263000000001,0.014330478907017472,0.09387315876525101,0.3496809625036298
337,Derby,-1.4746186000000001,52.92253,0.023884375415673852,0.01,0.41833889290862364
338,Sheffield,-1.470085,53.381130000000006,0.01,0.01,0.5474323910295666
339,Nuneaton,-1.465382,52.52049,0.020154620045734963,0.2640494933466751,0.34476131428916196
340,Northallerton,-1.429959,54.337959999999995,0.035879148466674005,0.11751488284468335,0.19074889934657543
341,South Shields,-1.427406,54.99941999999999,0.01,0.11936242305147861,0.33339186141883637
342,Chesterfield,-1.421629,53.23505,0.015641815042883613,0.01,0.34492991146271923
343,Southampton,-1.4043508999999998,50.9097,0.01,0.01,0.5168876106751658
344,Wetherby,-1.384816,53.92706,0.011106626773939046,0.07275501016130113,0.1952554050127862
345,Sunderland,-1.383801,54.90687,0.04027599203166975,0.13191584939165876,0.36553017214850586
346,Rotherham,-1.3635008999999998,53.4326,0.01,0.01,0.36261959246498443
347,Castleford,-1.345968,53.72346999999999,0.014534700866776457,0.09521093404660733,0.29315715857824015
348,Thirsk,-1.341377,54.23385,0.03087295982443885,0.06741208203757418,0.1701927242747829
349,Banbury,-1.339775,52.0629,0.028779493283034085,0.01,0.27107080515920035
350,Stockton,-1.3289821000000002,54.57046,0.046567595026650505,0.15252271507543896,0.296653258090273
351,Newbury,-1.3231138999999998,51.40141,0.027537025509582543,0.09019194099177558,0.3400394890538192
352,Isle of Wight,-1.304734,50.69385,0.01,0.01,0.3280463500125228
353,Isle of Wight,-1.304734,50.69385,0.01,0.01,0.3280463500125228
354,Abingdon,-1.2879528999999998,51.67078,0.024133426513891117,0.07904414756085504,0.2784986773299922
355,Shetland Islands,-1.2659409,60.52965,0.01,0.054634753823979566,0.09029613954922008
356,Rugby,-1.265032,52.37088,0.0361665062156633,0.31588283391399263,0.31187711010994495
357,Oxford,-1.2577263,51.75202,0.03405314357053747,0.11153417040680949,0.4763518866356818
358,Middlesbrough,-1.234956,54.57423000000001,0.05557444061227309,0.18202281148793775,0.3680655414578641
359,Hartlepool,-1.212926,54.69174,0.04528188965299037,0.14831165253326586,0.2805250316297642
360,Loughborough,-1.206166,52.7721,0.028295959775931592,0.2471404919326926,0.3600637335579939
361,Mansfield,-1.198674,53.1472,0.015170335264686865,0.01,0.31445265176474835
362,Nottingham,-1.1581086,52.95478000000001,0.026320170978265094,0.34482555893157024,0.5235918413820956
363,Bicester,-1.1535898999999998,51.8996,0.019069591171420402,0.01,0.22232981826116832
364,Leicester,-1.1397591999999999,52.636880000000005,0.032729012032391015,0.2858593224210109,0.4550076443516869
365,Doncaster,-1.128462,53.522819999999996,0.01649666341385361,0.10806295545274897,0.3695482568172009
366,Worksop,-1.122745,53.3093,0.01,0.01,0.2528732023842698
367,Basingstoke,-1.0923964,51.26654,0.01,0.17761033350302133,0.31592881104377224
368,Portsmouth,-1.0879769,50.81977,0.01,0.01,0.4533689614184953
369,York,-1.0872979,53.95997,0.023299578736732426,0.15262609631599267,0.43430941962898284
370,Selby,-1.067189,53.783519999999996,0.012394408879014713,0.0811907487565842,0.22468419526031186
371,Helmsley,-1.0562636,54.24651,0.023669619776985944,0.01,0.08718518799456068
372,Towcester,-0.9896879999999999,52.13511,0.01,0.01,0.23834888495144463
373,Reading,-0.9781303,51.45426,0.01,0.2334096565032107,0.4286417475297631
374,Retford,-0.9455030000000001,53.32136,0.01,0.01,0.1960416435360849
375,Petersfield,-0.93899,51.00759,0.01,0.01,0.2192492896309671
376,Northampton,-0.9026559999999999,52.24048,0.01,0.3801597956553354,0.41038631111783375
377,Melton Mowbray,-0.887126,52.7664,0.012604478851796759,0.16513366400177396,0.22394076385219763
378,Aylesbury,-0.8084,51.81561,0.0308987414614642,0.01,0.3512665476270555
379,Newark-on-Trent,-0.80657,53.070040000000006,0.01542655138926827,0.01,0.31728270365581657
380,Malton,-0.7978970000000001,54.13684,0.01,0.10372226810804001,0.1909702029964871
381,Chichester,-0.774936,50.83761,0.01,0.01,0.2852064901597899
382,Gainsborough,-0.774465,53.400580000000005,0.01,0.07332120022237594,0.18780492886606392
383,Milton Keynes,-0.7594171,52.040620000000004,0.01,0.01,0.41455668588119043
384,Aldershot,-0.7557509,51.24837,0.01,0.3157214788293324,0.3499298880722497
385,High Wycombe,-0.748229,51.628609999999995,0.01,0.22550651672403094,0.3244483421438646
386,Midhurst,-0.737274,50.9869,0.01,0.05725298896695117,0.20996960807909656
387,Kettering,-0.7302489999999999,52.39632,0.01,0.2805305514070803,0.2884950488106431
388,Wellingborough,-0.693964,52.30242,0.01,0.01,0.2657626619570207
389,Corby,-0.6842333,52.4923,0.01,0.29691905667407736,0.2739468262655272
390,Bognor Regis,-0.673061,50.783,0.01,0.01,0.2689227767950324
391,Scunthorpe,-0.654413,53.58865,0.01,0.13826450270476742,0.28979915645591897
392,Grantham,-0.643582,52.912519999999994,0.013873019956311313,0.18175306120084853,0.2531757727883907
393,Whitby,-0.613347,54.48633,0.033202721825040485,0.10874878279527579,0.1972145780063398
394,Slough,-0.5950406,51.51054,0.01,0.35969222993004624,0.36079737310723076
395,Guildford,-0.570409,51.23622,0.01,0.2159730062618428,0.34799159680002434
396,Woking,-0.5600349,51.31677,0.01,0.2583559336281785,0.4219079702797884
397,Lincoln,-0.540579,53.23069,0.01,0.01,0.39645036318304855
398,Bedford,-0.46677820000000003,52.13864,0.01,0.16223381211054227,0.35802760644546633
399,Heathrow,-0.4542955,51.47002,0.01,0.32676392367424484,0.4569553090882389
400,Driffield,-0.443377,54.006,0.01,0.09624281815636969,0.16811565339230877
401,Beverley,-0.435093,53.84196,0.01,0.1558649967810299,0.29227101925709154
402,Luton,-0.4200255,51.87867,0.01,0.01,0.38874905763288764
403,Scarborough,-0.399752,54.28311,0.04142578225539171,0.1356817542479623,0.2694579220873531
404,Worthing,-0.372882,50.81787,0.01,0.01,0.3677881493780669
405,Dorking,-0.332378,51.2322,0.01,0.20227471788162374,0.33615538850384896
406,Hull,-0.3274198,53.767619999999994,0.01,0.1913804580052194,0.4366635252269915
407,Horsham,-0.325858,51.06288,0.01,0.07197993109421792,0.2672844860931027
408,Biggleswade,-0.26421999999999995,52.086940000000006,0.01,0.11320461023838459,0.2165726390754699
409,Peterborough,-0.2405299,52.5695,0.01,0.19157301715206057,0.3784086809499909
410,Welwyn Garden City,-0.208661,51.80317,0.01,0.01,0.49100034828515204
411,Bridlington,-0.198802,54.08535,0.01,0.12525000538677417,0.20557517508989248
412,Stevenage,-0.19661199999999998,51.90376,0.01,0.01,0.33790450838331026
413,Crawley,-0.18722750000000002,51.109140000000004,0.01,0.01,0.3271441211862794
414,Huntingdon,-0.182552,52.33146,0.01,0.1329330900750542,0.2244098754795641
415,Hove,-0.168749,50.82793,0.01,0.01,0.29432308496191684
416,Spalding,-0.1537024,52.7901,0.01,0.01,0.24889490303253056
417,Brighton,-0.137163,50.82253,0.01,0.01,0.5141628358772078
418,London,-0.12775830000000002,51.50735,0.01,0.2823651274069772,1.0
419,Grimsby,-0.08078400000000001,53.56746999999999,0.01,0.14590355220169957,0.3156575954592171
420,Boston,-0.026576999999999996,52.97894,0.01,0.01,0.3238653693653047
421,Royston,-0.024066,52.048140000000004,0.01,0.10976512593239061,0.18802396199789753
422,Louth_Lincs,-0.007711,53.36596,0.01,0.11165044509061939,0.2066466194321787
423,Lewes,0.00878,50.873870000000004,0.01,0.01,0.2730259179584933
424,Chatteris,0.054012,52.4561,0.01,0.09304570203505139,0.1408849878543018
425,Uckfield,0.095913,50.966409999999996,0.01,0.01,0.28701538133321436
426,Cambridge,0.12181700000000001,52.20534,0.01,0.2415461477674507,0.48155117717202184
427,Bishop's Stortford,0.15365020000000001,51.87216,0.01,0.01,0.3088592280494683
428,Wisbech,0.158797,52.66631999999999,0.01,0.10476391174513455,0.18453444970997546
429,Sevenoaks,0.190898,51.27241,0.01,0.01,0.36726212480425413
430,Tunbridge Wells,0.26369499999999996,51.13238,0.01,0.01,0.3322372781122503
431,Eastbourne,0.29047199999999995,50.768029999999996,0.01,0.01,0.3075319937211377
432,Brentwood,0.30717490000000003,51.620470000000005,0.09295256580218245,0.01,0.5060628156074332
433,Skegness,0.337881,53.1464,0.01,0.09595830769804904,0.19748035437427916
434,Downham Market,0.385472,52.606609999999996,0.01,0.09390758427518099,0.15037710788302291
435,King's Lynn,0.4022963,52.75168000000001,0.01749535335560264,0.11460496846343472,0.25454145342107065
436,Bexhill,0.4662071,50.849909999999994,0.01,0.01,0.21399668709816563
437,Chelmsford,0.4685497,51.73559,0.05418168950429526,0.01,0.297850890533595
438,Mildenhall,0.5156095,52.347570000000005,0.01,0.14422461000633835,0.24482643014296976
439,Medway,0.5417860999999999,51.404740000000004,0.020454812413010545,0.01,0.29378995642200395
440,Braintree,0.5509269,51.88009,0.020913819260758453,0.01,0.252676497058328
441,Gillingham,0.551438,51.38632,0.029832118508235493,0.01,0.4539229986540636
442,Hastings,0.573453,50.85426,0.01,0.01,0.28725924801923786
443,Maldon,0.6714479999999999,51.731809999999996,0.023847781506520112,0.01,0.26080046530657314
444,Southend,0.7077123000000001,51.54593,0.024062111184038525,0.01,0.3583984378960178
445,Bury St Edmunds,0.7104931999999999,52.24292,0.01,0.18379946616930642,0.36133496507559043
446,Thetford,0.751657,52.412859999999995,0.014499107833268791,0.09497777851097719,0.19725447184993908
447,Ashford,0.8750190000000001,51.14647,0.020579379977380952,0.01,0.2690512950265183
448,Faversham,0.889358,51.31599,0.019359546573186275,0.01,0.2538763242916732
449,Colchester,0.891874,51.89593,0.02706173993715375,0.01,0.3624721848141858
450,New Romney,0.939473,50.98512,0.01,0.01,0.16383102769022811
451,Canterbury,1.0789089,51.280229999999996,0.025337209325726095,0.01,0.3447105780515603
452,Ipswich,1.14822,52.056740000000005,0.026722416953081828,0.01,0.3721928029861192
453,Clacton,1.153035,51.78953,0.01717688205304938,0.01,0.2080677694770872
454,Folkestone,1.169456,51.0814,0.019946043247507074,0.01,0.2585379267319641
455,Sheringham,1.2109589,52.944419999999994,0.013668065622598211,0.01,0.13521720201652057
456,Harwich,1.260297,51.93473,0.01446925997618657,0.01,0.1600385620018671
457,Norwich,1.297355,52.63089,0.033732117314799644,0.01,0.4579151047919623
458,Cromer,1.301866,52.93145,0.017146136666460296,0.01,0.1925851771826052
459,Cromer,1.301866,52.93145,0.017146136666460296,0.01,0.1925851771826052
460,Dover,1.3134027,51.12788,0.0180532546126279,0.01,0.2318495370466001
461,Felixstowe,1.3512549999999999,51.961729999999996,0.017187533025036564,0.01,0.21274675034006144
462,Margate,1.3868339,51.38965,0.018802161659592316,0.01,0.2592620727697132
463,Ramsgate,1.4198950000000001,51.33555,0.01859376762382597,0.01,0.25558425457806333
464,Great Yarmouth,1.728047,52.59823000000001,0.02048596229266684,0.01,0.2603412535249897
465,Lowestoft,1.7534490000000003,52.48114,0.021334688665388075,0.01,0.2741334748090883
466,Swaffham,0.687481,52.64747,0.01278974153091225,0.08378041271948865,0.14533064337584914
467,Dereham,0.9378270000000001,52.681619999999995,0.02716051188359493,0.01,0.34744924893038237
468,Ely,0.262363,52.39954,0.01,0.12905776915931583,0.22349816531765065
469,March,0.088622,52.551719999999996,0.01,0.1044812898035671,0.1712992539195662
470,St Neots,-0.26510300000000003,52.23008,0.01,0.10622195599146726,0.2044050171339071
471,Banham,1.0402849,52.45125,0.017839541625879366,0.01,0.21733561517052702
472,Holt,1.086747,52.90936,0.018695938924890805,0.01,0.19205014858753744
473,Hunstanton,0.49103199999999997,52.93891,0.010700518448929079,0.01,0.11628115360443403
474,Horncastle,-0.11245,53.20731,0.01,0.08548178875776186,0.1577363554163832
475,Market Weighton,-0.6677465,53.86484,0.01,0.09596849982149806,0.15206992928955734
476,Hawes,-2.1968695,54.303830000000005,0.01,0.01,0.01
477,Reeth,-1.9428115000000001,54.38946,0.03556367967463321,0.11648162528394503,0.17445159999842602
478,Aysgarth,-1.9967433999999997,54.29159,0.01,0.01,0.08963483705705627
479,Stanhope,-2.011302,54.74946,0.01,0.09782217867089577,0.2660035562734727
480,Keswick,-3.134706,54.60128,0.014239342752235465,0.01,0.15509842193929407
481,Oxenholme,-2.7243327999999996,54.30134,0.011794083142688646,0.01,0.11445699898500436
