,Unnamed:_0,Unnamed:_0,Unnamed:_0.1,Unnamed:_0.1.1,placename,preposition_drop_determiner,preposition_drop_no_determiner,preposition_retained,longitude,latitude
0,0,0,0,0,Dingle,0.01,0.2441348987441349,0.9566764630277648,-10.264013499999999,52.14094
1,1,1,1,1,Tralee,0.01,0.2434210577434211,0.9568030212450372,-9.6999325,52.27131
2,2,2,2,2,Killarney,0.01,0.2434210577434211,0.9568030212450372,-9.5044265,52.05994000000001
3,3,3,3,3,Bantry,0.01,0.2434210577434211,0.9568030212450372,-9.4539805,51.68035
4,4,4,4,4,Mayo,0.01,0.01,1.0,-9.4289369,54.01526
5,5,5,5,5,Ballycastle,0.01,0.01,1.0,-9.3724643,54.279669999999996
6,6,6,6,6,Abbeyfeale,0.01,0.2434210577434211,0.9568030212450372,-9.2970823,52.386179999999996
7,7,7,7,7,Ennistymon,0.01,0.2434210577434211,0.9568030212450372,-9.2934951,52.940369999999994
8,8,8,8,8,Galway,0.01,0.2434210577434211,0.9568030212450372,-9.0567905,53.270669999999996
9,9,9,9,9,Claremorris,0.01,0.01,1.0,-9.0017356,53.72388
10,10,10,10,10,Clare,0.01,0.2434210577434211,0.9568030212450372,-8.9811351,52.90453
11,11,11,11,11,Adare,0.01,0.2434210577434211,0.9568030212450372,-8.7925892,52.56363
12,12,12,12,12,Charleville,0.01,0.2434210577434211,0.9568030212450372,-8.681017599999999,52.36206
13,13,13,13,13,Mallow,0.01,0.2434210577434211,0.9568030212450372,-8.6539164,52.13898
14,14,14,14,14,Limerick,0.01,0.2434210577434211,0.9568030212450372,-8.6267343,52.66384
15,15,15,15,15,Loughrea,0.01,0.2392241338642241,0.9575478434381286,-8.5660931,53.19891
16,16,16,16,16,Sligo,0.01,0.01,1.0,-8.476088800000001,54.27661
17,17,17,17,17,Cork,0.01,0.2392241338642241,0.9575478434381286,-8.4756035,51.898509999999995
18,18,18,18,18,Nenagh,0.01,0.2434210577434211,0.9568030212450372,-8.19834,52.8635
19,19,19,19,19,Roscommon,0.01,0.01,1.0,-8.1890955,53.62759000000001
20,20,20,20,20,Tipperary,0.01,0.2392241338642241,0.9575478434381286,-8.161851400000002,52.47379
21,21,21,21,21,Donegal,0.01,0.01,1.0,-8.1096143,54.653830000000006
22,22,22,22,22,Leitrim,0.01,0.01,1.0,-8.0020132,54.12469
23,23,23,23,23,Athlone,0.20776731461067527,0.30787721768287724,0.7486785253850179,-7.9406898,53.42393000000001
24,24,24,24,24,Longford,0.1959891211462076,0.32672684920172684,0.7564835233019775,-7.7932573000000005,53.72763000000001
25,25,25,25,25,Offaly,0.2059394501303947,0.30516862343016865,0.7508896008540957,-7.7122229,53.23569000000001
26,26,26,26,26,Fermanagh,0.01,0.01,1.0,-7.6318728,54.343830000000004
27,27,27,27,27,Enniskillen,0.01,0.01,1.0,-7.631533599999999,54.343819999999994
28,28,28,28,28,Doon,0.01,0.01,1.0,-7.60964,54.185930000000006
29,29,29,29,29,Westmeath,0.20444061743440486,0.30294759667794763,0.7527025350054118,-7.4653217000000005,53.534530000000004
30,30,30,30,30,Strabane,0.01,0.01,1.0,-7.4633103,54.82739
31,31,31,31,31,Balivanich,0.01,0.01,1.0,-7.3743509000000005,57.472269999999995
32,32,32,32,32,Cavan,0.20533728594213765,0.3042763221792763,0.7516179261589436,-7.3633319,53.98972
33,33,33,33,33,Mullingar,0.20444061743440486,0.30294759667794763,0.7527025350054118,-7.3401868000000015,53.525819999999996
34,34,34,34,34,Laois,0.2062418561024585,0.30561674430561675,0.7505237146461836,-7.3323006999999985,52.9943
35,35,35,35,35,Omagh,0.01,0.01,1.0,-7.309959700000001,54.59771
36,36,36,36,36,Derry,0.01,0.01,1.0,-7.308574799999999,54.99661
37,37,37,37,37,Derry,0.01,0.01,1.0,-7.308574799999999,54.99661
38,38,38,38,38,Kilkenny,0.20296344535815028,0.3007586766757587,0.7544893696021933,-7.2447879,52.65415
39,39,39,39,39,Tyrone,0.01,0.01,1.0,-7.1312320000000025,54.491209999999995
40,40,40,40,40,Waterford,0.18751762883921544,0.2778704905278705,0.7731732035381146,-7.110070200000001,52.25932
41,41,41,41,41,Western Isles,0.01,0.01,1.0,-7.0194034,57.75989000000001
42,42,42,42,42,Monaghan,0.01,0.01,1.0,-6.9683132,54.2492
43,43,43,43,43,Carlow,0.20654515419658875,0.30606618330606616,0.7501568435494212,-6.934135899999999,52.83651
44,44,44,44,44,Kildare,0.20296344535815028,0.3007586766757587,0.7544893696021933,-6.8194707999999995,53.21204
45,45,45,45,45,Dungannon,0.01,0.01,1.0,-6.7669352,54.508269999999996
46,46,46,46,46,Cookstown,0.01,0.01,1.0,-6.7443895000000005,54.641819999999996
47,47,47,47,47,Coleraine,0.01,0.01,1.0,-6.6646103000000005,55.132580000000004
48,48,48,48,48,Meath,0.20296344535815028,0.3007586766757587,0.7544893696021933,-6.656416900000001,53.60555
49,49,49,49,49,Armagh,0.01,0.01,1.0,-6.652792,54.35028000000001
50,50,50,50,50,Armagh,0.01,0.01,1.0,-6.652792,54.35028000000001
51,51,51,51,51,Magherafelt,0.01,0.01,1.0,-6.607980499999999,54.75536999999999
52,52,52,52,52,Dunvegan,0.01,0.01,1.0,-6.5813982000000015,57.4366
53,53,53,53,53,Louth,0.19616020050784166,0.2906773791656774,0.7627188546136626,-6.4889423,53.925230000000006
54,54,54,54,54,Wexford,0.2047386356224279,0.3033892101783892,0.7523420656861769,-6.4633381,52.33692
55,55,55,55,55,Craigavon,0.01,0.01,1.0,-6.4175653,54.442930000000004
56,56,56,56,56,Stornoway,0.01,0.01,1.0,-6.3848692000000025,58.20943000000001
57,57,57,57,57,Drogheda,0.2047386356224279,0.3033892101783892,0.7523420656861769,-6.3560985,53.717859999999995
58,58,58,58,58,Rosslare,0.20296344535815028,0.3007586766757587,0.7544893696021933,-6.3414908,52.25131
59,59,59,59,59,Newry,0.20503752512500545,0.3038321140538321,0.7519806114780915,-6.34023,54.1751
60,60,60,60,60,Scilly Isles,0.01,0.01,1.0,-6.327496599999999,49.92773
61,61,61,61,61,Ballymena,0.01,0.01,1.0,-6.2802213,54.86529
62,62,62,62,62,Banbridge,0.20503752512500545,0.3038321140538321,0.7519806114780915,-6.2704803,54.34873
63,63,63,63,63,Dublin,0.20296344535815028,0.3007586766757587,0.7544893696021933,-6.2603097000000005,53.34981
64,64,64,64,64,Antrim,0.01,0.01,1.0,-6.2072498,54.719530000000006
65,65,65,65,65,Antrim,0.01,0.01,1.0,-6.2072498,54.719530000000006
66,66,66,66,66,Portree,0.01,0.01,1.0,-6.1960231,57.41246999999999
67,67,67,67,67,Islay,0.01,0.01,1.0,-6.177067,55.73625
68,68,68,68,68,Wicklow,0.20296344535815028,0.3007586766757587,0.7544893696021933,-6.044589,52.980819999999994
69,69,69,69,69,Kilkeel,0.2047386356224279,0.3033892101783892,0.7523420656861769,-6.007004,54.06312
70,70,70,70,70,Mull,0.01,0.01,1.0,-6.0008870000000005,56.4392
71,71,71,71,71,Belfast,0.01,0.01,1.0,-5.93012,54.59728000000001
72,72,72,72,72,Broadford,0.01,0.01,1.0,-5.9096592,57.24139
73,73,73,73,73,Down,0.2068493444127854,0.3065169404315169,0.7497889875638084,-5.7156921999999994,54.32875
74,74,74,74,74,Kyle of Lochalsh,0.01,0.01,1.0,-5.7143293,57.28261
75,75,75,75,75,Campbeltown,0.01,0.01,1.0,-5.605373999999999,55.424119999999995
76,76,76,76,76,Penzance,0.01,0.01,1.0,-5.537592,50.1188
77,77,77,77,77,Oban,0.01,0.01,1.0,-5.471047,56.41516
78,78,78,78,78,Lochgilphead,0.01,0.01,1.0,-5.4323449,56.03829
79,79,79,79,79,Helston,0.01,0.01,1.0,-5.274996,50.10159
80,80,80,80,80,Redruth,0.01,0.01,1.0,-5.226666000000002,50.23302
81,81,81,81,81,Ullapool,0.01,0.19821428194821428,0.9648254333757164,-5.161313,57.895419999999994
82,82,82,82,82,Ballachulish,0.01,0.01,1.0,-5.133719999999999,56.67393000000001
83,83,83,83,83,Fort William,0.01,0.01,1.0,-5.1052179,56.81981999999999
84,84,84,84,84,Achnasheen,0.01,0.24776785937276785,0.9560318532751988,-5.078765799999998,57.57859000000001
85,85,85,85,85,Newquay,0.01,0.01,1.0,-5.0737190000000005,50.4155
86,86,86,86,86,Falmouth,0.01,0.01,1.0,-5.066269999999999,50.152570000000004
87,87,87,87,87,Rothesay,0.01,0.01,1.0,-5.055793,55.83596
88,88,88,88,88,Truro,0.01,0.01,1.0,-5.0510410000000014,50.2632
89,89,89,89,89,Milford Haven,0.01,0.01,1.0,-5.0426971,51.71431
90,90,90,90,90,Stranraer,0.01,0.01,1.0,-5.0240550000000015,54.903369999999995
91,91,91,91,91,Fishguard,0.01,0.01,1.0,-4.975989,51.99393
92,92,92,92,92,Inchnadamph,0.01,0.1913793043163793,0.9660383239949456,-4.974295,58.15221
93,93,93,93,93,Haverfordwest,0.01,0.01,1.0,-4.971319,51.800470000000004
94,94,94,94,94,Dunoon,0.01,0.01,1.0,-4.926214,55.95097
95,95,95,95,95,Pembroke,0.01,0.01,1.0,-4.9086370000000015,51.67404000000001
96,96,96,96,96,Girvan,0.01,0.01,1.0,-4.8542179,55.240159999999996
97,97,97,97,97,Wadebridge,0.01,0.01,1.0,-4.836456,50.51665
98,98,98,98,98,Invergarry,0.01,0.2392241338642241,0.9575478434381286,-4.800261,57.07095
99,99,99,99,99,St Austell,0.01,0.01,1.0,-4.7834252,50.340379999999996
100,100,100,100,100,Greenock,0.01,0.01,1.0,-4.7719830000000005,55.956480000000006
101,101,101,101,101,Helensburgh,0.01,0.01,1.0,-4.734014,56.00232
102,102,102,102,102,Bodmin,0.01,0.01,1.0,-4.7188629,50.4715
103,103,103,103,103,Tenby,0.01,0.01,1.0,-4.703579,51.67274000000001
104,104,104,104,104,Camelford,0.01,0.01,1.0,-4.682364,50.62206
105,105,105,105,105,Irvine,0.01,0.01,1.0,-4.6696364,55.61156999999999
106,106,106,106,106,Cardigan,0.01,0.01,1.0,-4.660864,52.0837
107,107,107,107,107,Holyhead,0.3478224473382295,0.3092496355592497,0.6158495208023299,-4.633038,53.30944
108,108,108,108,108,Ayr,0.01,0.01,1.0,-4.629179,55.45856
109,109,109,109,109,Dumbarton,0.01,0.01,1.0,-4.564554,55.94529
110,110,110,110,110,Bude,0.01,0.01,1.0,-4.543678,50.82664000000001
111,111,111,111,111,Isle of Man,0.04686376516284346,0.01,0.9556356817351378,-4.5126330999999995,54.27697
112,112,112,112,112,Kilmarnock,0.01,0.01,1.0,-4.498792,55.61472
113,113,113,113,113,Newton Stewart,0.01,0.01,1.0,-4.483164,54.9603
114,114,114,114,114,Liskeard,0.01,0.01,1.0,-4.4647190000000005,50.45552
115,115,115,115,115,Altnaharra,0.01,0.17903226092903227,0.9682294554648038,-4.442655,58.28023
116,116,116,116,116,Pwllheli,0.7342133993540423,0.3071955666821956,0.2504306426498239,-4.417633900000001,52.888819999999996
117,117,117,117,117,Lairg,0.01,0.1913793043163793,0.9660383239949456,-4.402414,58.022059999999996
118,118,118,118,118,Launceston,0.01,0.01,1.0,-4.360451599999998,50.636829999999996
119,119,119,119,119,Carmarthen,0.01,0.01,1.0,-4.312131,51.857620000000004
120,120,120,120,120,Llangefni,0.8447086188100105,0.30550459268050456,0.1461284511736427,-4.311401999999998,53.25579000000001
121,121,121,121,121,Caernarfon,0.7847235222943411,0.31593927256593923,0.201062596580663,-4.273911,53.13955
122,122,122,122,122,Cumnock,0.01,0.01,1.0,-4.265828900000002,55.45355
123,123,123,123,123,Aberaeron,0.01,0.01,1.0,-4.2581619,52.24279
124,124,124,124,124,Alness,0.01,0.17903226092903227,0.9682294554648038,-4.256825,57.69595
125,125,125,125,125,Glasgow,0.01,0.01,1.0,-4.251806,55.86424
126,126,126,126,126,Dalwhinnie,0.01,0.1968085085718085,0.965074856477072,-4.242783,56.9366
127,127,127,127,127,Inverness,0.01,0.1913793043163793,0.9660383239949456,-4.224721,57.47776999999999
128,128,128,128,128,Saltash,0.01,0.01,1.0,-4.21643,50.409209999999995
129,129,129,129,129,Bideford,0.01,0.01,1.0,-4.206666,51.01668
130,130,130,130,130,Invergordon,0.01,0.17903226092903227,0.9682294554648038,-4.1728819999999995,57.688109999999995
131,131,131,131,131,Llanelli,0.01,0.01,1.0,-4.160248,51.68089000000001
132,132,132,132,132,Plymouth,0.01,0.01,1.0,-4.1426565,50.37546
133,133,133,133,133,Tavistock,0.01,0.01,1.0,-4.141654,50.551120000000004
134,134,134,134,134,Porthmadog,0.7551113145438417,0.31593927256593923,0.2290954879287096,-4.1333839999999995,52.92784
135,135,135,135,135,Bangor,0.8541116842257009,0.3089053829339054,0.13662328887873326,-4.129263,53.22739
136,136,136,136,136,Tywyn,0.10300748289621234,0.5495049455495049,0.8049725560721844,-4.087249,52.58701
137,137,137,137,137,Aberystwyth,0.01,0.01,1.0,-4.08292,52.4153
138,138,138,138,138,Lampeter,0.01,0.01,1.0,-4.0785089999999995,52.1129
139,139,139,139,139,Barnstaple,0.01,0.01,1.0,-4.058338,51.07816
140,140,140,140,140,Tain,0.01,0.1837748330587748,0.9673878679421632,-4.05523,57.8115
141,141,141,141,141,Okehampton,0.01,0.01,1.0,-4.004263,50.73831
142,142,142,142,142,Llandeilo,0.01,0.01,1.0,-3.9914300000000003,51.88469
143,143,143,143,143,Motherwell,0.01,0.01,1.0,-3.9810968,55.78321
144,144,144,144,144,Golspie,0.01,0.1837748330587748,0.9673878679421632,-3.976086,57.97341
145,145,145,145,145,Airdrie,0.01,0.01,1.0,-3.9625660000000003,55.86626999999999
146,146,146,146,146,Swansea,0.01,0.01,1.0,-3.9436459999999998,51.62144
147,147,147,147,147,Stirling,0.01,0.01,1.0,-3.9369029,56.116519999999994
148,148,148,148,148,Tregaron,0.01,0.01,1.0,-3.934385,52.22
149,149,149,149,149,Tregaron,0.01,0.01,1.0,-3.934385,52.22
150,150,150,150,150,Castle Douglas,0.01,0.01,1.0,-3.9314139999999997,54.940419999999996
151,151,151,151,151,Dolgellau,0.6791083978092666,0.29573711992073715,0.3046300609744687,-3.8844,52.74215
152,152,152,152,152,Aberfeldy,0.01,0.2086466169586466,0.9629740885592356,-3.866969,56.62175
153,153,153,153,153,Machynlleth,0.14317095357502366,0.5091743165091742,0.774108109279327,-3.853485,52.59027
154,154,154,154,154,Brora,0.01,0.1837748330587748,0.9673878679421632,-3.852548000000001,58.012159999999994
155,155,155,155,155,Llandudno,0.9120175615191122,0.3089053829339054,0.08180585280048204,-3.827609,53.324059999999996
156,156,156,156,156,Llandudno,0.9120175615191122,0.3089053829339054,0.08180585280048204,-3.827609,53.324059999999996
157,157,157,157,157,Aviemore,0.01,0.17236024517236026,0.9694132918629468,-3.823812,57.19449
158,158,158,158,158,Dalbeattie,0.01,0.01,1.0,-3.8225269999999996,54.934219999999996
159,159,159,159,159,Falkirk,0.01,0.01,1.0,-3.7839131,56.00188000000001
160,160,160,160,160,Kingsbridge,0.01,0.01,1.0,-3.777493,50.28395
161,161,161,161,161,Pitlochry,0.01,0.21022727083522727,0.9626936414590932,-3.729711,56.70436
162,162,162,162,162,Colwyn Bay,0.9120175615191122,0.3089053829339054,0.08180585280048204,-3.72764,53.29318000000001
163,163,163,163,163,Totnes,0.01,0.01,1.0,-3.685797,50.43374
164,164,164,164,164,Grantown-on-Spey,0.01,0.17236024517236026,0.9694132918629468,-3.609628,57.33041
165,165,165,165,165,Dumfries,0.01,0.01,1.0,-3.60512,55.070859999999996
166,166,166,166,166,Whitehaven,0.03970899300709989,0.01,0.9624087623591244,-3.589233,54.5497
167,167,167,167,167,Dartmouth,0.01,0.01,1.0,-3.578807,50.35252
168,168,168,168,168,Bridgend,0.01,0.01,1.0,-3.576945,51.50429000000001
169,169,169,169,169,Paignton,0.01,0.01,1.0,-3.564235,50.43508
170,170,170,170,170,Workington,0.045630509143114575,0.01,0.9568030212450372,-3.5427519999999997,54.64357
171,171,171,171,171,Llanidloes,0.01,0.2642857138892857,0.9531005778342884,-3.5401949999999998,52.44779000000001
172,172,172,172,172,Exeter,0.01,0.01,1.0,-3.533899,50.71841
173,173,173,173,173,Torquay,0.01,0.01,1.0,-3.525315,50.46192
174,174,174,174,174,Thurso,0.01,0.1837748330587748,0.9673878679421632,-3.5220800000000003,58.59356999999999
175,175,175,175,175,Livingston,0.01,0.01,1.0,-3.518068,55.90071
176,176,176,176,176,Rhyl,0.9120175615191122,0.3089053829339054,0.08180585280048204,-3.4916339999999995,53.319140000000004
177,177,177,177,177,Tiverton,0.01,0.01,1.0,-3.491207,50.90205
178,178,178,178,178,Tiverton,0.01,0.01,1.0,-3.491207,50.90205
179,179,179,179,179,Minehead,0.01,0.01,1.0,-3.481152,51.20428
180,180,180,180,180,Dunfermline,0.01,0.01,1.0,-3.452151,56.07174000000001
181,181,181,181,181,Perth,0.01,0.1366995110116995,0.975741695170992,-3.4308381000000003,56.39499
182,182,182,182,182,Prestatyn,0.9171221357296152,0.31063433281063435,0.07666670277925779,-3.4076129999999996,53.33651
183,183,183,183,183,Builth Wells,0.01,0.01,1.0,-3.4045919999999996,52.15002
184,184,184,184,184,Braemar,0.01,0.17236024517236026,0.9694132918629468,-3.3979439,57.00646999999999
185,185,185,185,185,Brecon,0.01,0.01,1.0,-3.391463,51.94895
186,186,186,186,186,Merthyr Tydfil,0.01,0.01,1.0,-3.381646,51.74873
187,187,187,187,187,Llandrindod Wells,0.01,0.01,1.0,-3.377742,52.2417
188,188,188,188,188,Corwen,0.8545275249490261,0.2989228060489228,0.13800114838039945,-3.369242,52.98005
189,189,189,189,189,Cockermouth,0.045630509143114575,0.01,0.9568030212450372,-3.367985,54.66326
190,190,190,190,190,Lockerbie,0.01,0.01,1.0,-3.349008,55.12224000000001
191,191,191,191,191,Blairgowrie,0.01,0.1401515138901515,0.975129094306062,-3.3378318,56.58941
192,192,192,192,192,Elgin,0.01,0.17236024517236026,0.9694132918629468,-3.318485,57.64945
193,193,193,193,193,Newtown,0.04861568222522522,0.5186915952686916,0.8619313867333502,-3.313106,52.51211
194,194,194,194,194,Ruthin,0.8781768096151221,0.3071955666821956,0.11414517064676645,-3.3103108,53.114869999999996
195,195,195,195,195,Ruthin,0.8781768096151221,0.3071955666821956,0.11414517064676645,-3.3103108,53.114869999999996
196,196,196,196,196,Sidmouth,0.01,0.01,1.0,-3.2375599999999998,50.67865
197,197,197,197,197,Barrow-in-Furness,0.08816742246225097,0.01,0.9165348557088588,-3.2188939999999997,54.10896999999999
198,198,198,198,198,Peebles,0.01,0.01,1.0,-3.1936419999999996,55.65306999999999
199,199,199,199,199,Edinburgh,0.01,0.01,1.0,-3.1882669999999997,55.95325
200,200,200,200,200,Cardiff,0.01,0.01,1.0,-3.17909,51.48158
201,201,201,201,201,Llangollen,0.8534330992486527,0.2890624956640625,0.14078715271588008,-3.1716599999999997,52.96921
202,202,202,202,202,Kirkcaldy,0.01,0.1494614030244614,0.9734769432595688,-3.158137,56.11682
203,203,203,203,203,Welshpool,0.2371676862858944,0.5060790260060789,0.6856737082936505,-3.146407,52.66035
204,204,204,204,204,Mold,0.920402697450451,0.2931338091681338,0.07666670277925779,-3.1419029999999997,53.1672
205,205,205,205,205,Mold,0.920402697450451,0.2931338091681338,0.07666670277925779,-3.1419029999999997,53.1672
206,206,206,206,206,Taunton,0.01,0.01,1.0,-3.106849,51.01534
207,207,207,207,207,Wick,0.01,0.17236024517236026,0.9694132918629468,-3.093716,58.43894
208,208,208,208,208,John o' Groats,0.01,0.17236024517236026,0.9694132918629468,-3.0688997000000002,58.63734
209,209,209,209,209,Dalkeith,0.01,0.01,1.0,-3.066606,55.893119999999996
210,210,210,210,210,Oswestry,0.5281906827634896,0.7684615338934615,0.3636103760010164,-3.056412,52.85715
211,211,211,211,211,Blackpool,0.24383802835675794,0.43359375043359377,0.6922222342597526,-3.0356748,53.81751
212,212,212,212,212,Birkenhead,0.9645548562919576,0.3071955666821956,0.032374035178259965,-3.023009,53.389990000000004
213,213,213,213,213,Cupar,0.01,0.1533149206533149,0.9727931841752,-3.010137,56.32023
214,214,214,214,214,Southport,0.7082556877190326,0.3842307738842308,0.2613333622234061,-3.010113,53.64571
215,215,215,215,215,Bridgwater,0.01,0.01,1.0,-3.003632,51.12789
216,216,216,216,216,Langholm,0.01,0.01,1.0,-2.998913,55.153059999999996
217,217,217,217,217,Newport,0.01,0.01,1.0,-2.997664,51.58415
218,218,218,218,218,Axminster,0.01,0.01,1.0,-2.9949369999999997,50.78273
219,219,219,219,219,Wrexham,0.871448622661585,0.28608247866108244,0.12426121025111707,-2.9924939999999998,53.04304000000001
220,220,220,220,220,Liverpool,1.0,0.3005415190505415,0.01,-2.9915726,53.40837
221,221,221,221,221,Weston-super-Mare,0.01,0.01,1.0,-2.977255,51.347409999999996
222,222,222,222,222,Dundee,0.01,0.15247252777747256,0.9729426410582436,-2.9707209999999997,56.462019999999995
223,223,223,223,223,Kirkwall,0.01,0.17236024517236026,0.9694132918629468,-2.9622491,58.984669999999994
224,224,224,224,224,Ambleside,0.0409596675151051,0.01,0.9612249259609807,-2.961333,54.42874000000001
225,225,225,225,225,Orkney Islands,0.01,0.17236024517236026,0.9694132918629468,-2.9605206,58.980940000000004
226,226,226,226,226,Lyme Regis,0.01,0.01,1.0,-2.936639,50.725159999999995
227,227,227,227,227,Carlisle,0.01,0.15857142278357142,0.971860248211688,-2.932931,54.892469999999996
228,228,228,228,228,Chester,0.9820786799955912,0.2870689634120689,0.01935626679851036,-2.893075,53.19339
229,229,229,229,229,Forfar,0.01,0.1360294178860294,0.9758606204996731,-2.889062,56.64356
230,230,230,230,230,Morecambe,0.08323004701244004,0.01,0.9212088919704966,-2.864968,54.074169999999995
231,231,231,231,231,Selkirk,0.01,0.01,1.0,-2.838524,55.55066
232,232,232,232,232,Galashiels,0.01,0.01,1.0,-2.814449,55.62373
233,233,233,233,233,Lancaster,0.08323004701244004,0.01,0.9212088919704966,-2.8007399,54.046569999999996
234,234,234,234,234,St Andrews,0.01,0.1533149206533149,0.9727931841752,-2.7967214,56.33978000000001
235,235,235,235,235,Hawick,0.01,0.01,1.0,-2.780914,55.42706
236,236,236,236,236,Bridport,0.01,0.01,1.0,-2.758301,50.733579999999996
237,237,237,237,237,Shrewsbury,0.21003544783307893,0.22409151772409155,0.7613998422208061,-2.7553267999999997,52.7073
238,238,238,238,238,Penrith,0.04523372029773864,0.24130434324130434,0.9143575126829064,-2.752708,54.6641
239,239,239,239,239,Kendal,0.0409596675151051,0.01,0.9612249259609807,-2.74629,54.32801
240,240,240,240,240,Street,0.01,0.1837748330587748,0.9673878679421632,-2.7429189999999997,51.12468
241,241,241,241,241,Glastonbury,0.01,0.1837748330587748,0.9673878679421632,-2.718454,51.14743
242,242,242,242,242,Hereford,0.01,0.01,1.0,-2.715974,52.0564
243,243,243,243,243,Ludlow,0.01,0.01,1.0,-2.7139129,52.36775
244,244,244,244,244,Preston,0.0776399685292627,0.6212686517462687,0.8162519956310329,-2.70309,53.7632
245,245,245,245,245,Whitchurch,0.4954169452640769,0.6607142916607143,0.4137567304841813,-2.682045,52.96872
246,246,246,246,246,Wells,0.01,0.1837748330587748,0.9673878679421632,-2.6445979,51.20935
247,247,247,247,247,Yeovil,0.01,0.01,1.0,-2.633308,50.94206
248,248,248,248,248,Wigan,0.3749101213027477,1.0,0.4676276883772282,-2.6325074,53.54506
249,249,249,249,249,Warrington,0.6280905247652904,0.7732198125232199,0.2681940979550753,-2.5969501,53.39004
250,250,250,250,250,Arbroath,0.01,0.1360294178860294,0.9758606204996731,-2.591543,56.55911
251,251,251,251,251,Bristol,0.01,0.17236024517236026,0.9694132918629468,-2.58791,51.45451
252,252,252,252,252,Guernsey,0.01,0.01,1.0,-2.5852779999999997,49.46569
253,253,253,253,253,Ross-on-Wye,0.01,0.01,1.0,-2.582446,51.91445
254,254,254,254,254,Jedburgh,0.01,0.01,1.0,-2.5549369,55.47772
255,255,255,255,255,Sedbergh,0.04161502350622002,0.01,0.9606044459852484,-2.5281740000000004,54.32363
256,256,256,256,256,Sedbergh,0.04161502350622002,0.01,0.9606044459852484,-2.5281740000000004,54.32363
257,257,257,257,257,Nantwich,0.5682723799211111,0.6995798316995798,0.33788975745142275,-2.524102,53.067190000000004
258,258,258,258,258,Banff,0.01,0.1837748330587748,0.9673878679421632,-2.524038,57.666509999999995
259,259,259,259,259,Dunbar,0.01,0.1494614030244614,0.9734769432595688,-2.516737,56.00209
260,260,260,260,260,Cinderford,0.01,0.15767044965767044,0.9720202926498728,-2.5009579,51.8253
261,261,261,261,261,Banchory,0.01,0.13214286388214286,0.976550288917144,-2.4909599,57.05386
262,262,262,262,262,Blackburn,0.042990727751410704,0.6880165315630165,0.8372084605891805,-2.487529,53.748580000000004
263,263,263,263,263,Market Drayton,0.3082594346317115,0.6166666611166668,0.5987488956933765,-2.483485,52.90355
264,264,264,264,264,Telford,0.1282654821269274,0.01,0.8785752696379452,-2.4672611,52.67759
265,265,265,265,265,Montrose,0.01,0.1360294178860294,0.9758606204996731,-2.4661150000000003,56.70692
266,266,266,266,266,Turriff,0.01,0.1862416138112416,0.9669500848481742,-2.4623,57.53893000000001
267,267,267,267,267,Weymouth,0.01,0.01,1.0,-2.457621,50.61443
268,268,268,268,268,Crewe,0.5245591191268907,0.6995798316995798,0.379271832277368,-2.4438209,53.10041
269,269,269,269,269,Fortuneswell,0.01,0.01,1.0,-2.4422189999999997,50.55919
270,270,270,270,270,Dorchester,0.01,0.01,1.0,-2.4411810000000003,50.71116
271,271,271,271,271,Alston,0.01,0.1702454037952454,0.9697887807371498,-2.438685,54.812169999999995
272,272,272,272,272,Kelso,0.01,0.01,1.0,-2.432207,55.600030000000004
273,273,273,273,273,Wincanton,0.01,0.1734375001734375,0.9692222234259754,-2.416007,51.05569000000001
274,274,274,274,274,Clitheroe,0.01,0.25,0.9556356817351378,-2.3930830000000003,53.8711
275,275,275,275,275,Sark,0.01,0.01,1.0,-2.3666256000000003,49.43007
276,276,276,276,276,Bath,0.01,0.1734375001734375,0.9692222234259754,-2.3590167,51.38106
277,277,277,277,277,Kidderminster,0.02301716026185359,0.12278761737278762,0.9564208843710944,-2.2496839,52.3886
278,278,278,278,278,Manchester,0.04144922665163227,0.11055776223555776,0.9411420574131109,-2.2426305,53.48076
279,279,279,279,279,Burnley,0.01,0.29838709229838706,0.9470489282931974,-2.2405035,53.78929
280,280,280,280,280,Gloucester,0.01,0.15275228940275226,0.9728929041713,-2.238156,51.86424
281,281,281,281,281,Newcastle-under-Lyme,0.3889254525999239,0.2593457976343458,0.5857944064222632,-2.2273002,53.01321
282,282,282,282,282,Worcester,0.01,0.11388508436388507,0.9797903270126452,-2.221575,52.19364
283,283,283,283,283,Trowbridge,0.01,0.1734375001734375,0.9692222234259754,-2.208853,51.31966
284,284,284,284,284,Shaftesbury,0.01,0.27475247277475245,0.9512430774624928,-2.198083,51.0046
285,285,285,285,285,Alderney,0.01,0.01,1.0,-2.1973557,49.715
286,286,286,286,286,Stoke-on-Trent,0.37946830065836995,0.2530395130030395,0.5958663722505598,-2.179404,53.002669999999995
287,287,287,287,287,Colne,0.01,0.01,1.0,-2.176991,53.85564
288,288,288,288,288,Blandford Forum,0.01,0.01,1.0,-2.165353,50.85691
289,289,289,289,289,Rochdale,0.04016894045346341,0.10714286110714287,0.9429601622308914,-2.1561,53.60971
290,290,290,290,290,Jersey,0.01,0.01,1.0,-2.13125,49.21444
291,291,291,291,291,Wolverhampton,0.023326807248007498,0.12443946387443948,0.9558346292829124,-2.12882,52.586969999999994
292,292,292,292,292,Stafford,0.046204689829002665,0.12324203749824204,0.9343894132327693,-2.12066,52.80669
293,293,293,293,293,Macclesfield,0.17512556696112955,0.103802995978803,0.8157937760933992,-2.119287,53.25866
294,294,294,294,294,Hexham,0.01,0.18256579330756573,0.9676023274893312,-2.1121439,54.97266
295,295,295,295,295,Aberdeen,0.01,0.1862416138112416,0.9669500848481742,-2.094278,57.149719999999995
296,296,296,296,296,Dudley,0.024421961211292028,0.1302816852552817,0.9537611920306736,-2.081112,52.51226
297,297,297,297,297,Cheltenham,0.01,0.01,1.0,-2.0782533,51.899390000000004
298,298,298,298,298,Bromsgrove,0.02346711750163665,0.12518796462518794,0.9555689555155256,-2.061906,52.33559
299,299,299,299,299,Skipton,0.01,0.01,1.0,-2.0162787,53.96285
300,300,300,300,300,Fraserburgh,0.01,0.1862416138112416,0.9669500848481742,-2.007631,57.69335
301,301,301,301,301,Berwick,0.01,0.01,1.0,-2.005395,55.77024
302,302,302,302,302,Poole,0.01,0.01,1.0,-1.987248,50.71505
303,303,303,303,303,Walsall,0.0236448994829942,0.12613636250113636,0.9552323697509114,-1.9829189999999999,52.586209999999994
304,304,304,304,304,Cirencester,0.04523372029773864,0.24130434324130434,0.9143575126829064,-1.968243,51.71849
305,305,305,305,305,Evesham,0.01,0.12296897749796898,0.9781783101868038,-1.9467700000000001,52.09215
306,306,306,306,306,Buxton,0.06931986127403032,0.09244863946744863,0.9179715623193342,-1.91483,53.259080000000004
307,307,307,307,307,Keighley,0.02811825961789388,0.15000000277500006,0.9467628180821652,-1.9123580000000002,53.8678
308,308,308,308,308,Birmingham,0.024082767558448702,0.12847221875347226,0.954403339561114,-1.8904009999999998,52.48624
309,309,309,309,309,Bournemouth,0.01,0.01,1.0,-1.880769,50.719159999999995
310,310,310,310,310,Halifax,0.028899321590326245,0.1541666652791667,0.9452840074733366,-1.8575400000000002,53.727019999999996
311,311,311,311,311,Salisbury,0.01,0.01,1.0,-1.794472,51.06878
312,312,312,312,312,Ringwood,0.01,0.01,1.0,-1.7888169999999999,50.84495
313,313,313,313,313,Huddersfield,0.027378305485868747,0.14605263464605264,0.9481638224718149,-1.7850351000000002,53.64579000000001
314,314,314,314,314,Peterhead,0.01,0.1862416138112416,0.9669500848481742,-1.784066,57.50812
315,315,315,315,315,Swindon,0.04408371253159498,0.01,0.9582673047433232,-1.7797176,51.55577
316,316,316,316,316,Bradford,0.028899321590326245,0.1541666652791667,0.9452840074733366,-1.759398,53.79598000000001
317,317,317,317,317,Ashbourne,0.0884171880305184,0.01,0.9162984823847701,-1.7321790000000001,53.016630000000006
318,318,318,318,318,Marlborough,0.04861568222522522,0.01,0.953977128911117,-1.7270619999999999,51.42007
319,319,319,319,319,Stratford-upon-Avon,0.031252937272889594,0.1111481989861482,0.9506898161507984,-1.7082979999999999,52.19173
320,320,320,320,320,Alnwick,0.01,0.01,1.0,-1.7062990000000002,55.41274
321,321,321,321,321,Otley,0.027523164781754927,0.1468254027718254,0.9478895309269874,-1.691786,53.90583
322,322,322,322,322,Bishop Auckland,0.05563505730105234,0.14839571977339572,0.9209981257565178,-1.6787880000000002,54.663819999999994
323,323,323,323,323,Burton upon Trent,0.048767605671351584,0.01,0.9538333351389628,-1.6371358999999999,52.81403
324,324,324,324,324,Newcastle,0.01,0.15948276053448274,0.9716984802180147,-1.61778,54.97825
325,325,325,325,325,Durham,0.057479315499655424,0.1533149206533149,0.9183793063033872,-1.5848520000000001,54.77525
326,326,326,326,326,Ashington,0.01,0.01,1.0,-1.5659829,55.18298000000001
327,327,327,327,327,Darlington,0.08458338058155716,0.2256097618506097,0.8798915735864629,-1.559458,54.52361
328,328,328,328,328,Leeds,0.02766956383351084,0.1476063848976064,0.9476122847156084,-1.5490774,53.80076
329,329,329,329,329,Harrogate,0.02781752865052617,0.14839571977339572,0.9473320838376784,-1.5418120000000002,53.99211999999999
330,330,330,330,330,Leamington Spa,0.03457673700314828,0.12296897749796898,0.9454455292447974,-1.5200789,52.28519
331,331,331,331,331,Coventry,0.034424191932608296,0.12242646499742645,0.9456863345687124,-1.519693,52.40682
332,332,332,332,332,Blyth,0.01,0.01,1.0,-1.510277,55.12696
333,333,333,333,333,Wakefield,0.027967085242190614,0.14919354614919353,0.9470489282931974,-1.505924,53.6833
334,334,334,334,334,Andover,0.01,0.10925197210925196,0.9806124629804904,-1.4919233,51.2112
335,335,335,335,335,Witney,0.042755160708975816,0.1140410948640411,0.9392877579300786,-1.4850543999999999,51.785940000000004
336,336,336,336,336,Barnsley,0.02273216757618815,0.12126729199626728,0.956960357238884,-1.479726,53.55263000000001
337,337,337,337,337,Derby,0.03275054232568586,0.01,0.9689961914348156,-1.4746186000000001,52.92253
338,338,338,338,338,Sheffield,0.01,0.01,1.0,-1.470085,53.38113000000001
339,339,339,339,339,Nuneaton,0.031718768043201305,0.33841463583841463,0.909918618634294,-1.465382,52.52049
340,340,340,340,340,Northallerton,0.08816742246225097,0.2351694981101695,0.8748021604521821,-1.429959,54.337959999999995
341,341,341,341,341,South Shields,0.01,0.1613372097863372,0.9713695273419918,-1.427406,54.99941999999999
342,342,342,342,342,Chesterfield,0.025292760780037626,0.01,0.9760561209364716,-1.421629,53.23505
343,343,343,343,343,Southampton,0.01,0.01,1.0,-1.4043508999999998,50.9097
344,344,344,344,344,Wetherby,0.02766956383351084,0.1476063848976064,0.9476122847156084,-1.384816,53.92706
345,345,345,345,345,Sunderland,0.06048695289164253,0.1613372097863372,0.9141085820259756,-1.383801,54.90687
346,346,346,346,346,Rotherham,0.01,0.01,1.0,-1.3635008999999998,53.4326
347,347,347,347,347,Castleford,0.026540194518087288,0.14158163789158162,0.9497504784097592,-1.345968,53.72346999999999
348,348,348,348,348,Thirsk,0.08300869150053251,0.1476063848976064,0.895224569431217,-1.341377,54.23385
349,349,349,349,349,Banbury,0.055867425188555205,0.01,0.947112207401834,-1.339775,52.0629
350,350,350,350,350,Stockton,0.08191933763114916,0.218503930343504,0.8836745316607296,-1.3289821000000002,54.57046
351,351,351,351,351,Newbury,0.04433418815620098,0.11825283724325282,0.9370454122400018,-1.3231138999999998,51.40141
352,352,352,352,352,Isle of Wight,0.01,0.01,1.0,-1.304734,50.69385
353,353,353,353,353,Isle of Wight,0.01,0.01,1.0,-1.304734,50.69385
354,354,354,354,354,Abingdon,0.045630509143114575,0.12171052887171055,0.935204654978662,-1.2879528999999998,51.67078
355,355,355,355,355,Shetland Islands,0.01,0.1837748330587748,0.9673878679421632,-1.2659409,60.52965
356,356,356,356,356,Rugby,0.060643654262655215,0.4313471520563471,0.8660450212391282,-1.265032,52.37088
357,357,357,357,357,Oxford,0.0412847458721629,0.11011904861011904,0.9413757222928608,-1.2577263,51.75202
358,358,358,358,358,Middlesbrough,0.08191933763114916,0.218503930343504,0.8836745316607296,-1.234956,54.57423000000001
359,359,359,359,359,Hartlepool,0.08323004701244004,0.222000000222,0.8818133379557449,-1.212926,54.69174
360,360,360,360,360,Loughborough,0.04287261911282211,0.3049450555549451,0.905299243703852,-1.206166,52.7721
361,361,361,361,361,Mansfield,0.026450228039144773,0.01,0.9749604320904366,-1.198674,53.1472
362,362,362,362,362,Nottingham,0.02908785325244323,0.3103448309353448,0.9173904778976169,-1.1581086,52.95478000000001
363,363,363,363,363,Bicester,0.04334898368595885,0.01,0.9589628824938964,-1.1535898999999998,51.8996
364,364,364,364,364,Leicester,0.040745779298977984,0.2898172262898173,0.9099971635201108,-1.1397591999999999,52.63688000000001
365,365,365,365,365,Doncaster,0.02494905449808284,0.13309352338309352,0.9527630071808249,-1.128462,53.522819999999996
366,366,366,366,366,Worksop,0.01,0.01,1.0,-1.122745,53.3093
367,367,367,367,367,Basingstoke,0.01,0.2492514992492515,0.9557683955077252,-1.0923964,51.26654
368,368,368,368,368,Portsmouth,0.01,0.01,1.0,-1.0879769,50.81977
369,369,369,369,369,York,0.030599282295860487,0.16323529591323532,0.9420653907103314,-1.0872979,53.95997
370,370,370,370,370,Selby,0.02781752865052617,0.14839571977339572,0.9473320838376784,-1.067189,53.783519999999996
371,371,371,371,371,Helmsley,0.09723136445045044,0.01,0.9079542578222332,-1.0562636,54.24651
372,372,372,372,372,Towcester,0.01,0.01,1.0,-0.9896879999999999,52.13511
373,373,373,373,373,Reading,0.01,0.253810976878811,0.9549593093171472,-0.9781303,51.45426
374,374,374,374,374,Retford,0.01,0.01,1.0,-0.9455030000000001,53.32136
375,375,375,375,375,Petersfield,0.01,0.01,1.0,-0.93899,51.00759
376,376,376,376,376,Northampton,0.01,0.42366412054866415,0.9248175247182476,-0.9026559999999999,52.24048
377,377,377,377,377,Melton Mowbray,0.028042468256333167,0.2991913705491914,0.9203594253370534,-0.887126,52.7664
378,378,378,378,378,Aylesbury,0.048767605671351584,0.01,0.9538333351389628,-0.8084,51.81561
379,379,379,379,379,Newark-on-Trent,0.026699117090979604,0.01,0.9747247974329858,-0.80657,53.07004000000001
380,380,380,380,380,Malton,0.01,0.2151162797151163,0.9618259543819182,-0.7978970000000001,54.13684
381,381,381,381,381,Chichester,0.01,0.01,1.0,-0.774936,50.83761
382,382,382,382,382,Gainsborough,0.01,0.1545960965295961,0.9725656748507646,-0.774465,53.40058000000001
383,383,383,383,383,Milton Keynes,0.01,0.01,1.0,-0.7594171,52.040620000000004
384,384,384,384,384,Aldershot,0.01,0.4028225801528226,0.9285160285735952,-0.7557509,51.24837
385,385,385,385,385,High Wycombe,0.01,0.3083333305583334,0.9452840074733366,-0.748229,51.628609999999995
386,386,386,386,386,Midhurst,0.01,0.11159516823659517,0.9801965936634222,-0.737274,50.9869
387,387,387,387,387,Kettering,0.01,0.4183417121683417,0.9257620331257516,-0.7302489999999999,52.39632
388,388,388,388,388,Wellingborough,0.01,0.01,1.0,-0.693964,52.30242
389,389,389,389,389,Corby,0.01,0.4599447480849447,0.9183793063033872,-0.6842333,52.4923
390,390,390,390,390,Bognor Regis,0.01,0.01,1.0,-0.673061,50.783
391,391,391,391,391,Scunthorpe,0.01,0.2086466169586466,0.9629740885592356,-0.654413,53.58865
392,392,392,392,392,Grantham,0.028092949880785183,0.29972997029973,0.920216124009325,-0.643582,52.912519999999994
393,393,393,393,393,Whitby,0.08002889195833211,0.21346153333846155,0.8863590924446221,-0.613347,54.48633
394,394,394,394,394,Slough,0.01,0.4459821413209822,0.9208570404287024,-0.5950406,51.51054
395,395,395,395,395,Guildford,0.01,0.27936241377936244,0.950425127272262,-0.570409,51.23622
396,396,396,396,396,Woking,0.01,0.2841296972841297,0.9495791077497948,-0.5600349,51.31677
397,397,397,397,397,Lincoln,0.01,0.01,1.0,-0.540579,53.23069
398,398,398,398,398,Bedford,0.01,0.20606435458106434,0.96343230809687,-0.46677820000000003,52.13864
399,399,399,399,399,Heathrow,0.01,0.3343373560843373,0.9406693107649337,-0.4542955,51.47002
400,400,400,400,400,Driffield,0.01,0.218503930343504,0.9612249259609807,-0.443377,54.006
401,401,401,401,401,Beverley,0.01,0.2331932818581933,0.9586181713962671,-0.435093,53.84196
402,402,402,402,402,Luton,0.01,0.01,1.0,-0.4200255,51.87867
403,403,403,403,403,Scarborough,0.07881633160998065,0.21022727083522727,0.8880809243772795,-0.399752,54.28311
404,404,404,404,404,Worthing,0.01,0.01,1.0,-0.372882,50.81787
405,405,405,405,405,Dorking,0.01,0.2694174797694175,0.95218980186991,-0.332378,51.2322
406,406,406,406,406,Hull,0.01,0.20555555833055555,0.9635226716488908,-0.3274198,53.767619999999994
407,407,407,407,407,Horsham,0.01,0.11659663399159664,0.9793089625870274,-0.325858,51.06288
408,408,408,408,408,Biggleswade,0.01,0.21401028958901028,0.9620221934853542,-0.26421999999999995,52.08694000000001
409,409,409,409,409,Peterborough,0.01,0.2318941517318941,0.9588486353872536,-0.2405299,52.5695
410,410,410,410,410,Welwyn Garden City,0.01,0.01,1.0,-0.208661,51.80317
411,411,411,411,411,Bridlington,0.01,0.2455752208705753,0.9564208843710944,-0.198802,54.08535
412,412,412,412,412,Stevenage,0.01,0.01,1.0,-0.19661199999999998,51.90376
413,413,413,413,413,Crawley,0.01,0.01,1.0,-0.18722750000000002,51.109140000000004
414,414,414,414,414,Huntingdon,0.01,0.2441348987441349,0.9566764630277648,-0.182552,52.33146
415,415,415,415,415,Hove,0.01,0.01,1.0,-0.168749,50.82793
416,416,416,416,416,Spalding,0.01,0.01,1.0,-0.1537024,52.7901
417,417,417,417,417,Brighton,0.01,0.01,1.0,-0.137163,50.82253
418,418,418,418,418,London,0.01,0.1446316820196317,0.974334042781602,-0.12775830000000002,51.50735
419,419,419,419,419,Grimsby,0.01,0.20555555833055555,0.9635226716488908,-0.08078400000000001,53.56746999999999
420,420,420,420,420,Boston,0.01,0.01,1.0,-0.026576999999999996,52.97894
421,421,421,421,421,Royston,0.01,0.2299723809799724,0.9591896531516938,-0.024066,52.048140000000004
422,422,422,422,422,Louth_Lincs,0.01,0.218503930343504,0.9612249259609807,-0.007711,53.36596
423,423,423,423,423,Lewes,0.01,0.01,1.0,0.00878,50.873870000000004
424,424,424,424,424,Chatteris,0.01,0.2378571411128572,0.9577903723175322,0.054012,52.4561
425,425,425,425,425,Uckfield,0.01,0.01,1.0,0.095913,50.966409999999996
426,426,426,426,426,Cambridge,0.01,0.2378571411128572,0.9577903723175322,0.12181700000000001,52.20534
427,427,427,427,427,Bishop's Stortford,0.01,0.01,1.0,0.15365020000000001,51.87216
428,428,428,428,428,Wisbech,0.01,0.2225935865975936,0.9604990628782588,0.158797,52.66631999999999
429,429,429,429,429,Sevenoaks,0.01,0.01,1.0,0.190898,51.27241
430,430,430,430,430,Tunbridge Wells,0.01,0.01,1.0,0.26369499999999996,51.13238
431,431,431,431,431,Eastbourne,0.01,0.01,1.0,0.29047199999999995,50.768029999999996
432,432,432,432,432,Brentwood,0.10508844214664087,0.01,0.9005163772242479,0.30717490000000003,51.62047000000001
433,433,433,433,433,Skegness,0.01,0.19450935169450934,0.9654828466833376,0.337881,53.1464
434,434,434,434,434,Downham Market,0.01,0.2299723809799724,0.9591896531516938,0.385472,52.606609999999996
435,435,435,435,435,King's Lynn,0.03546735052496078,0.18920455068920453,0.9328485546263678,0.4022963,52.75168000000001
436,436,436,436,436,Bexhill,0.01,0.01,1.0,0.4662071,50.849909999999994
437,437,437,437,437,Chelmsford,0.09603466982981074,0.01,0.9090871262223702,0.4685497,51.73559
438,438,438,438,438,Mildenhall,0.01,0.24776785937276785,0.9560318532751988,0.5156095,52.34757000000001
439,439,439,439,439,Medway,0.037513543024188835,0.01,0.9644871240556148,0.5417860999999999,51.404740000000004
440,440,440,440,440,Braintree,0.04310948662474159,0.01,0.9591896531516938,0.5509269,51.88009
441,441,441,441,441,Gillingham,0.038062520611465984,0.01,0.9639675951870452,0.551438,51.38632
442,442,442,442,442,Hastings,0.01,0.01,1.0,0.573453,50.85426
443,443,443,443,443,Maldon,0.04787004244061356,0.01,0.9546830479946185,0.6714479999999999,51.731809999999996
444,444,444,444,444,Southend,0.037513543024188835,0.01,0.9644871240556148,0.7077123000000001,51.54593
445,445,445,445,445,Bury St Edmunds,0.01,0.23125000485625,0.9589628824938964,0.7104931999999999,52.24292
446,446,446,446,446,Thetford,0.03562930059081317,0.1900684914400685,0.932541761749478,0.751657,52.412859999999995
447,447,447,447,447,Ashford,0.040429101974790486,0.01,0.9617272192746688,0.8750190000000001,51.14647
448,448,448,448,448,Faversham,0.03981028917619196,0.01,0.9623129819184256,0.889358,51.31599
449,449,449,449,449,Colchester,0.04172629427625875,0.01,0.9604990628782588,0.891874,51.89593
450,450,450,450,450,New Romney,0.01,0.01,1.0,0.939473,50.98512
451,451,451,451,451,Canterbury,0.040745779298977984,0.01,0.9614273206197308,1.0789089,51.280229999999996
452,452,452,452,452,Ipswich,0.04032463526109503,0.01,0.9618259543819182,1.14822,52.05674000000001
453,453,453,453,453,Clacton,0.04106745822880311,0.01,0.9611227437427547,1.153035,51.78953
454,454,454,454,454,Folkestone,0.040429101974790486,0.01,0.9617272192746688,1.169456,51.0814
455,455,455,455,455,Sheringham,0.04408371253159498,0.01,0.9582673047433232,1.2109589,52.944419999999994
456,456,456,456,456,Harwich,0.04172629427625875,0.01,0.9604990628782588,1.260297,51.93473
457,457,457,457,457,Norwich,0.042638344737054884,0.01,0.9596358078009104,1.297355,52.63089
458,458,458,458,458,Cromer,0.04334898368595885,0.01,0.9589628824938964,1.301866,52.93145
459,459,459,459,459,Dover,0.03981028917619196,0.01,0.9623129819184256,1.3134027,51.12788
460,460,460,460,460,Felixstowe,0.040429101974790486,0.01,0.9617272192746688,1.3512549999999999,51.961729999999996
461,461,461,461,461,Margate,0.038062520611465984,0.01,0.9639675951870452,1.3868339,51.38965
462,462,462,462,462,Ramsgate,0.038062520611465984,0.01,0.9639675951870452,1.4198950000000001,51.33555
463,463,463,463,463,Great Yarmouth,0.0412847458721629,0.01,0.9609171481952408,1.728047,52.59823000000001
464,464,464,464,464,Lowestoft,0.0412847458721629,0.01,0.9609171481952408,1.7534490000000005,52.48114
465,465,465,465,465,Swaffham,0.03881998426463135,0.20708955058208955,0.9265009459857408,0.687481,52.64747
466,466,466,466,466,Dereham,0.04334898368595885,0.01,0.9589628824938964,0.9378270000000001,52.681619999999995
467,467,467,467,467,Ely,0.01,0.2378571411128572,0.9577903723175322,0.262363,52.39954
468,468,468,468,468,March,0.01,0.2338483206088484,0.9585019545119232,0.088622,52.551719999999996
469,469,469,469,469,St Neots,0.01,0.20969773145969767,0.9627874521220906,-0.26510300000000003,52.23008
470,470,470,470,470,Banham,0.0412847458721629,0.01,0.9609171481952408,1.0402849,52.45125
471,471,471,471,471,Holt,0.04728979896598839,0.01,0.9552323697509114,1.086747,52.90936
472,472,472,472,472,Cromer,0.04334898368595885,0.01,0.9589628824938964,1.301866,52.93145
473,473,473,473,473,Hunstanton,0.038062520611465984,0.01,0.9639675951870452,0.49103199999999997,52.93891
474,474,474,474,474,Horncastle,0.01,0.2030487759530488,0.9639675951870452,-0.11245,53.20731
475,475,475,475,475,Market Weighton,0.01,0.2331932818581933,0.9586181713962671,-0.6677465,53.86484
476,476,476,476,476,Hawes,0.05533912766702168,0.01,0.9476122847156084,-2.1968695,54.30383000000001
477,477,477,477,477,Reeth,0.09289067821236653,0.24776785937276785,0.8680953136033832,-1.9428115000000001,54.38946
478,478,478,478,478,Aysgarth,0.01,0.01,1.0,-1.9967433999999997,54.29159
479,479,479,479,479,Stanhope,0.01,0.15857142278357142,0.971860248211688,-2.011302,54.74946
480,480,480,480,480,Keswick,0.041950627863285926,0.01,0.9602868193310042,-3.134706,54.60128
481,481,481,481,481,Oxenholme,0.04229169159124807,0.01,0.9599637757880836,-2.7243327999999996,54.30134
