,placename,preposition_drop_determiner,preposition_drop_no_determiner,preposition_retained,preposition_drop_reduced_determiner,longitude,latitude
0,Dingle,0.01,0.244134898744135,0.956676463027765,0.01,-10.2640135,52.14094
1,Tralee,0.01,0.243421057743421,0.956803021245037,0.01,-9.6999325,52.27131
2,Killarney,0.01,0.243421057743421,0.956803021245037,0.01,-9.5044265,52.05994
3,Bantry,0.01,0.243421057743421,0.956803021245037,0.01,-9.4539805,51.68035
4,Mayo,0.01,0.01,1,0.01,-9.4289369,54.01526
5,Ballycastle,0.01,0.01,1,0.01,-9.3724643,54.27967
6,Abbeyfeale,0.01,0.243421057743421,0.956803021245037,0.01,-9.2970823,52.38618
7,Ennistymon,0.01,0.243421057743421,0.956803021245037,0.01,-9.2934951,52.94037
8,Galway,0.01,0.243421057743421,0.956803021245037,0.01,-9.0567905,53.27067
9,Claremorris,0.01,0.01,1,0.01,-9.0017356,53.72388
10,Clare,0.01,0.243421057743421,0.956803021245037,0.01,-8.9811351,52.90453
11,Adare,0.01,0.243421057743421,0.956803021245037,0.01,-8.7925892,52.56363
12,Charleville,0.01,0.243421057743421,0.956803021245037,0.01,-8.6810176,52.36206
13,Mallow,0.01,0.243421057743421,0.956803021245037,0.01,-8.6539164,52.13898
14,Limerick,0.01,0.243421057743421,0.956803021245037,0.01,-8.6267343,52.66384
15,Loughrea,0.01,0.239224133864224,0.957547843438129,0.01,-8.5660931,53.19891
16,Sligo,0.01,0.01,1,0.01,-8.4760888,54.27661
17,Cork,0.01,0.239224133864224,0.957547843438129,0.01,-8.4756035,51.89851
18,Nenagh,0.01,0.243421057743421,0.956803021245037,0.01,-8.19834,52.8635
19,Roscommon,0.01,0.01,1,0.01,-8.1890955,53.62759
20,Tipperary,0.01,0.239224133864224,0.957547843438129,0.01,-8.1618514,52.47379
21,Donegal,0.01,0.01,1,0.01,-8.1096143,54.65383
22,Leitrim,0.01,0.01,1,0.01,-8.0020132,54.12469
23,Athlone,0.207767314610675,0.307877217682877,0.748678525385018,0.01,-7.9406898,53.42393
24,Longford,0.195989121146208,0.326726849201727,0.756483523301978,0.01,-7.7932573,53.72763
25,Offaly,0.205939450130395,0.305168623430169,0.750889600854096,0.01,-7.7122229,53.23569
26,Fermanagh,0.01,0.01,1,0.01,-7.6318728,54.34383
27,Enniskillen,0.01,0.01,1,0.01,-7.6315336,54.34382
28,Doon,0.01,0.01,1,0.01,-7.60964,54.18593
29,Westmeath,0.204440617434405,0.302947596677948,0.752702535005412,0.01,-7.4653217,53.53453
30,Strabane,0.01,0.01,1,0.01,-7.4633103,54.82739
31,Balivanich,0.01,0.01,1,0.01,-7.3743509,57.47227
32,Cavan,0.205337285942138,0.304276322179276,0.751617926158944,0.01,-7.3633319,53.98972
33,Mullingar,0.204440617434405,0.302947596677948,0.752702535005412,0.01,-7.3401868,53.52582
34,Laois,0.206241856102458,0.305616744305617,0.750523714646184,0.01,-7.3323007,52.9943
35,Omagh,0.01,0.01,1,0.01,-7.3099597,54.59771
36,Derry,0.01,0.01,1,0.01,-7.3085748,54.99661
37,Derry,0.01,0.01,1,0.01,-7.3085748,54.99661
38,Kilkenny,0.20296344535815,0.300758676675759,0.754489369602193,0.01,-7.2447879,52.65415
39,Tyrone,0.01,0.01,1,0.01,-7.131232,54.49121
40,Waterford,0.187517628839215,0.27787049052787,0.773173203538115,0.01,-7.1100702,52.25932
41,Western Isles,0.01,0.01,1,0.01,-7.0194034,57.75989
42,Monaghan,0.01,0.01,1,0.01,-6.9683132,54.2492
43,Carlow,0.206545154196589,0.306066183306066,0.750156843549421,0.01,-6.9341359,52.83651
44,Kildare,0.20296344535815,0.300758676675759,0.754489369602193,0.01,-6.8194708,53.21204
45,Dungannon,0.01,0.01,1,0.01,-6.7669352,54.50827
46,Cookstown,0.01,0.01,1,0.01,-6.7443895,54.64182
47,Coleraine,0.01,0.01,1,0.01,-6.6646103,55.13258
48,Meath,0.20296344535815,0.300758676675759,0.754489369602193,0.01,-6.6564169,53.60555
49,Armagh,0.01,0.01,1,0.01,-6.652792,54.35028
50,Armagh,0.01,0.01,1,0.01,-6.652792,54.35028
51,Magherafelt,0.01,0.01,1,0.01,-6.6079805,54.75537
52,Dunvegan,0.01,0.01,1,0.01,-6.5813982,57.4366
53,Louth,0.196160200507842,0.290677379165677,0.762718854613663,0.01,-6.4889423,53.92523
54,Wexford,0.204738635622428,0.303389210178389,0.752342065686177,0.01,-6.4633381,52.33692
55,Craigavon,0.01,0.01,1,0.01,-6.4175653,54.44293
56,Stornoway,0.01,0.01,1,0.01,-6.3848692,58.20943
57,Drogheda,0.204738635622428,0.303389210178389,0.752342065686177,0.01,-6.3560985,53.71786
58,Rosslare,0.20296344535815,0.300758676675759,0.754489369602193,0.01,-6.3414908,52.25131
59,Newry,0.205037525125005,0.303832114053832,0.751980611478091,0.01,-6.34023,54.1751
60,Scilly Isles,0.01,0.01,1,0.01,-6.3274966,49.92773
61,Ballymena,0.01,0.01,1,0.01,-6.2802213,54.86529
62,Banbridge,0.205037525125005,0.303832114053832,0.751980611478091,0.01,-6.2704803,54.34873
63,Dublin,0.20296344535815,0.300758676675759,0.754489369602193,0.01,-6.2603097,53.34981
64,Antrim,0.01,0.01,1,0.01,-6.2072498,54.71953
65,Antrim,0.01,0.01,1,0.01,-6.2072498,54.71953
66,Portree,0.01,0.01,1,0.01,-6.1960231,57.41247
67,Islay,0.01,0.01,1,0.01,-6.177067,55.73625
68,Wicklow,0.20296344535815,0.300758676675759,0.754489369602193,0.01,-6.044589,52.98082
69,Kilkeel,0.204738635622428,0.303389210178389,0.752342065686177,0.01,-6.007004,54.06312
70,Mull,0.01,0.01,1,0.01,-6.000887,56.4392
71,Belfast,0.01,0.01,1,0.01,-5.93012,54.59728
72,Broadford,0.01,0.01,1,0.01,-5.9096592,57.24139
73,Down,0.206849344412785,0.306516940431517,0.749788987563808,0.01,-5.7156922,54.32875
74,Kyle of Lochalsh,0.01,0.01,1,0.01,-5.7143293,57.28261
75,Campbeltown,0.01,0.01,1,0.01,-5.605374,55.42412
76,Penzance,0.01,0.01,1,0.01,-5.537592,50.1188
77,Oban,0.01,0.01,1,0.01,-5.471047,56.41516
78,Lochgilphead,0.01,0.01,1,0.01,-5.4323449,56.03829
79,Helston,0.01,0.01,1,0.01,-5.274996,50.10159
80,Redruth,0.01,0.01,1,0.01,-5.226666,50.23302
81,Ullapool,0.01,0.198214281948214,0.964825433375716,0.01,-5.161313,57.89542
82,Ballachulish,0.01,0.01,1,0.01,-5.13372,56.67393
83,Fort William,0.01,0.01,1,0.01,-5.1052179,56.81982
84,Achnasheen,0.01,0.247767859372768,0.956031853275199,0.01,-5.0787658,57.57859
85,Newquay,0.01,0.01,1,0.01,-5.073719,50.4155
86,Falmouth,0.01,0.01,1,0.01,-5.06627,50.15257
87,Rothesay,0.01,0.01,1,0.01,-5.055793,55.83596
88,Truro,0.01,0.01,1,0.01,-5.051041,50.2632
89,Milford Haven,0.01,0.01,1,0.01,-5.0426971,51.71431
90,Stranraer,0.01,0.01,1,0.01,-5.024055,54.90337
91,Fishguard,0.01,0.01,1,0.01,-4.975989,51.99393
92,Inchnadamph,0.01,0.191379304316379,0.966038323994946,0.01,-4.974295,58.15221
93,Haverfordwest,0.01,0.01,1,0.01,-4.971319,51.80047
94,Dunoon,0.01,0.01,1,0.01,-4.926214,55.95097
95,Pembroke,0.01,0.01,1,0.01,-4.908637,51.67404
96,Girvan,0.01,0.01,1,0.01,-4.8542179,55.24016
97,Wadebridge,0.01,0.01,1,0.01,-4.836456,50.51665
98,Invergarry,0.01,0.239224133864224,0.957547843438129,0.01,-4.800261,57.07095
99,St Austell,0.01,0.01,1,0.01,-4.7834252,50.34038
100,Greenock,0.01,0.01,1,0.01,-4.771983,55.95648
101,Helensburgh,0.01,0.01,1,0.01,-4.734014,56.00232
102,Bodmin,0.01,0.01,1,0.01,-4.7188629,50.4715
103,Tenby,0.01,0.01,1,0.01,-4.703579,51.67274
104,Camelford,0.01,0.01,1,0.01,-4.682364,50.62206
105,Irvine,0.01,0.01,1,0.01,-4.6696364,55.61157
106,Cardigan,0.01,0.01,1,0.01,-4.660864,52.0837
107,Holyhead,0.347822447338229,0.30924963555925,0.61584952080233,0.01,-4.633038,53.30944
108,Ayr,0.01,0.01,1,0.01,-4.629179,55.45856
109,Dumbarton,0.01,0.01,1,0.01,-4.564554,55.94529
110,Bude,0.01,0.01,1,0.01,-4.543678,50.82664
111,Isle of Man,0.046863765162844,0.01,0.955635681735138,0.01,-4.5126331,54.27697
112,Kilmarnock,0.01,0.01,1,0.01,-4.498792,55.61472
113,Newton Stewart,0.01,0.01,1,0.01,-4.483164,54.9603
114,Liskeard,0.01,0.01,1,0.01,-4.464719,50.45552
115,Altnaharra,0.01,0.179032260929032,0.968229455464804,0.01,-4.442655,58.28023
116,Pwllheli,0.734213399354042,0.307195566682196,0.250430642649824,0.01,-4.4176339,52.88882
117,Lairg,0.01,0.191379304316379,0.966038323994946,0.01,-4.402414,58.02206
118,Launceston,0.01,0.01,1,0.01,-4.3604516,50.63683
119,Carmarthen,0.01,0.01,1,0.01,-4.312131,51.85762
120,Llangefni,0.844708618810011,0.305504592680505,0.146128451173643,0.01,-4.311402,53.25579
121,Caernarfon,0.784723522294341,0.315939272565939,0.201062596580663,0.01,-4.273911,53.13955
122,Cumnock,0.01,0.01,1,0.01,-4.2658289,55.45355
123,Aberaeron,0.01,0.01,1,0.01,-4.2581619,52.24279
124,Alness,0.01,0.179032260929032,0.968229455464804,0.01,-4.256825,57.69595
125,Glasgow,0.01,0.01,1,0.01,-4.251806,55.86424
126,Dalwhinnie,0.01,0.196808508571808,0.965074856477072,0.01,-4.242783,56.9366
127,Inverness,0.01,0.191379304316379,0.966038323994946,0.01,-4.224721,57.47777
128,Saltash,0.01,0.01,1,0.01,-4.21643,50.40921
129,Bideford,0.01,0.01,1,0.01,-4.206666,51.01668
130,Invergordon,0.01,0.179032260929032,0.968229455464804,0.01,-4.172882,57.68811
131,Llanelli,0.01,0.01,1,0.01,-4.160248,51.68089
132,Plymouth,0.01,0.01,1,0.01,-4.1426565,50.37546
133,Tavistock,0.01,0.01,1,0.01,-4.141654,50.55112
134,Porthmadog,0.755111314543842,0.315939272565939,0.22909548792871,0.01,-4.133384,52.92784
135,Bangor,0.854111684225701,0.308905382933905,0.136623288878733,0.01,-4.129263,53.22739
136,Tywyn,0.103007482896212,0.549504945549505,0.804972556072184,0.01,-4.087249,52.58701
137,Aberystwyth,0.01,0.01,1,0.01,-4.08292,52.4153
138,Lampeter,0.01,0.01,1,0.01,-4.078509,52.1129
139,Barnstaple,0.01,0.01,1,0.01,-4.058338,51.07816
140,Tain,0.01,0.183774833058775,0.967387867942163,0.01,-4.05523,57.8115
141,Okehampton,0.01,0.01,1,0.01,-4.004263,50.73831
142,Llandeilo,0.01,0.01,1,0.01,-3.99143,51.88469
143,Motherwell,0.01,0.01,1,0.01,-3.9810968,55.78321
144,Golspie,0.01,0.183774833058775,0.967387867942163,0.01,-3.976086,57.97341
145,Airdrie,0.01,0.01,1,0.01,-3.962566,55.86627
146,Swansea,0.01,0.01,1,0.01,-3.943646,51.62144
147,Stirling,0.01,0.01,1,0.01,-3.9369029,56.11652
148,Tregaron,0.01,0.01,1,0.01,-3.934385,52.22
149,Tregaron,0.01,0.01,1,0.01,-3.934385,52.22
150,Castle Douglas,0.01,0.01,1,0.01,-3.931414,54.94042
151,Dolgellau,0.679108397809267,0.295737119920737,0.304630060974469,0.01,-3.8844,52.74215
152,Aberfeldy,0.01,0.208646616958647,0.962974088559236,0.01,-3.866969,56.62175
153,Machynlleth,0.143170953575024,0.509174316509174,0.774108109279327,0.01,-3.853485,52.59027
154,Brora,0.01,0.183774833058775,0.967387867942163,0.01,-3.852548,58.01216
155,Llandudno,0.912017561519112,0.308905382933905,0.081805852800482,0.01,-3.827609,53.32406
156,Llandudno,0.912017561519112,0.308905382933905,0.081805852800482,0.01,-3.827609,53.32406
157,Aviemore,0.01,0.17236024517236,0.969413291862947,0.01,-3.823812,57.19449
158,Dalbeattie,0.01,0.01,1,0.01,-3.822527,54.93422
159,Falkirk,0.01,0.01,1,0.01,-3.7839131,56.00188
160,Kingsbridge,0.01,0.01,1,0.01,-3.777493,50.28395
161,Pitlochry,0.01,0.210227270835227,0.962693641459093,0.01,-3.729711,56.70436
162,Colwyn Bay,0.912017561519112,0.308905382933905,0.081805852800482,0.01,-3.72764,53.29318
163,Totnes,0.01,0.01,1,0.01,-3.685797,50.43374
164,Grantown-on-Spey,0.01,0.17236024517236,0.969413291862947,0.01,-3.609628,57.33041
165,Dumfries,0.01,0.01,1,0.01,-3.60512,55.07086
166,Whitehaven,0.0397089930071,0.01,0.962408762359124,0.01,-3.589233,54.5497
167,Dartmouth,0.01,0.01,1,0.01,-3.578807,50.35252
168,Bridgend,0.01,0.01,1,0.01,-3.576945,51.50429
169,Paignton,0.01,0.01,1,0.01,-3.564235,50.43508
170,Workington,0.045630509143115,0.01,0.956803021245037,0.01,-3.542752,54.64357
171,Llanidloes,0.01,0.264285713889286,0.953100577834288,0.01,-3.540195,52.44779
172,Exeter,0.01,0.01,1,0.01,-3.533899,50.71841
173,Torquay,0.01,0.01,1,0.01,-3.525315,50.46192
174,Thurso,0.01,0.183774833058775,0.967387867942163,0.01,-3.52208,58.59357
175,Livingston,0.01,0.01,1,0.01,-3.518068,55.90071
176,Rhyl,0.912017561519112,0.308905382933905,0.081805852800482,0.01,-3.491634,53.31914
177,Tiverton,0.01,0.01,1,0.01,-3.491207,50.90205
178,Tiverton,0.01,0.01,1,0.01,-3.491207,50.90205
179,Minehead,0.01,0.01,1,0.01,-3.481152,51.20428
180,Dunfermline,0.01,0.01,1,0.01,-3.452151,56.07174
181,Perth,0.01,0.136699511011699,0.975741695170992,0.01,-3.4308381,56.39499
182,Prestatyn,0.917122135729615,0.310634332810634,0.076666702779258,0.01,-3.407613,53.33651
183,Builth Wells,0.01,0.01,1,0.01,-3.404592,52.15002
184,Braemar,0.01,0.17236024517236,0.969413291862947,0.01,-3.3979439,57.00647
185,Brecon,0.01,0.01,1,0.01,-3.391463,51.94895
186,Merthyr Tydfil,0.01,0.01,1,0.01,-3.381646,51.74873
187,Llandrindod Wells,0.01,0.01,1,0.01,-3.377742,52.2417
188,Corwen,0.854527524949026,0.298922806048923,0.138001148380399,0.01,-3.369242,52.98005
189,Cockermouth,0.045630509143115,0.01,0.956803021245037,0.01,-3.367985,54.66326
190,Lockerbie,0.01,0.01,1,0.01,-3.349008,55.12224
191,Blairgowrie,0.01,0.140151513890152,0.975129094306062,0.01,-3.3378318,56.58941
192,Elgin,0.01,0.17236024517236,0.969413291862947,0.01,-3.318485,57.64945
193,Newtown,0.048615682225225,0.518691595268692,0.86193138673335,0.01,-3.313106,52.51211
194,Ruthin,0.878176809615122,0.307195566682196,0.114145170646766,0.01,-3.3103108,53.11487
195,Ruthin,0.878176809615122,0.307195566682196,0.114145170646766,0.01,-3.3103108,53.11487
196,Sidmouth,0.01,0.01,1,0.01,-3.23756,50.67865
197,Barrow-in-Furness,0.088167422462251,0.01,0.916534855708859,0.01,-3.218894,54.10897
198,Peebles,0.01,0.01,1,0.01,-3.193642,55.65307
199,Edinburgh,0.01,0.01,1,0.01,-3.188267,55.95325
200,Cardiff,0.01,0.01,1,0.01,-3.17909,51.48158
201,Llangollen,0.853433099248653,0.289062495664062,0.14078715271588,0.01,-3.17166,52.96921
202,Kirkcaldy,0.01,0.149461403024461,0.973476943259569,0.01,-3.158137,56.11682
203,Welshpool,0.237167686285894,0.506079026006079,0.68567370829365,0.01,-3.146407,52.66035
204,Mold,0.920402697450451,0.293133809168134,0.076666702779258,0.01,-3.141903,53.1672
205,Mold,0.920402697450451,0.293133809168134,0.076666702779258,0.01,-3.141903,53.1672
206,Taunton,0.01,0.01,1,0.01,-3.106849,51.01534
207,Wick,0.01,0.17236024517236,0.969413291862947,0.01,-3.093716,58.43894
208,John o' Groats,0.01,0.17236024517236,0.969413291862947,0.01,-3.0688997,58.63734
209,Dalkeith,0.01,0.01,1,0.01,-3.066606,55.89312
210,Oswestry,0.52819068276349,0.768461533893461,0.363610376001016,0.01,-3.056412,52.85715
211,Blackpool,0.243838028356758,0.433593750433594,0.692222234259753,0.01,-3.0356748,53.81751
212,Birkenhead,0.964554856291958,0.307195566682196,0.03237403517826,0.01,-3.023009,53.38999
213,Cupar,0.01,0.153314920653315,0.9727931841752,0.01,-3.010137,56.32023
214,Southport,0.708255687719033,0.384230773884231,0.261333362223406,0.01,-3.010113,53.64571
215,Bridgwater,0.01,0.01,1,0.01,-3.003632,51.12789
216,Langholm,0.01,0.01,1,0.01,-2.998913,55.15306
217,Newport,0.01,0.01,1,0.01,-2.997664,51.58415
218,Axminster,0.01,0.01,1,0.01,-2.994937,50.78273
219,Wrexham,0.871448622661585,0.286082478661082,0.124261210251117,0.01,-2.992494,53.04304
220,Liverpool,1,0.300541519050541,0.01,0.01,-2.9915726,53.40837
221,Weston-super-Mare,0.01,0.01,1,0.01,-2.977255,51.34741
222,Dundee,0.01,0.152472527777473,0.972942641058244,0.01,-2.970721,56.46202
223,Kirkwall,0.01,0.17236024517236,0.969413291862947,0.01,-2.9622491,58.98467
224,Ambleside,0.040959667515105,0.01,0.961224925960981,0.01,-2.961333,54.42874
225,Orkney Islands,0.01,0.17236024517236,0.969413291862947,0.01,-2.9605206,58.98094
226,Lyme Regis,0.01,0.01,1,0.01,-2.936639,50.72516
227,Carlisle,0.01,0.158571422783571,0.971860248211688,0.01,-2.932931,54.89247
228,Chester,0.982078679995591,0.287068963412069,0.01935626679851,0.01,-2.893075,53.19339
229,Forfar,0.01,0.136029417886029,0.975860620499673,0.01,-2.889062,56.64356
230,Morecambe,0.08323004701244,0.01,0.921208891970497,0.01,-2.864968,54.07417
231,Selkirk,0.01,0.01,1,0.01,-2.838524,55.55066
232,Galashiels,0.01,0.01,1,0.01,-2.814449,55.62373
233,Lancaster,0.08323004701244,0.01,0.921208891970497,0.01,-2.8007399,54.04657
234,St Andrews,0.01,0.153314920653315,0.9727931841752,0.01,-2.7967214,56.33978
235,Hawick,0.01,0.01,1,0.01,-2.780914,55.42706
236,Bridport,0.01,0.01,1,0.01,-2.758301,50.73358
237,Shrewsbury,0.210035447833079,0.224091517724092,0.761399842220806,0.01,-2.7553268,52.7073
238,Penrith,0.045233720297739,0.241304343241304,0.914357512682906,0.01,-2.752708,54.6641
239,Kendal,0.040959667515105,0.01,0.961224925960981,0.01,-2.74629,54.32801
240,Street,0.01,0.183774833058775,0.967387867942163,0.01,-2.742919,51.12468
241,Glastonbury,0.01,0.183774833058775,0.967387867942163,0.01,-2.718454,51.14743
242,Hereford,0.01,0.01,1,0.01,-2.715974,52.0564
243,Ludlow,0.01,0.01,1,0.01,-2.7139129,52.36775
244,Preston,0.077639968529263,0.621268651746269,0.816251995631033,0.01,-2.70309,53.7632
245,Whitchurch,0.495416945264077,0.660714291660714,0.413756730484181,0.01,-2.682045,52.96872
246,Wells,0.01,0.183774833058775,0.967387867942163,0.01,-2.6445979,51.20935
247,Yeovil,0.01,0.01,1,0.01,-2.633308,50.94206
248,Wigan,0.374910121302748,1,0.467627688377228,0.01,-2.6325074,53.54506
249,Warrington,0.62809052476529,0.77321981252322,0.268194097955075,0.01,-2.5969501,53.39004
250,Arbroath,0.01,0.136029417886029,0.975860620499673,0.01,-2.591543,56.55911
251,Bristol,0.01,0.17236024517236,0.969413291862947,0.01,-2.58791,51.45451
252,Guernsey,0.01,0.01,1,0.01,-2.585278,49.46569
253,Ross-on-Wye,0.01,0.01,1,0.01,-2.582446,51.91445
254,Jedburgh,0.01,0.01,1,0.01,-2.5549369,55.47772
255,Sedbergh,0.04161502350622,0.01,0.960604445985248,0.01,-2.528174,54.32363
256,Sedbergh,0.04161502350622,0.01,0.960604445985248,0.01,-2.528174,54.32363
257,Nantwich,0.568272379921111,0.69957983169958,0.337889757451423,0.01,-2.524102,53.06719
258,Banff,0.01,0.183774833058775,0.967387867942163,0.01,-2.524038,57.66651
259,Dunbar,0.01,0.149461403024461,0.973476943259569,0.01,-2.516737,56.00209
260,Cinderford,0.01,0.15767044965767,0.972020292649873,0.01,-2.5009579,51.8253
261,Banchory,0.01,0.132142863882143,0.976550288917144,0.01,-2.4909599,57.05386
262,Blackburn,0.042990727751411,0.688016531563016,0.837208460589181,0.01,-2.487529,53.74858
263,Market Drayton,0.308259434631711,0.616666661116667,0.598748895693377,0.01,-2.483485,52.90355
264,Telford,0.128265482126927,0.01,0.878575269637945,0.01,-2.4672611,52.67759
265,Montrose,0.01,0.136029417886029,0.975860620499673,0.01,-2.466115,56.70692
266,Turriff,0.01,0.186241613811242,0.966950084848174,0.01,-2.4623,57.53893
267,Weymouth,0.01,0.01,1,0.01,-2.457621,50.61443
268,Crewe,0.524559119126891,0.69957983169958,0.379271832277368,0.01,-2.4438209,53.10041
269,Fortuneswell,0.01,0.01,1,0.01,-2.442219,50.55919
270,Dorchester,0.01,0.01,1,0.01,-2.441181,50.71116
271,Alston,0.01,0.170245403795245,0.96978878073715,0.01,-2.438685,54.81217
272,Kelso,0.01,0.01,1,0.01,-2.432207,55.60003
273,Wincanton,0.01,0.173437500173438,0.969222223425975,0.01,-2.416007,51.05569
274,Clitheroe,0.01,0.25,0.955635681735138,0.01,-2.393083,53.8711
275,Sark,0.01,0.01,1,0.01,-2.3666256,49.43007
276,Bath,0.01,0.173437500173438,0.969222223425975,0.01,-2.3590167,51.38106
277,Kidderminster,0.023017160261854,0.122787617372788,0.956420884371094,0.01,-2.2496839,52.3886
278,Manchester,0.041449226651632,0.110557762235558,0.941142057413111,0.01,-2.2426305,53.48076
279,Burnley,0.01,0.298387092298387,0.947048928293197,0.01,-2.2405035,53.78929
280,Gloucester,0.01,0.152752289402752,0.9728929041713,0.01,-2.238156,51.86424
281,Newcastle-under-Lyme,0.388925452599924,0.259345797634346,0.585794406422263,0.01,-2.2273002,53.01321
282,Worcester,0.01,0.113885084363885,0.979790327012645,0.01,-2.221575,52.19364
283,Trowbridge,0.01,0.173437500173438,0.969222223425975,0.01,-2.208853,51.31966
284,Shaftesbury,0.01,0.274752472774752,0.951243077462493,0.01,-2.198083,51.0046
285,Alderney,0.01,0.01,1,0.01,-2.1973557,49.715
286,Stoke-on-Trent,0.37946830065837,0.253039513003039,0.59586637225056,0.01,-2.179404,53.00267
287,Colne,0.01,0.01,1,0.01,-2.176991,53.85564
288,Blandford Forum,0.01,0.01,1,0.01,-2.165353,50.85691
289,Rochdale,0.040168940453464,0.107142861107143,0.942960162230891,0.01,-2.1561,53.60971
290,Jersey,0.01,0.01,1,0.01,-2.13125,49.21444
291,Wolverhampton,0.023326807248008,0.124439463874439,0.955834629282912,0.01,-2.12882,52.58697
292,Stafford,0.046204689829003,0.123242037498242,0.934389413232769,0.01,-2.12066,52.80669
293,Macclesfield,0.17512556696113,0.103802995978803,0.815793776093399,0.01,-2.119287,53.25866
294,Hexham,0.01,0.182565793307566,0.967602327489331,0.01,-2.1121439,54.97266
295,Aberdeen,0.01,0.186241613811242,0.966950084848174,0.01,-2.094278,57.14972
296,Dudley,0.024421961211292,0.130281685255282,0.953761192030674,0.01,-2.081112,52.51226
297,Cheltenham,0.01,0.01,1,0.01,-2.0782533,51.89939
298,Bromsgrove,0.023467117501637,0.125187964625188,0.955568955515525,0.01,-2.061906,52.33559
299,Skipton,0.01,0.01,1,0.01,-2.0162787,53.96285
300,Fraserburgh,0.01,0.186241613811242,0.966950084848174,0.01,-2.007631,57.69335
301,Berwick,0.01,0.01,1,0.01,-2.005395,55.77024
302,Poole,0.01,0.01,1,0.01,-1.987248,50.71505
303,Walsall,0.023644899482994,0.126136362501136,0.955232369750911,0.01,-1.982919,52.58621
304,Cirencester,0.045233720297739,0.241304343241304,0.914357512682906,0.01,-1.968243,51.71849
305,Evesham,0.01,0.122968977497969,0.978178310186804,0.01,-1.94677,52.09215
306,Buxton,0.06931986127403,0.092448639467449,0.917971562319334,0.01,-1.91483,53.25908
307,Keighley,0.028118259617894,0.150000002775,0.946762818082165,0.01,-1.912358,53.8678
308,Birmingham,0.024082767558449,0.128472218753472,0.954403339561114,0.01,-1.890401,52.48624
309,Bournemouth,0.01,0.01,1,0.01,-1.880769,50.71916
310,Halifax,0.028899321590326,0.154166665279167,0.945284007473337,0.01,-1.85754,53.72702
311,Salisbury,0.01,0.01,1,0.01,-1.794472,51.06878
312,Ringwood,0.01,0.01,1,0.01,-1.788817,50.84495
313,Huddersfield,0.027378305485869,0.146052634646053,0.948163822471815,0.01,-1.7850351,53.64579
314,Peterhead,0.01,0.186241613811242,0.966950084848174,0.01,-1.784066,57.50812
315,Swindon,0.044083712531595,0.01,0.958267304743323,0.01,-1.7797176,51.55577
316,Bradford,0.028899321590326,0.154166665279167,0.945284007473337,0.01,-1.759398,53.79598
317,Ashbourne,0.088417188030518,0.01,0.91629848238477,0.01,-1.732179,53.01663
318,Marlborough,0.048615682225225,0.01,0.953977128911117,0.01,-1.727062,51.42007
319,Stratford-upon-Avon,0.03125293727289,0.111148198986148,0.950689816150798,0.01,-1.708298,52.19173
320,Alnwick,0.01,0.01,1,0.01,-1.706299,55.41274
321,Otley,0.027523164781755,0.146825402771825,0.947889530926987,0.01,-1.691786,53.90583
322,Bishop Auckland,0.055635057301052,0.148395719773396,0.920998125756518,0.01,-1.678788,54.66382
323,Burton upon Trent,0.048767605671352,0.01,0.953833335138963,0.01,-1.6371359,52.81403
324,Newcastle,0.01,0.159482760534483,0.971698480218015,0.01,-1.61778,54.97825
325,Durham,0.057479315499656,0.153314920653315,0.918379306303387,0.01,-1.584852,54.77525
326,Ashington,0.01,0.01,1,0.01,-1.5659829,55.18298
327,Darlington,0.084583380581557,0.22560976185061,0.879891573586463,0.01,-1.559458,54.52361
328,Leeds,0.027669563833511,0.147606384897606,0.947612284715608,0.01,-1.5490774,53.80076
329,Harrogate,0.027817528650526,0.148395719773396,0.947332083837678,0.01,-1.541812,53.99212
330,Leamington Spa,0.034576737003148,0.122968977497969,0.945445529244797,0.01,-1.5200789,52.28519
331,Coventry,0.034424191932608,0.122426464997426,0.945686334568712,0.01,-1.519693,52.40682
332,Blyth,0.01,0.01,1,0.01,-1.510277,55.12696
333,Wakefield,0.027967085242191,0.149193546149194,0.947048928293197,0.01,-1.505924,53.6833
334,Andover,0.01,0.109251972109252,0.98061246298049,0.01,-1.4919233,51.2112
335,Witney,0.042755160708976,0.114041094864041,0.939287757930079,0.01,-1.4850544,51.78594
336,Barnsley,0.022732167576188,0.121267291996267,0.956960357238884,0.01,-1.479726,53.55263
337,Derby,0.032750542325686,0.01,0.968996191434816,0.01,-1.4746186,52.92253
338,Sheffield,0.01,0.01,1,0.01,-1.470085,53.38113
339,Nuneaton,0.031718768043201,0.338414635838415,0.909918618634294,0.01,-1.465382,52.52049
340,Northallerton,0.088167422462251,0.235169498110169,0.874802160452182,0.01,-1.429959,54.33796
341,South Shields,0.01,0.161337209786337,0.971369527341992,0.01,-1.427406,54.99942
342,Chesterfield,0.025292760780038,0.01,0.976056120936472,0.01,-1.421629,53.23505
343,Southampton,0.01,0.01,1,0.01,-1.4043509,50.9097
344,Wetherby,0.027669563833511,0.147606384897606,0.947612284715608,0.01,-1.384816,53.92706
345,Sunderland,0.060486952891643,0.161337209786337,0.914108582025976,0.01,-1.383801,54.90687
346,Rotherham,0.01,0.01,1,0.01,-1.3635009,53.4326
347,Castleford,0.026540194518087,0.141581637891582,0.949750478409759,0.01,-1.345968,53.72347
348,Thirsk,0.083008691500533,0.147606384897606,0.895224569431217,0.01,-1.341377,54.23385
349,Banbury,0.055867425188555,0.01,0.947112207401834,0.01,-1.339775,52.0629
350,Stockton,0.081919337631149,0.218503930343504,0.88367453166073,0.01,-1.3289821,54.57046
351,Newbury,0.044334188156201,0.118252837243253,0.937045412240002,0.01,-1.3231139,51.40141
352,Isle of Wight,0.01,0.01,1,0.01,-1.304734,50.69385
353,Isle of Wight,0.01,0.01,1,0.01,-1.304734,50.69385
354,Abingdon,0.045630509143115,0.121710528871711,0.935204654978662,0.01,-1.2879529,51.67078
355,Shetland Islands,0.01,0.183774833058775,0.967387867942163,0.01,-1.2659409,60.52965
356,Rugby,0.060643654262655,0.431347152056347,0.866045021239128,0.01,-1.265032,52.37088
357,Oxford,0.041284745872163,0.110119048610119,0.941375722292861,0.01,-1.2577263,51.75202
358,Middlesbrough,0.081919337631149,0.218503930343504,0.88367453166073,0.01,-1.234956,54.57423
359,Hartlepool,0.08323004701244,0.222000000222,0.881813337955745,0.01,-1.212926,54.69174
360,Loughborough,0.042872619112822,0.304945055554945,0.905299243703852,0.01,-1.206166,52.7721
361,Mansfield,0.026450228039145,0.01,0.974960432090437,0.01,-1.198674,53.1472
362,Nottingham,0.029087853252443,0.310344830935345,0.917390477897617,0.01,-1.1581086,52.95478
363,Bicester,0.043348983685959,0.01,0.958962882493896,0.01,-1.1535899,51.8996
364,Leicester,0.040745779298978,0.289817226289817,0.909997163520111,0.01,-1.1397592,52.63688
365,Doncaster,0.024949054498083,0.133093523383094,0.952763007180825,0.01,-1.128462,53.52282
366,Worksop,0.01,0.01,1,0.01,-1.122745,53.3093
367,Basingstoke,0.01,0.249251499249251,0.955768395507725,0.01,-1.0923964,51.26654
368,Portsmouth,0.01,0.01,1,0.01,-1.0879769,50.81977
369,York,0.030599282295861,0.163235295913235,0.942065390710331,0.01,-1.0872979,53.95997
370,Selby,0.027817528650526,0.148395719773396,0.947332083837678,0.01,-1.067189,53.78352
371,Helmsley,0.097231364450451,0.01,0.907954257822233,0.01,-1.0562636,54.24651
372,Towcester,0.01,0.01,1,0.01,-0.989688,52.13511
373,Reading,0.01,0.253810976878811,0.954959309317147,0.01,-0.9781303,51.45426
374,Retford,0.01,0.01,1,0.01,-0.945503,53.32136
375,Petersfield,0.01,0.01,1,0.01,-0.93899,51.00759
376,Northampton,0.01,0.423664120548664,0.924817524718248,0.01,-0.902656,52.24048
377,Melton Mowbray,0.028042468256333,0.299191370549191,0.920359425337053,0.01,-0.887126,52.7664
378,Aylesbury,0.048767605671352,0.01,0.953833335138963,0.01,-0.8084,51.81561
379,Newark-on-Trent,0.02669911709098,0.01,0.974724797432986,0.01,-0.80657,53.07004
380,Malton,0.01,0.215116279715116,0.961825954381918,0.01,-0.797897,54.13684
381,Chichester,0.01,0.01,1,0.01,-0.774936,50.83761
382,Gainsborough,0.01,0.154596096529596,0.972565674850765,0.01,-0.774465,53.40058
383,Milton Keynes,0.01,0.01,1,0.01,-0.7594171,52.04062
384,Aldershot,0.01,0.402822580152823,0.928516028573595,0.01,-0.7557509,51.24837
385,High Wycombe,0.01,0.308333330558333,0.945284007473337,0.01,-0.748229,51.62861
386,Midhurst,0.01,0.111595168236595,0.980196593663422,0.01,-0.737274,50.9869
387,Kettering,0.01,0.418341712168342,0.925762033125752,0.01,-0.730249,52.39632
388,Wellingborough,0.01,0.01,1,0.01,-0.693964,52.30242
389,Corby,0.01,0.459944748084945,0.918379306303387,0.01,-0.6842333,52.4923
390,Bognor Regis,0.01,0.01,1,0.01,-0.673061,50.783
391,Scunthorpe,0.01,0.208646616958647,0.962974088559236,0.01,-0.654413,53.58865
392,Grantham,0.028092949880785,0.29972997029973,0.920216124009325,0.01,-0.643582,52.91252
393,Whitby,0.080028891958332,0.213461533338462,0.886359092444622,0.01,-0.613347,54.48633
394,Slough,0.01,0.445982141320982,0.920857040428702,0.01,-0.5950406,51.51054
395,Guildford,0.01,0.279362413779362,0.950425127272262,0.01,-0.570409,51.23622
396,Woking,0.01,0.28412969728413,0.949579107749795,0.01,-0.5600349,51.31677
397,Lincoln,0.01,0.01,1,0.01,-0.540579,53.23069
398,Bedford,0.01,0.206064354581064,0.96343230809687,0.01,-0.4667782,52.13864
399,Heathrow,0.01,0.334337356084337,0.940669310764934,0.01,-0.4542955,51.47002
400,Driffield,0.01,0.218503930343504,0.961224925960981,0.01,-0.443377,54.006
401,Beverley,0.01,0.233193281858193,0.958618171396267,0.01,-0.435093,53.84196
402,Luton,0.01,0.01,1,0.01,-0.4200255,51.87867
403,Scarborough,0.078816331609981,0.210227270835227,0.88808092437728,0.01,-0.399752,54.28311
404,Worthing,0.01,0.01,1,0.01,-0.372882,50.81787
405,Dorking,0.01,0.269417479769417,0.95218980186991,0.01,-0.332378,51.2322
406,Hull,0.01,0.205555558330556,0.963522671648891,0.01,-0.3274198,53.76762
407,Horsham,0.01,0.116596633991597,0.979308962587027,0.01,-0.325858,51.06288
408,Biggleswade,0.01,0.21401028958901,0.962022193485354,0.01,-0.26422,52.08694
409,Peterborough,0.01,0.231894151731894,0.958848635387254,0.01,-0.2405299,52.5695
410,Welwyn Garden City,0.01,0.01,1,0.01,-0.208661,51.80317
411,Bridlington,0.01,0.245575220870575,0.956420884371094,0.01,-0.198802,54.08535
412,Stevenage,0.01,0.01,1,0.01,-0.196612,51.90376
413,Crawley,0.01,0.01,1,0.01,-0.1872275,51.10914
414,Huntingdon,0.01,0.244134898744135,0.956676463027765,0.01,-0.182552,52.33146
415,Hove,0.01,0.01,1,0.01,-0.168749,50.82793
416,Spalding,0.01,0.01,1,0.01,-0.1537024,52.7901
417,Brighton,0.01,0.01,1,0.01,-0.137163,50.82253
418,London,0.01,0.144631682019632,0.974334042781602,0.01,-0.1277583,51.50735
419,Grimsby,0.01,0.205555558330556,0.963522671648891,0.01,-0.080784,53.56747
420,Boston,0.01,0.01,1,0.01,-0.026577,52.97894
421,Royston,0.01,0.229972380979972,0.959189653151694,0.01,-0.024066,52.04814
422,Louth_Lincs,0.01,0.218503930343504,0.961224925960981,0.01,-0.007711,53.36596
423,Lewes,0.01,0.01,1,0.01,0.00878,50.87387
424,Chatteris,0.01,0.237857141112857,0.957790372317532,0.01,0.054012,52.4561
425,Uckfield,0.01,0.01,1,0.01,0.095913,50.96641
426,Cambridge,0.01,0.237857141112857,0.957790372317532,0.01,0.121817,52.20534
427,Bishop's Stortford,0.01,0.01,1,0.01,0.1536502,51.87216
428,Wisbech,0.01,0.222593586597594,0.960499062878259,0.01,0.158797,52.66632
429,Sevenoaks,0.01,0.01,1,0.01,0.190898,51.27241
430,Tunbridge Wells,0.01,0.01,1,0.01,0.263695,51.13238
431,Eastbourne,0.01,0.01,1,0.01,0.290472,50.76803
432,Brentwood,0.105088442146641,0.01,0.900516377224248,0.01,0.3071749,51.62047
433,Skegness,0.01,0.194509351694509,0.965482846683338,0.01,0.337881,53.1464
434,Downham Market,0.01,0.229972380979972,0.959189653151694,0.01,0.385472,52.60661
435,King's Lynn,0.035467350524961,0.189204550689205,0.932848554626368,0.01,0.4022963,52.75168
436,Bexhill,0.01,0.01,1,0.01,0.4662071,50.84991
437,Chelmsford,0.096034669829811,0.01,0.90908712622237,0.01,0.4685497,51.73559
438,Mildenhall,0.01,0.247767859372768,0.956031853275199,0.01,0.5156095,52.34757
439,Medway,0.037513543024189,0.01,0.964487124055615,0.01,0.5417861,51.40474
440,Braintree,0.043109486624742,0.01,0.959189653151694,0.01,0.5509269,51.88009
441,Gillingham,0.038062520611466,0.01,0.963967595187045,0.01,0.551438,51.38632
442,Hastings,0.01,0.01,1,0.01,0.573453,50.85426
443,Maldon,0.047870042440614,0.01,0.954683047994618,0.01,0.671448,51.73181
444,Southend,0.037513543024189,0.01,0.964487124055615,0.01,0.7077123,51.54593
445,Bury St Edmunds,0.01,0.23125000485625,0.958962882493896,0.01,0.7104932,52.24292
446,Thetford,0.035629300590813,0.190068491440068,0.932541761749478,0.01,0.751657,52.41286
447,Ashford,0.040429101974791,0.01,0.961727219274669,0.01,0.875019,51.14647
448,Faversham,0.039810289176192,0.01,0.962312981918426,0.01,0.889358,51.31599
449,Colchester,0.041726294276259,0.01,0.960499062878259,0.01,0.891874,51.89593
450,New Romney,0.01,0.01,1,0.01,0.939473,50.98512
451,Canterbury,0.040745779298978,0.01,0.961427320619731,0.01,1.0789089,51.28023
452,Ipswich,0.040324635261095,0.01,0.961825954381918,0.01,1.14822,52.05674
453,Clacton,0.041067458228803,0.01,0.961122743742755,0.01,1.153035,51.78953
454,Folkestone,0.040429101974791,0.01,0.961727219274669,0.01,1.169456,51.0814
455,Sheringham,0.044083712531595,0.01,0.958267304743323,0.01,1.2109589,52.94442
456,Harwich,0.041726294276259,0.01,0.960499062878259,0.01,1.260297,51.93473
457,Norwich,0.042638344737055,0.01,0.95963580780091,0.01,1.297355,52.63089
458,Cromer,0.043348983685959,0.01,0.958962882493896,0.01,1.301866,52.93145
459,Dover,0.039810289176192,0.01,0.962312981918426,0.01,1.3134027,51.12788
460,Felixstowe,0.040429101974791,0.01,0.961727219274669,0.01,1.351255,51.96173
461,Margate,0.038062520611466,0.01,0.963967595187045,0.01,1.3868339,51.38965
462,Ramsgate,0.038062520611466,0.01,0.963967595187045,0.01,1.419895,51.33555
463,Great Yarmouth,0.041284745872163,0.01,0.960917148195241,0.01,1.728047,52.59823
464,Lowestoft,0.041284745872163,0.01,0.960917148195241,0.01,1.753449,52.48114
465,Swaffham,0.038819984264631,0.20708955058209,0.926500945985741,0.01,0.687481,52.64747
466,Dereham,0.043348983685959,0.01,0.958962882493896,0.01,0.937827,52.68162
467,Ely,0.01,0.237857141112857,0.957790372317532,0.01,0.262363,52.39954
468,March,0.01,0.233848320608848,0.958501954511923,0.01,0.088622,52.55172
469,St Neots,0.01,0.209697731459698,0.962787452122091,0.01,-0.265103,52.23008
470,Banham,0.041284745872163,0.01,0.960917148195241,0.01,1.0402849,52.45125
471,Holt,0.047289798965988,0.01,0.955232369750911,0.01,1.086747,52.90936
472,Cromer,0.043348983685959,0.01,0.958962882493896,0.01,1.301866,52.93145
473,Hunstanton,0.038062520611466,0.01,0.963967595187045,0.01,0.491032,52.93891
474,Horncastle,0.01,0.203048775953049,0.963967595187045,0.01,-0.11245,53.20731
475,Market Weighton,0.01,0.233193281858193,0.958618171396267,0.01,-0.6677465,53.86484
476,Hawes,0.055339127667022,0.01,0.947612284715608,0.01,-2.1968695,54.30383
477,Reeth,0.092890678212367,0.247767859372768,0.868095313603383,0.01,-1.9428115,54.38946
478,Aysgarth,0.01,0.01,1,0.01,-1.9967434,54.29159
479,Stanhope,0.01,0.158571422783571,0.971860248211688,0.01,-2.011302,54.74946
480,Keswick,0.041950627863286,0.01,0.960286819331004,0.01,-3.134706,54.60128
481,Oxenholme,0.042291691591248,0.01,0.959963775788084,0.01,-2.7243328,54.30134
