,placename,said,this_is,was_like,went,longitude,latitude
0,Dingle,0.5384963795523261,0.01,0.48433894022033225,0.17909571856137516,-10.264013499999999,52.14094
1,Tralee,0.542271606892234,0.01,0.4744727655301038,0.18624423259680392,-9.6999325,52.27131
2,Killarney,0.5078351096142615,0.01,0.5156853733492067,0.1813328627930661,-9.5044265,52.059940000000005
3,Bantry,0.49444631938609485,0.01,0.5535039478088842,0.15248637777465213,-9.4539805,51.68035
4,Mayo,0.6214475739160182,0.01,0.44041096476545954,0.12252296932310387,-9.4289369,54.01526
5,Ballycastle,0.6460936172589801,0.01,0.39147439398553774,0.15006498547317665,-9.3724643,54.279669999999996
6,Abbeyfeale,0.5260558184353058,0.01,0.4947499804937717,0.18285560480948493,-9.2970823,52.386179999999996
7,Ennistymon,0.5209394776593592,0.01,0.5117223621916442,0.16871713024389354,-9.2934951,52.940369999999994
8,Galway,0.5048489094434216,0.01,0.5300923965981138,0.1675183201622871,-9.0567905,53.270669999999996
9,Claremorris,0.6870923068687255,0.01,0.37196046402170596,0.11938805202998756,-9.0017356,53.72388
10,Clare,0.516619612096555,0.01,0.5188181490980571,0.16572104447795064,-8.9811351,52.90453
11,Adare,0.48696522461671665,0.01,0.5370217639167499,0.18285560480948493,-8.7925892,52.56363
12,Charleville,0.4949518553776041,0.01,0.556861737337941,0.14766085767933762,-8.681017599999999,52.36206
13,Mallow,0.49444631938609485,0.01,0.5535039478088842,0.15248637777465213,-8.6539164,52.13898
14,Limerick,0.47429796365820004,0.01,0.547466229055974,0.1868769223640413,-8.6267343,52.66384
15,Loughrea,0.532834004045219,0.01,0.47955077785803996,0.19258124633743579,-8.5660931,53.19891
16,Sligo,0.6119699378321071,0.01,0.4492019058214135,0.12432527815579271,-8.476088800000001,54.27661
17,Cork,0.5523013292431155,0.01,0.5029513049037398,0.1376425718594224,-8.4756035,51.898509999999995
18,Nenagh,0.46450425120390687,0.01,0.5824909075807495,0.15667855485108897,-8.19834,52.8635
19,Roscommon,0.4517392346669209,0.01,0.7230659763559345,0.01,-8.1890955,53.627590000000005
20,Tipperary,0.5645096044855843,0.01,0.4947685554568358,0.13143896454662743,-8.161851400000002,52.47379
21,Donegal,0.7537504393182242,0.01,0.31067154280421533,0.10604734703185847,-8.1096143,54.653830000000006
22,Leitrim,0.37511468824116717,0.01,0.8059263193131794,0.01,-8.0020132,54.12469
23,Athlone,0.33579134304527225,0.01,0.7814060089250431,0.08286052223897532,-7.9406898,53.423930000000006
24,Longford,0.4203820381107104,0.01,0.6967491297705312,0.07443403024458041,-7.7932573000000005,53.727630000000005
25,Offaly,0.47940732189282753,0.01,0.6315489455310601,0.07612916225815129,-7.7122229,53.235690000000005
26,Fermanagh,0.6257404403190556,0.01,0.4436555930019204,0.11277542209014843,-7.6318728,54.343830000000004
27,Enniskillen,0.6257404403190556,0.01,0.4436555930019204,0.11277542209014843,-7.631533599999999,54.343819999999994
28,Doon,0.13858808359498448,0.01,1.0,0.07625876738358607,-7.60964,54.185930000000006
29,Westmeath,0.4910365117085578,0.01,0.6197176504936962,0.07520886134730201,-7.4653217000000005,53.534530000000004
30,Strabane,0.7491750127431384,0.01,0.3097601111477464,0.11328881566497931,-7.4633103,54.82739
31,Cavan,0.39327301969309425,0.01,0.7418408342121622,0.05493548909858639,-7.3633319,53.98972
32,Mullingar,0.5315031316697815,0.01,0.582811967511433,0.06673778026237373,-7.340186800000001,53.525819999999996
33,Laois,0.636342731058111,0.01,0.4285655749051745,0.1172556022611814,-7.332300699999999,52.99429
34,Omagh,0.7199307331901138,0.01,0.34302404425774397,0.1112627899205437,-7.309959700000001,54.59771
35,Derry,0.7308858750171658,0.01,0.29194385226612024,0.15975177408214036,-7.308574799999999,54.99661
36,Kilkenny,0.7643303859250585,0.01,0.31966056646086544,0.08079797661712505,-7.2447879,52.65415
37,Tyrone,0.8314558831401888,0.01,0.17358157001225746,0.17162604735524417,-7.131232000000001,54.491209999999995
38,Waterford,0.8658034693920295,0.01,0.19952545751543505,0.09365614640362202,-7.110070200000001,52.25932
39,Monaghan,0.7367651748079219,0.01,0.39175286741553805,0.028538735059948337,-6.9683132,54.2492
40,Carlow,0.6189557376705777,0.01,0.44883332620202415,0.11544430344163324,-6.934135899999999,52.83651
41,Kildare,0.5461436588051013,0.01,0.5408889302784483,0.09898413521776397,-6.8194707999999995,53.21204
42,Dungannon,0.7807114278598745,0.01,0.237414757782985,0.16055340094500253,-6.7669352,54.508269999999996
43,Cookstown,0.9639863793894003,0.01,0.04005728538744404,0.15952421231788216,-6.7443895000000005,54.641819999999996
44,Coleraine,0.9488296096992161,0.01,0.13225262956540124,0.06583539088935694,-6.6646103000000005,55.132580000000004
45,Meath,0.490738589945606,0.01,0.6001649597668314,0.09977288991259019,-6.656416900000001,53.60555
46,Armagh,0.8660846330558163,0.01,0.24671985784364306,0.03495193660617133,-6.652792,54.350280000000005
47,Magherafelt,0.9111052664654145,0.01,0.09887553516280777,0.15750491817606369,-6.607980499999999,54.75536999999999
48,Louth,0.513564983020787,0.01,0.5031519547757538,0.18916553038209918,-6.4889423,53.925230000000006
49,Wexford,0.7945908579914018,0.01,0.2855084581522191,0.08256405175883214,-6.4633381,52.33692
50,Craigavon,0.8289216861440776,0.01,0.18271743152055447,0.16372221266608392,-6.4175653,54.442930000000004
51,Drogheda,0.37886431292957184,0.01,0.6142738775109549,0.23185506468858585,-6.3560985,53.717859999999995
52,Rosslare,0.7774519775720772,0.01,0.3045077760634669,0.08198802690530732,-6.3414908,52.25131
53,Newry,0.8189506171402768,0.01,0.2967033719346906,0.03617118413195275,-6.34023,54.1751
54,Ballymena,0.7610751251620532,0.01,0.23366749809342344,0.19142905353716974,-6.2802213,54.86529
55,Banbridge,1.0,0.01,0.01,0.16089941900670113,-6.2704803,54.34873
56,Dublin,0.4617619744764843,0.01,0.6147874827904729,0.12042799753411815,-6.2603097000000005,53.34981
57,Antrim,0.6244202745069747,0.01,0.423326428548057,0.13966507626644464,-6.2072498,54.719530000000006
58,Wicklow,0.6746312636305022,0.01,0.3697736019068282,0.1387448251271489,-6.044589,52.980819999999994
59,Kilkeel,0.8296213367842604,0.01,0.28566566576644375,0.0355511114535394,-6.007004,54.06312
60,Belfast,0.6482763596753589,0.01,0.4186378863806256,0.11357605974338385,-5.93012,54.597280000000005
61,Down,0.8207549058171547,0.01,0.26808705566699975,0.06912715701203048,-5.7156921999999994,54.32875
62,Balivanich,0.3811643620401122,0.01,0.34176014135093835,0.5655858363198754,-7.3743509000000005,57.472269999999995
63,Western Isles,0.4463198515977218,0.01,0.3693643486555804,0.4443888682834657,-7.0194034,57.759890000000006
64,Dunvegan,0.36874474854704936,0.01,0.38724619880244343,0.5259675054965216,-6.581398200000001,57.4366
468,Stanhope,0.47902654063955435,0.01,0.29891147696125675,0.48775073539958946,-2.011302,54.74946
66,Scilly Isles,0.6980367421324214,0.01,0.292437624116242,0.20304459561060687,-6.327496599999999,49.92773
67,Portree,0.4564342954499437,0.01,0.3672053238159719,0.4335390926685606,-6.1960231,57.41246999999999
68,Islay,0.05991346303791707,0.01,0.3815274257567787,0.9457883634904153,-6.177067,55.73625
69,Mull,0.058293978954620206,0.01,0.3877542164914462,0.9402569770012618,-6.0008870000000005,56.4392
70,Broadford,0.4482437744825358,0.01,0.36296696022491304,0.44972420462319995,-5.9096592,57.24139
71,Kyle of Lochalsh,0.4592142779004897,0.01,0.37016266935810654,0.4261689272408572,-5.7143293,57.28261
72,Campbeltown,0.042757359016672,0.01,0.38237230971359826,0.96767331997863,-5.605373999999999,55.424119999999995
73,Penzance,0.7115735622365544,0.01,0.2864814539816616,0.19231360602968434,-5.537592,50.1188
74,Oban,0.039611025898245486,0.01,0.4128893128522133,0.9341621391972982,-5.471047,56.41516
75,Lochgilphead,0.04238216379645435,0.01,0.3921115806588826,0.9561377421274093,-5.4323449,56.03829
76,Helston,0.688010278300822,0.01,0.31076336050781633,0.1937957904514071,-5.274996,50.10159
77,Redruth,0.7026731495683629,0.01,0.2961064561839777,0.19231360602968434,-5.226666000000001,50.23302
464,Market Weighton,0.6570385180254309,0.01,0.19058516167516967,0.38371982064522053,-0.6677465,53.86484
79,Ballachulish,0.035904227463265874,0.01,0.4352207979179932,0.9115161383266943,-5.133719999999999,56.673930000000006
80,Fort William,0.306489806653431,0.01,0.4008520823842399,0.592355447730462,-5.1052179,56.81981999999999
463,Horncastle,0.6819638630211601,0.01,0.2372434050071858,0.2927416575659381,-0.11245,53.20731
82,Newquay,0.7026731495683629,0.01,0.2961064561839777,0.19231360602968434,-5.0737190000000005,50.4155
83,Falmouth,0.726291828331894,0.01,0.2708623263001845,0.19194659059383337,-5.066269999999999,50.152570000000004
84,Rothesay,0.036775183117146455,0.01,0.3946398898590266,0.9605067326478197,-5.055793,55.83596
85,Truro,0.7031032741136243,0.01,0.2938351761475326,0.19454548069814356,-5.051041000000001,50.2632
86,Milford Haven,0.6619863468042071,0.01,0.3114986572164235,0.22766798919638748,-5.0426971,51.71431
87,Stranraer,0.15565760410387272,0.01,0.31624730373588306,0.898507521576715,-5.024055000000001,54.903369999999995
88,Fishguard,0.6033264826844618,0.01,0.35715938979484474,0.24963383068055928,-4.975989,51.99393
462,Hunstanton,0.7627169533775716,0.01,0.18710983139068077,0.24677559967505147,0.49103199999999997,52.93891
90,Haverfordwest,0.6487269663418234,0.01,0.32623066681097074,0.22718134161014358,-4.971319,51.80048
91,Dunoon,0.027072709202756364,0.01,0.4086110307090954,0.956207154780274,-4.926214,55.95097
92,Pembroke,0.6504181378493306,0.01,0.3247943540166469,0.22669677820770445,-4.908637000000001,51.674040000000005
93,Girvan,0.014071217266427622,0.01,0.38723728886081105,1.0,-4.8542179,55.240159999999996
94,Wadebridge,0.7016727841487009,0.01,0.2950774334334234,0.19492250643770156,-4.836456,50.51665
95,Invergarry,0.2677907006514711,0.01,0.44617559632427145,0.5880608905683802,-4.800261,57.07095
96,St Austell,0.7249246467415972,0.01,0.27204402618616746,0.19231360602968434,-4.7834252,50.340379999999996
97,Greenock,0.02419171265445991,0.01,0.41015053774266375,0.9581549085353137,-4.7719830000000005,55.956480000000006
98,Helensburgh,0.018328239957359584,0.01,0.41230941156631234,0.9633232861986766,-4.734014,56.00232
99,Bodmin,0.7249246467415972,0.01,0.27204402618616746,0.19231360602968434,-4.7188629,50.4715
100,Tenby,0.645323675702851,0.01,0.3291218170240291,0.22815672096643613,-4.703579,51.672740000000005
101,Camelford,0.7023887273852945,0.01,0.2944557007266384,0.19473381003531887,-4.682364,50.62206
102,Irvine,0.037614484583712464,0.01,0.38779368199562547,0.9678467925070718,-4.6696364,55.61156999999999
103,Cardigan,0.6133766871565468,0.01,0.32711159324354594,0.27333820497299444,-4.660864,52.0837
461,Holt,0.8189068598813436,0.01,0.13159681759033898,0.24028751060507378,1.086747,52.90936
105,Ayr,0.029894121398463286,0.01,0.39054640091213644,0.9747624565506781,-4.629179,55.45856
106,Dumbarton,0.0337852589242696,0.01,0.40062117898159866,0.9571105831344711,-4.564554,55.94529
107,Bude,0.6872836285008713,0.01,0.31139782889388357,0.19398267019208532,-4.543678,50.826640000000005
460,Banham,0.7752748211887545,0.01,0.17792106395777593,0.24134912539932957,1.0402849,52.45125
109,Kilmarnock,0.023703865767625884,0.01,0.3943018154635308,0.9783946849853855,-4.498792,55.61472
110,Newton Stewart,0.2540928165942421,0.01,0.25727149397572163,0.839837679036988,-4.483164,54.9603
111,Liskeard,0.7249246467415972,0.01,0.27204402618616746,0.19231360602968434,-4.4647190000000005,50.45552
459,St Neots,0.6837341699969506,0.01,0.2900350105333631,0.22512931022897997,-0.26510300000000003,52.23008
113,Pwllheli,0.8425925710415393,0.01,0.043037535016825716,0.3180837337205958,-4.417633900000001,52.888819999999996
458,March,0.808683022881788,0.01,0.1639971407644931,0.2139074611440947,0.088622,52.551719999999996
115,Launceston,0.7235518791182444,0.01,0.27323020621229316,0.19268202129047882,-4.360451599999999,50.636829999999996
116,Carmarthen,0.5927716732263761,0.01,0.34373905448907516,0.28032670346377164,-4.312131,51.857620000000004
457,Ely,0.8401738187285722,0.01,0.16684776836165302,0.16829709566062728,0.262363,52.39954
456,Dereham,0.8038981200671257,0.01,0.13659272757475915,0.25417228089790667,0.9378270000000001,52.681619999999995
119,Cumnock,0.024149817406545128,0.01,0.3918511284667601,0.9808275434085092,-4.265828900000001,55.45355
120,Aberaeron,0.5684761534576385,0.01,0.3568501091090309,0.29659392603887413,-4.2581619,52.24279
455,Swaffham,0.7898124722153044,0.01,0.16710207923807416,0.23529037197168712,0.687481,52.64747
122,Glasgow,0.01,0.01,0.4040016712432891,0.9858081392217859,-4.251806,55.86424
123,Dalwhinnie,0.28750520781206695,0.01,0.3771140850068837,0.6470667781947638,-4.242783,56.9366
454,Lowestoft,0.7807542541132985,0.01,0.1833178709769977,0.22735589044843074,1.7534490000000003,52.48114
125,Saltash,0.726291828331894,0.01,0.2708623263001845,0.19194659059383337,-4.21643,50.409209999999995
126,Bideford,0.7199493533002983,0.01,0.2886018690741966,0.17849875854813987,-4.206666,51.01668
453,Great Yarmouth,0.76657597121331,0.01,0.1927821921980121,0.23460753114280763,1.728047,52.59823000000001
128,Llanelli,0.5943799852435625,0.01,0.38148312774188353,0.23152863173320776,-4.160248,51.680890000000005
129,Plymouth,0.726291828331894,0.01,0.2708623263001845,0.19194659059383337,-4.1426565,50.37546
130,Tavistock,0.7346173450981399,0.01,0.2694934673012692,0.18251173936747722,-4.141654,50.551120000000004
131,Porthmadog,0.760348475362103,0.01,0.10907842510489313,0.3463816553401542,-4.1333839999999995,52.92784
448,Cromer,0.8151046333816685,0.01,0.1334234563022735,0.24311149878174168,1.301866,52.93145
133,Tywyn,0.8196079070297906,0.01,0.08871538273736562,0.2923487484793546,-4.087249,52.58701
134,Aberystwyth,0.5957369257732581,0.01,0.35114981034912374,0.2672048813152511,-4.08292,52.4153
135,Lampeter,0.5569903384903279,0.01,0.3762203222177196,0.2880045441926103,-4.0785089999999995,52.1129
136,Barnstaple,0.7376840772455272,0.01,0.2874444324190995,0.15622690288843238,-4.058338,51.07816
447,Norwich,0.7720703002260021,0.01,0.1652616980737914,0.26127793540428784,1.297355,52.63089
138,Okehampton,0.738662098532968,0.01,0.29341892582347734,0.14753591863704782,-4.004263,50.73831
139,Llandeilo,0.6179795783941553,0.01,0.30576946406952765,0.2935637032086426,-3.9914300000000003,51.88469
140,Motherwell,0.01,0.01,0.40626615556154017,0.9952876044244522,-3.9810968,55.78321
445,Sheringham,0.8054482442399851,0.01,0.1406759977750315,0.24705388487381766,1.2109589,52.944419999999994
142,Airdrie,0.022197033350944882,0.01,0.39355141715893666,0.9813359287207644,-3.9625660000000003,55.86626999999999
143,Swansea,0.6121170367025652,0.01,0.33762396522605825,0.26202929299806815,-3.9436459999999998,51.62144
144,Stirling,0.018681091045356223,0.01,0.42009654953701014,0.9532276491631062,-3.9369029,56.116519999999994
145,Tregaron,0.555854977271828,0.01,0.37732223533823805,0.28815997453289144,-3.934385,52.22
146,Castle Douglas,0.35861773612045333,0.01,0.21571109640103797,0.751505788580992,-3.9314139999999997,54.940419999999996
147,Dolgellau,0.8458990371075514,0.01,0.0794811091618866,0.2686231217335551,-3.8844,52.74215
148,Aberfeldy,0.08699594779852135,0.01,0.4425185435014057,0.834212479390844,-3.866969,56.62175
149,Machynlleth,0.8565129654154727,0.01,0.06751400043794628,0.2692282940531256,-3.853485,52.59027
440,New Romney,0.7596855994395343,0.01,0.1710168659657848,0.27071716652735606,0.939473,50.98512
436,Thetford,0.8010161925133199,0.01,0.18290464097214004,0.20078630469010286,0.751657,52.412859999999995
435,Bury St Edmunds,0.8557062491417295,0.01,0.162001162822891,0.15352774798950297,0.7104931999999999,52.24292
432,Hastings,0.7664460959447728,0.01,0.19313838850869222,0.2343410666880087,0.573453,50.85426
154,Falkirk,0.0961551799982777,0.01,0.39423280116987025,0.8816485090085018,-3.7839131,56.00188000000001
155,Kingsbridge,0.7713157202607743,0.01,0.2357732646378511,0.17513982571395553,-3.777493,50.28395
156,Pitlochry,0.12011739979471298,0.01,0.43645525271262414,0.7974395696194039,-3.729711,56.70436
428,Mildenhall,0.8282276215369502,0.01,0.19044798884495442,0.15509548971177192,0.5156095,52.347570000000005
158,Totnes,0.7585628067954097,0.01,0.2814363631329771,0.135748191874117,-3.685797,50.43374
426,Bexhill,0.7749773649285565,0.01,0.20039626587869896,0.21396877347661966,0.4662071,50.849909999999994
160,Dumfries,0.3142492720700672,0.01,0.3082295643944637,0.6964585685661383,-3.60512,55.070859999999996
425,King's Lynn,0.8074233724278063,0.01,0.15659197249495985,0.22474340648855815,0.4022963,52.75168000000001
162,Dartmouth,0.7740044641714162,0.01,0.25151260102338474,0.15209345002373606,-3.578807,50.35252
163,Bridgend,0.5539920352478688,0.01,0.3845814718518835,0.28167800114255576,-3.576945,51.504290000000005
164,Paignton,0.7786180619723824,0.01,0.24652363777311864,0.15209345002373606,-3.564235,50.43508
424,Downham Market,0.8268148206767011,0.01,0.1553430705068347,0.20037003408057355,0.385472,52.606609999999996
166,Llanidloes,0.7734733255284038,0.01,0.1778340284262375,0.24386435574357257,-3.5401949999999998,52.447790000000005
167,Exeter,0.7152091387500781,0.01,0.30698383374149585,0.1621154687101672,-3.533899,50.71841
168,Torquay,0.7766415372762969,0.01,0.24829409854798148,0.15254700574831578,-3.525315,50.46192
423,Skegness,0.7486224609734127,0.01,0.19756285410096422,0.25269429595101445,0.337881,53.1464
170,Livingston,0.23925864031300403,0.01,0.36325268242098724,0.7286796520152153,-3.518068,55.90071
422,Brentwood,0.7521309552349273,0.01,0.16740093982265686,0.2852823575072774,0.30717490000000003,51.620470000000005
172,Tiverton,0.7143000118703202,0.01,0.3292866257749006,0.13576658246315235,-3.491207,50.90205
173,Minehead,0.6095493235081214,0.01,0.3819598851271932,0.21066561588962818,-3.481152,51.20428
174,Dunfermline,0.21845485670661452,0.01,0.3688994711924472,0.7495048103708787,-3.452151,56.071740000000005
175,Perth,0.1492806818684347,0.01,0.4516883836006734,0.7396360258549284,-3.4308381000000003,56.39499
421,Eastbourne,0.777643299204223,0.01,0.1872428764513263,0.22666234251409456,0.29047199999999995,50.768029999999996
177,Builth Wells,0.6925954804337562,0.01,0.2167089091865525,0.30391108476205064,-3.4045919999999996,52.15002
420,Tunbridge Wells,0.8187076247023694,0.01,0.14174076096942173,0.22801701221563148,0.26369499999999996,51.13238
179,Brecon,0.6723689202430858,0.01,0.2864702788006312,0.2447246383822891,-3.391463,51.94895
180,Merthyr Tydfil,0.5986654036025258,0.01,0.355874948717497,0.25745106908799303,-3.381646,51.74873
181,Llandrindod Wells,0.6972151297705306,0.01,0.22767659428807302,0.28418188357259017,-3.377742,52.2417
419,Sevenoaks,0.825072909368942,0.01,0.12880976771228436,0.235491529926789,0.190898,51.27241
418,Wisbech,0.8183864278016862,0.01,0.14115280549899442,0.22917265791742478,0.158797,52.66631999999999
184,Lockerbie,0.3329294321099147,0.01,0.2569006994555874,0.7349308347117565,-3.349008,55.122240000000005
185,Blairgowrie,0.17369490483959962,0.01,0.37887513245358145,0.7969979092961218,-3.3378318,56.58941
417,Bishop's Stortford,0.7663348407864204,0.01,0.17869904784437302,0.25233533106394956,0.15365020000000001,51.87216
187,Newtown,0.8361919081656166,0.01,0.1396731007855347,0.20720437762712923,-3.313106,52.51211
416,Cambridge,0.7222103001794511,0.01,0.2822806933646104,0.18328995493583997,0.12181700000000001,52.20534
189,Sidmouth,0.7408750986283967,0.01,0.28707504738125733,0.1524184520469497,-3.2375599999999998,50.67865
415,Uckfield,0.7903682825043117,0.01,0.1947007996295075,0.20043819000171112,0.095913,50.966409999999996
191,Peebles,0.19744020035238594,0.01,0.41763680158264727,0.7173558521243345,-3.1936419999999996,55.65306999999999
192,Edinburgh,0.22466140493386358,0.01,0.35565698234875115,0.7575763503097135,-3.1882669999999997,55.95325
193,Cardiff,0.6074289584608615,0.01,0.3482454210702501,0.25516800437671133,-3.17909,51.48158
414,Chatteris,0.7902965950801009,0.01,0.20601743227563435,0.18654716715746394,0.054012,52.4561
195,Kirkcaldy,0.24613877102617743,0.01,0.3708700281141378,0.7100698006221244,-3.158137,56.11682
196,Welshpool,0.8565581191826702,0.01,0.12420237145395645,0.19910588017060493,-3.146407,52.66035
413,Lewes,0.78069280774969,0.01,0.19757634486004597,0.20981522534717897,0.00878,50.873870000000004
198,Taunton,0.6086374036118364,0.01,0.3912496318985978,0.2004033623571171,-3.106849,51.01534
412,Louth_Lincs,0.6987312722423036,0.01,0.20801033955938572,0.3064617213451976,-0.007711,53.36596
411,Royston,0.7216098016260007,0.01,0.27338097047889676,0.1950913191044425,-0.024066,52.048140000000004
201,Dalkeith,0.1864147676093877,0.01,0.3914306496958287,0.7644802807095711,-3.066606,55.893119999999996
202,Oswestry,0.8572182020887106,0.01,0.06484836739162712,0.2715799564080825,-3.056412,52.85715
203,Blackpool,0.6012936321550679,0.01,0.17778112250162972,0.4740477494846404,-3.0356748,53.81751
410,Boston,0.674269102487414,0.01,0.23320790618888573,0.3080131753265686,-0.026576999999999996,52.97894
205,Cupar,0.20152824554339308,0.01,0.40139191410212205,0.731969365061305,-3.010137,56.32023
409,Grimsby,0.7292030825592414,0.01,0.17850640181823213,0.3022002747091126,-0.08078400000000001,53.56746999999999
407,Brighton,0.779903315077867,0.01,0.21188279147967948,0.19318902544212319,-0.137163,50.82253
208,Langholm,0.48993699420216336,0.01,0.2632364733746278,0.5172600033108037,-2.998913,55.153059999999996
406,Spalding,0.7287659754726598,0.01,0.20122393401609326,0.27470727109639465,-0.1537024,52.7901
210,Axminster,0.7192036178874093,0.01,0.3232509709067753,0.13667245584491738,-2.9949369999999997,50.78273
405,Hove,0.779903315077867,0.01,0.21188279147967948,0.19318902544212319,-0.168749,50.82793
404,Huntingdon,0.7999413466529189,0.01,0.1634458318336609,0.2262720775412932,-0.182552,52.33146
403,Crawley,0.8012903736357866,0.01,0.20820243186034046,0.16915391295492818,-0.18722750000000002,51.109140000000004
214,Dundee,0.17729836166305538,0.01,0.43316250072361806,0.7250866311218139,-2.9707209999999997,56.462019999999995
402,Stevenage,0.7879695468097927,0.01,0.18139674661283786,0.22008646264510523,-0.19661199999999998,51.90376
401,Bridlington,0.6678256133580669,0.01,0.1909347132836155,0.36887096913875,-0.198802,54.08535
399,Peterborough,0.8272100325153674,0.01,0.1379997936115215,0.2212771537420394,-0.2405299,52.5695
218,Lyme Regis,0.7571625745095341,0.01,0.3022253711846447,0.11192593987855143,-2.936639,50.725159999999995
398,Biggleswade,0.662237252788943,0.01,0.32730066522530316,0.20780287433708022,-0.26421999999999995,52.086940000000006
397,Horsham,0.7868779428502267,0.01,0.20291400396165202,0.1949518156612962,-0.325858,51.06288
396,Hull,0.6993517874142021,0.01,0.18841883773083418,0.32984574103323155,-0.3274198,53.767619999999994
395,Dorking,0.8494661847161479,0.01,0.17174743084098268,0.14982222472075418,-0.332378,51.2322
223,Selkirk,0.19864212846479495,0.01,0.38500431653951955,0.7560807337899773,-2.838524,55.55066
224,Galashiels,0.20660176006591516,0.01,0.3939562909473483,0.7343783331387266,-2.814449,55.62373
394,Worthing,0.7051989675148903,0.01,0.260702123536089,0.23269471701835745,-0.372882,50.81787
226,St Andrews,0.20100408944169926,0.01,0.4036572038388257,0.7298701626902678,-2.7967214,56.339780000000005
227,Hawick,0.30054487097427396,0.01,0.360940275704804,0.6496287129205658,-2.780914,55.42706
228,Bridport,0.6749417539678292,0.01,0.3356520491607287,0.18050158452717868,-2.758301,50.733579999999996
229,Shrewsbury,0.8352562476288454,0.01,0.16472956816986273,0.1774875810019591,-2.7553267999999997,52.7073
393,Scarborough,0.6692509827926907,0.01,0.12531888278392886,0.44806150499820874,-0.399752,54.28311
392,Luton,0.6538149114497386,0.01,0.32136015041189603,0.22640142136607183,-0.4200255,51.87867
391,Beverley,0.6833962149971025,0.01,0.1687298802695131,0.37550439736652735,-0.435093,53.84196
390,Driffield,0.6803490339654085,0.01,0.17209532127386998,0.3754173966909283,-0.443377,54.006
234,Hereford,0.7244051456674496,0.01,0.3100864062983722,0.14599056789243053,-2.715974,52.0564
235,Ludlow,0.7364937867019825,0.01,0.2671660596664057,0.18288004886372042,-2.7139129,52.36775
236,Preston,0.6494075313690663,0.01,0.16364874694507292,0.4272100548193845,-2.70309,53.7632
237,Whitchurch,0.8475557614112184,0.01,0.08987956477200361,0.253557508889946,-2.682045,52.96872
389,Heathrow,0.6563216437833271,0.01,0.31503368914371427,0.230869923886354,-0.4542955,51.47002
239,Yeovil,0.6910062540295082,0.01,0.3460091767364948,0.146230528994966,-2.633308,50.94206
240,Wigan,0.6313516105231554,0.01,0.2572698328001631,0.3356337558739143,-2.6325074,53.54506
241,Warrington,0.6601401628794139,0.01,0.2256399427146125,0.3362497348420485,-2.5969501,53.39004
242,Arbroath,0.2132375018329169,0.01,0.4335360638696833,0.6765927506836372,-2.591543,56.55911
387,Lincoln,0.6410829456083312,0.01,0.3149512344296253,0.2513385126109669,-0.540579,53.23069
386,Woking,0.7954594861315091,0.01,0.12005738606475061,0.2858869325682052,-0.5600349,51.31677
245,Ross-on-Wye,0.7040980535002318,0.01,0.3538646242597071,0.119024526824329,-2.582446,51.91445
246,Jedburgh,0.3180421885146508,0.01,0.3716476596301619,0.6130101634010057,-2.5549369,55.47772
385,Guildford,0.8333197561696568,0.01,0.1085381906777848,0.24952316363124893,-0.570409,51.23622
248,Nantwich,0.808738883212341,0.01,0.10488149022549197,0.28689487496340543,-2.524102,53.06718000000001
384,Slough,0.7617887408848749,0.01,0.16164607396258326,0.2794872937703236,-0.5950406,51.51054
250,Dunbar,0.16990897093633567,0.01,0.42645427110888506,0.7432539138607704,-2.516737,56.00209
383,Whitby,0.5292230991776897,0.01,0.21686214004716733,0.5220687752783499,-0.613347,54.486340000000006
382,Grantham,0.6612513179546742,0.01,0.33747239554100206,0.19654881683560624,-0.643582,52.912519999999994
253,Blackburn,0.6965657534278458,0.01,0.15607449113913854,0.37354426915898714,-2.487529,53.748580000000004
254,Market Drayton,0.8433308584103554,0.01,0.09387806468013557,0.2542622678667185,-2.483485,52.90355
255,Telford,0.7832842615846173,0.01,0.17793400099167142,0.23062818345077926,-2.4672611,52.67759
381,Scunthorpe,0.6417225463931682,0.01,0.2280693867996949,0.3578622169603735,-0.654413,53.58865
380,Bognor Regis,0.6412821807873045,0.01,0.25198301573837995,0.3288953905469286,-0.673061,50.783
376,Midhurst,0.6089464974408981,0.01,0.2469143663999557,0.378376719943133,-0.737274,50.9869
259,Crewe,0.7720493526020441,0.01,0.14856950132013116,0.2819360168761402,-2.4438209,53.1004
375,High Wycombe,0.757991169412745,0.01,0.22765640848810373,0.20297993614110593,-0.748229,51.628609999999995
374,Aldershot,0.7786706637836532,0.01,0.16674930595581777,0.2506178329585037,-0.7557509,51.24837
372,Gainsborough,0.49161466612978666,0.01,0.27991996154126886,0.49439810588380395,-0.774465,53.400569999999995
263,Kelso,0.2518295422013164,0.01,0.3660323325170081,0.7084431915948985,-2.432207,55.600030000000004
370,Malton,0.6929767271897826,0.01,0.16472262143570873,0.36765249929349275,-0.7978970000000001,54.13684
265,Clitheroe,0.6769899660881243,0.01,0.18354112290433894,0.3657604274639831,-2.3930830000000003,53.8711
369,Newark-on-Trent,0.5849745020866159,0.01,0.3659881351794195,0.26324975992691146,-0.80657,53.070040000000006
368,Aylesbury,0.7099834048267982,0.01,0.2750380686065505,0.20858214755095583,-0.8084,51.81561
367,Melton Mowbray,0.6530221602586336,0.01,0.3047671711438703,0.24796796434047366,-0.887126,52.7664
364,Retford,0.4946474165760881,0.01,0.28385674626046725,0.485479590975382,-0.9455030000000001,53.32136
363,Reading,0.9021019776884529,0.01,0.050098990961694755,0.22982200871221178,-0.9781303,51.45426
271,Gloucester,0.68000502742975,0.01,0.3438460744659698,0.16360740213494085,-2.238156,51.86424
272,Newcastle-under-Lyme,0.8213940410992389,0.01,0.11330495911242883,0.2595707648962029,-2.2273002,53.01321
361,Helmsley,0.6600405452899265,0.01,0.10771288845709512,0.48213079287378857,-1.0562636,54.24651
360,Selby,0.5907793214366345,0.01,0.3032482022808443,0.33303325441555803,-1.067189,53.783519999999996
275,Shaftesbury,0.6631803613697888,0.01,0.33477726404385505,0.1973019164337607,-2.198083,51.0046
359,York,0.5691744075895573,0.01,0.33272616527690035,0.32547550000253833,-1.0872979,53.95997
277,Stoke-on-Trent,0.8116133627220742,0.01,0.12638440105811846,0.25647752505773747,-2.179404,53.002669999999995
357,Basingstoke,0.7922270350034796,0.01,0.16484484368589683,0.23485353948909896,-1.0923964,51.26654
356,Worksop,0.5318806544037725,0.01,0.23524400403715998,0.49579854675027096,-1.122745,53.3093
355,Doncaster,0.5310758001410473,0.01,0.1948703402137882,0.5467731534031947,-1.128462,53.522819999999996
354,Leicester,0.6135782498492934,0.01,0.2913970738140843,0.3172092848534511,-1.1397591999999999,52.636880000000005
353,Bicester,0.6619928638427713,0.01,0.36327483142843475,0.1636680363300487,-1.1535898999999998,51.8996
283,Stafford,0.7859059730985957,0.01,0.17311301782743402,0.23308247474914887,-2.12066,52.80669
352,Nottingham,0.6583638043678119,0.01,0.31678633003531254,0.22597429433642524,-1.1581086,52.95478000000001
285,Hexham,0.5092344108946267,0.01,0.29675300584683456,0.450045069386025,-2.1121439,54.97266
351,Mansfield,0.5408131867620325,0.01,0.3242125398619211,0.3739028420950678,-1.198674,53.1472
350,Loughborough,0.6432610329971626,0.01,0.3242603112438933,0.23692214479759352,-1.206166,52.7721
288,Cheltenham,0.6800199235178975,0.01,0.3295551321515496,0.18124951410520848,-2.0782533,51.899390000000004
349,Hartlepool,0.5041199321296981,0.01,0.2549121716346723,0.5085928223049028,-1.212926,54.69174
348,Middlesbrough,0.5066480775899995,0.01,0.23546015821438723,0.5292547984008201,-1.234956,54.57423000000001
347,Oxford,0.6752205901178421,0.01,0.34419300846444456,0.16957297699290025,-1.2577263,51.75202
292,Berwick,0.2737994102080101,0.01,0.37458250379427593,0.6685133592822304,-2.005395,55.77024
344,Abingdon,0.6719555537969903,0.01,0.33532243165898584,0.18489998381429076,-1.2879528999999998,51.67078
342,Newbury,0.7295061248524939,0.01,0.269451937912305,0.1893940502487632,-1.3231138999999998,51.40141
295,Cirencester,0.6781942217143068,0.01,0.30149712188749805,0.21836723497817365,-1.968243,51.71849
296,Evesham,0.7247728928435927,0.01,0.24235252662285522,0.2292128422254693,-1.9467700000000001,52.09215
297,Buxton,0.6414590718340576,0.01,0.15346272045183973,0.45042223821879945,-1.91483,53.259080000000004
341,Stockton,0.5033909548159751,0.01,0.23749021542426674,0.5310988966741553,-1.3289821000000002,54.57046
339,Thirsk,0.5774082203131435,0.01,0.27134472161466267,0.3903334833447957,-1.341377,54.23385
337,Rotherham,0.5372865378930877,0.01,0.1985025257419288,0.5339829031229559,-1.3635008999999998,53.4326
336,Sunderland,0.4764541724175654,0.01,0.3184280748737129,0.467067513071752,-1.383801,54.90687
333,Chesterfield,0.47465174575170593,0.01,0.30997631566362704,0.4799221677422797,-1.421629,53.23505
332,South Shields,0.48730736914135714,0.01,0.328932090639779,0.4395800776515869,-1.427406,54.99941999999999
331,Northallerton,0.5877842767134575,0.01,0.14602397630056205,0.5313518605950548,-1.429959,54.337959999999995
329,Sheffield,0.5313146030541633,0.01,0.1985222584940185,0.5419401364676273,-1.470085,53.381130000000006
306,Swindon,0.7313476537497413,0.01,0.26460165765185284,0.19292723951335763,-1.7797176,51.55577
328,Derby,0.7054480114886077,0.01,0.29001965724410966,0.19612783037137843,-1.4746186000000001,52.92253
308,Ashbourne,0.778123698046983,0.01,0.16506180328157677,0.25343406299426263,-1.7321790000000001,53.016630000000006
309,Marlborough,0.6687845490325683,0.01,0.2846633225021331,0.25174820715398394,-1.7270619999999999,51.42007
326,Witney,0.735057710704003,0.01,0.25731926535769384,0.19696929314141023,-1.4850543999999999,51.785940000000004
311,Alnwick,0.4956673331114438,0.01,0.3182642728959072,0.44159154521661026,-1.7062990000000002,55.41274
323,Blyth,0.5019060010287607,0.01,0.3137166286190346,0.43887391884987104,-1.510277,55.12696
313,Bishop Auckland,0.4858359149340267,0.01,0.2674200685109071,0.5175704595974935,-1.6787880000000002,54.663819999999994
314,Burton upon Trent,0.7601362061059993,0.01,0.1760403111935546,0.2639057801098737,-1.6371358999999999,52.81403
315,Newcastle,0.49141962047560434,0.01,0.3178910117817618,0.4477301384375853,-1.61778,54.97825
316,Durham,0.49585818924083475,0.01,0.2687404010480507,0.5025438987590857,-1.5848520000000001,54.77525
317,Ashington,0.4994448879651245,0.01,0.3154478252443311,0.44002356085801775,-1.5659829,55.18298000000001
318,Darlington,0.5385410678167687,0.01,0.2239899423370726,0.500806224510121,-1.559458,54.52361
408,London,0.7034905724054622,0.06418772062974736,0.3370809118343656,0.13903531679942233,-0.12775830000000002,51.50735
338,Castleford,0.5766094175862282,0.0742645416588255,0.31807993274755914,0.3318532517597479,-1.345968,53.72346999999999
327,Barnsley,0.5346620333625826,0.08730354000235752,0.2395393509837431,0.484671431596117,-1.479726,53.55263000000001
330,Nuneaton,0.6410401193549067,0.2020294059256471,0.30755210679848677,0.2556780072644569,-1.465382,52.52049
289,Bromsgrove,0.633055816107792,0.2175890894389309,0.3301991648817419,0.23798446261504322,-2.061906,52.33559
294,Walsall,0.6615194475413304,0.22046549645441404,0.29133193559672693,0.24791042842457403,-1.9829189999999999,52.586209999999994
268,Kidderminster,0.6272002569575211,0.22059092065290895,0.33954393180119247,0.2341888963844848,-2.2496839,52.3886
282,Wolverhampton,0.6632958060529324,0.22469747745363028,0.28377640576981633,0.25477229564024084,-2.12882,52.586969999999994
287,Dudley,0.6534955765600745,0.22615546913613438,0.2930084141058974,0.25642542668406276,-2.081112,52.51225
310,Stratford-upon-Avon,0.6679545576210949,0.22642666148288007,0.2916939208525354,0.23871924006004835,-1.7082979999999999,52.19173
299,Birmingham,0.6419976585211451,0.22685008447779903,0.30430058216652534,0.2578196647706691,-1.8904009999999998,52.48624
322,Coventry,0.6652499866167962,0.23256510580921874,0.2887594793976476,0.2458128622933597,-1.519693,52.40682
273,Worcester,0.645479153622891,0.23263138520842339,0.34367960453953966,0.20435809179447254,-2.221575,52.19364
206,Southport,0.5524679792292674,0.23867046213595447,0.19081017545537604,0.5174564267468745,-3.010113,53.64571
220,Chester,0.6387963960776732,0.24400220552197355,0.17035924179920414,0.4272257328587516,-2.893075,53.19339
212,Liverpool,0.6022753774645458,0.25440825214710094,0.19243022433420837,0.44850729636043524,-2.9915726,53.40837
211,Wrexham,0.6633200121961719,0.25899639444204325,0.14500154791358866,0.4254289735542832,-2.9924939999999998,53.043040000000005
232,Street,0.621897249576975,0.2595598727352815,0.37942191090561755,0.1910526312776985,-2.7429189999999997,51.12468
213,Weston-super-Mare,0.61852095809777,0.2610012687179848,0.37075032279661413,0.20624728931676495,-2.977255,51.347409999999996
233,Glastonbury,0.6149389144010264,0.2640224615817305,0.3842019184060768,0.19433739205421038,-2.718454,51.14743
207,Bridgwater,0.6332080355085499,0.26583255611000933,0.35556773191646796,0.20526660306857553,-3.003632,51.12789
371,Chichester,0.635256247628845,0.26594650290864197,0.27387016151156907,0.30349809285361123,-0.774936,50.83761
209,Newport,0.6196209411069188,0.2659693026083683,0.3507499200873878,0.22937674617274173,-2.997664,51.58415
321,Leamington Spa,0.6372318413194212,0.2700631929092417,0.31182379457802367,0.253851011741209,-1.5200789,52.28519
197,Mold,0.6399671355055246,0.27027968665664376,0.1550391760569229,0.44396295443543676,-3.1419029999999997,53.1672
204,Birkenhead,0.6034628749915627,0.2726553533281358,0.19131044099177213,0.4478652370982427,-3.023009,53.389990000000004
176,Prestatyn,0.6271285695333103,0.2775590465692914,0.1699160602956389,0.44255978235496896,-3.4076129999999996,53.33651
171,Rhyl,0.624181937096613,0.2820256421656923,0.16725314553659745,0.4496816188376968,-3.4916339999999995,53.319140000000004
157,Colwyn Bay,0.6343708613895719,0.28560904667269144,0.16266578406227894,0.4416474946642406,-3.72764,53.29318000000001
194,Llangollen,0.7100555577537624,0.28584593606984876,0.09443652169973495,0.42481479258352095,-3.1716599999999997,52.96921
221,Forfar,0.2320731397928048,0.28936567202761193,0.37410710555260507,0.7179035880711123,-2.889062,56.64356
256,Montrose,0.225834006372733,0.29148656110216126,0.38506985746610317,0.7126424051247181,-2.4661150000000003,56.70692
188,Ruthin,0.6262590103876939,0.29173327349920075,0.16933711544415053,0.4440963173131643,-3.3103108,53.114869999999996
251,Cinderford,0.7414448740000418,0.3026932080676815,0.28649086730982687,0.14509418221306025,-2.5009579,51.8253
280,Rochdale,0.5542461997518873,0.30488112619142654,0.2658880115980257,0.42069601610567653,-2.1561,53.60971
182,Corwen,0.6868777100988493,0.305104754538743,0.11082104860448666,0.4350788627777364,-3.369242,52.98005
269,Manchester,0.5787963495273989,0.3066442254202693,0.24927977971805318,0.4083685666160888,-2.2426305,53.48076
118,Caernarfon,0.654099333632807,0.30825796335090444,0.133562743355927,0.45070384566876487,-4.273911,53.13955
151,Llandudno,0.6173739593104042,0.31041729137499247,0.16161340417659806,0.46506743074960244,-3.827609,53.324059999999996
132,Bangor,0.6742467583551925,0.3119155315070136,0.11952601124062125,0.441037519389753,-4.129263,53.22739
104,Holyhead,0.6757419532030087,0.3196949338136608,0.1005566951667342,0.4622963248485775,-4.633038,53.30944
262,Alston,0.5514080294570144,0.32285594932572864,0.2459192215630655,0.4487365565789582,-2.438685,54.812169999999995
335,Wetherby,0.5772937066355093,0.3240864610109625,0.3100280134605558,0.3348776450967703,-1.384816,53.92706
320,Harrogate,0.5870152661628377,0.32571989664136125,0.3031917726505062,0.330294070744689,-1.5418120000000002,53.99211999999999
264,Wincanton,0.712637236030844,0.3265950742308591,0.29147736396608176,0.17685722427629424,-2.416007,51.055690000000006
274,Trowbridge,0.6781769981123869,0.3268703767275555,0.3243725161020767,0.18225094886978258,-2.208853,51.31966
267,Bath,0.6458948475827608,0.3336201218465585,0.3431119858850416,0.20207314820704445,-2.3590167,51.38106
301,Halifax,0.5703716806744206,0.33497760873026866,0.33167851722462866,0.3171080121848726,-1.8575400000000002,53.727019999999996
304,Huddersfield,0.587688848648762,0.33719150610370197,0.2980807381660118,0.3354344892378472,-1.7850351000000002,53.645790000000005
298,Keighley,0.5580377196882063,0.3387823926346113,0.3525834551948232,0.3076639905497756,-1.9123580000000002,53.8678
312,Otley,0.5560267477882801,0.3395537307753552,0.35153178005028834,0.3116333652667621,-1.691786,53.90583
117,Llangefni,0.6748467914058885,0.3396474370242308,0.10645245891736659,0.45572606916513897,-4.311401999999999,53.25578
238,Wells,0.6396803858086834,0.34072933706124797,0.3827030850043669,0.16127645096770335,-2.6445979,51.20935
243,Bristol,0.6631836198890709,0.3432175287813896,0.36129853590026906,0.15625888733303012,-2.58791,51.45451
284,Macclesfield,0.5280491012305563,0.34560914490269024,0.28693138086476766,0.42872058414085196,-2.119287,53.25866
290,Skipton,0.5720963683802598,0.3464713974923432,0.3423766388377812,0.3013048160249272,-2.0162787,53.96285
340,Banbury,0.6874577265310963,0.35118305108580333,0.2850381944531838,0.21787615150221995,-1.339775,52.0629
307,Bradford,0.5444897275179627,0.35175172522897935,0.3601918909463415,0.31605572955690675,-1.759398,53.79598000000001
319,Leeds,0.5671126958893782,0.356998163616022,0.3429343911162344,0.3070224912175605,-1.5490774,53.80076
365,Petersfield,0.5914189222214724,0.360320586526153,0.2703025101369463,0.3642244026642115,-0.93899,51.00759
324,Wakefield,0.5415891798539719,0.3652711975167457,0.3589266288958971,0.3211703228352186,-1.505924,53.6833
325,Andover,0.6654017405147992,0.37069788795162534,0.3151559113939025,0.2096614810182742,-1.4919233,51.2112
219,Carlisle,0.5588341949013482,0.37083083450002996,0.2510032745293965,0.4313732959588783,-2.932931,54.892469999999996
281,Jersey,0.6323961987045055,0.3770053395759359,0.2695282009720394,0.3100136247139256,-2.13125,49.21444
451,Margate,0.6544074964563601,0.3853416025759008,0.2725338212826792,0.27668037723652206,1.3868339,51.38965
452,Ramsgate,0.6601820581273291,0.3859168943189973,0.2659438875031776,0.2770934313594035,1.4198950000000001,51.33555
270,Burnley,0.7009596339286336,0.39285712808571444,0.137352790900785,0.3813549874929063,-2.2405035,53.78929
434,Southend,0.7132247005071654,0.3951592256580893,0.17161353002323124,0.32256405076340106,0.7077123000000001,51.54593
446,Harwich,0.7441592205621873,0.399176419009883,0.20085515304209065,0.2449828780878645,1.260297,51.93473
439,Colchester,0.7448854048593837,0.4008269673400764,0.19921844206901929,0.24599585363141716,0.891874,51.89593
430,Braintree,0.7215441657376003,0.40311890586257315,0.2088843695964602,0.26518956267627214,0.5509269,51.88009
441,Canterbury,0.6702280730746223,0.40338099900942803,0.2229924819221311,0.3163309102550205,1.0789089,51.280229999999996
427,Chelmsford,0.7361176604762562,0.41048033952423596,0.20305157950109357,0.2527435946748021,0.4685497,51.73559
438,Faversham,0.6765030502068001,0.41173346995919835,0.22678036490489767,0.3030621189303217,0.889358,51.31599
346,Rugby,0.6560995989693765,0.4141300751304391,0.2807483344198093,0.26357359231861677,-1.265032,52.37088
278,Colne,0.6934622465628444,0.4143181338781824,0.15642509985930342,0.3672870765473553,-2.176991,53.85564
443,Clacton,0.7412051400814165,0.4158734249595189,0.19948266966013856,0.2502256704452234,1.153035,51.78953
429,Medway,0.6849672867939198,0.416599499750806,0.1713669209607635,0.3601185107972915,0.5417860999999999,51.404740000000004
431,Gillingham,0.684560902889143,0.4168234382981188,0.171645595745377,0.36031207236903334,0.551438,51.38632
379,Corby,0.6314437800685683,0.4200406258595125,0.2683521390152249,0.31170404087279796,-0.6842333,52.4923
377,Kettering,0.6140060468807824,0.4234812349682252,0.3043187040817097,0.29047562094741347,-0.7302489999999999,52.39632
231,Kendal,0.6237192273585277,0.42703744527555065,0.1947535545381554,0.4128216026261064,-2.74629,54.32801
222,Morecambe,0.5964617135621897,0.42916435740002773,0.2058098860081196,0.4355355230029687,-2.864968,54.074169999999995
433,Maldon,0.727297779784612,0.4398128511722458,0.20168735165828103,0.2655117961568198,0.6714479999999999,51.7318
216,Ambleside,0.6371182586472955,0.4481363701223635,0.16916802790774937,0.426027818665109,-2.961333,54.428740000000005
225,Lancaster,0.5899120898047914,0.44891461021302465,0.20503220415344223,0.4447747346952224,-2.8007399,54.046569999999996
247,Sedbergh,0.6228990115049,0.4515283812316594,0.1862654004817409,0.4238189073471672,-2.5281740000000004,54.32363
161,Whitehaven,0.6353540032073145,0.4544389102467331,0.14398163645927975,0.4593624161959024,-3.589233,54.5497
190,Barrow-in-Furness,0.6198695195778817,0.45470537204353556,0.15460002164562087,0.466927505691626,-3.2188939999999997,54.10896999999999
470,Oxenholme,0.6187811741375978,0.4564449736226603,0.19429587550244268,0.4192792003980928,-2.7243327999999996,54.30134
400,Welwyn Garden City,0.7893078672293038,0.4588757266434913,0.16739318767005024,0.22456100618769906,-0.208661,51.80317
178,Braemar,0.28759644635197157,0.47257769992906756,0.4189598524070685,0.58385277415192,-3.3979439,57.00646999999999
257,Turriff,0.2982466838747516,0.47286584987560976,0.4163575957252416,0.5728280950764087,-2.4623,57.53893000000001
305,Peterhead,0.28618876602202303,0.47315436172214764,0.4245016850864189,0.5788714068795635,-1.784066,57.50812
373,Milton Keynes,0.6161212913977417,0.47657090448114914,0.33417581781434597,0.24946949123219334,-0.7594171,52.040620000000004
291,Fraserburgh,0.30351338204043804,0.47840837415909954,0.42375425676236883,0.556514130791082,-2.007631,57.69335
249,Banff,0.32290529579208815,0.4862068796155174,0.42843086866897045,0.5246296212514181,-2.524038,57.666509999999995
266,Sark,0.7261652115826399,0.4863593429136879,0.24477774226106125,0.2126489251982326,-2.3666256000000003,49.43007
159,Grantown-on-Spey,0.33416860044269325,0.4889659534824085,0.4233102698403509,0.5158385339629634,-3.609628,57.33041
388,Bedford,0.6197768845297146,0.48973791202314504,0.32915821187035776,0.2504686240624159,-0.46677820000000003,52.13864
437,Ashford,0.7588351259068573,0.49121138785546337,0.17256452786118612,0.25811850562104993,0.8750190000000001,51.14647
466,Reeth,0.5871428139176016,0.49160063715079233,0.1410659713220692,0.526505735076572,-1.9428115000000001,54.38946
244,Guernsey,0.6995761597419251,0.49238094524142867,0.2616948521176213,0.22713209265790948,-2.5852779999999997,49.46569
152,Aviemore,0.30137300037472997,0.4936346185263846,0.44989225011263273,0.526704062274566,-3.823812,57.19449
469,Keswick,0.5988325190914322,0.49426385921883365,0.1453150570462788,0.5055666869635062,-3.134706,54.60128
186,Elgin,0.33481704577986837,0.49457907411505114,0.43215497257801866,0.5039052378487977,-3.318485,57.64945
444,Folkestone,0.7682112823902632,0.4973544851817462,0.16937909788099437,0.24937646819861514,1.169456,51.0814
362,Towcester,0.5489497094099054,0.49823320422120154,0.39775620486825114,0.260142839132665,-0.9896879999999999,52.13511
108,Isle of Man,0.5983353621495051,0.5007263849912834,0.15744224268768134,0.49108736435634076,-4.5126330999999995,54.27697
450,Felixstowe,0.7783676214904003,0.5043902346973173,0.19305653785844265,0.20636985798881713,1.3512549999999999,51.961729999999996
449,Dover,0.7570182686556047,0.5056234606325185,0.1681208832420106,0.26569166432989216,1.3134027,51.12788
230,Penrith,0.5981566090917344,0.5164835108021979,0.194274934622674,0.44542474496309387,-2.752708,54.6641
215,Kirkwall,0.3400260216039832,0.5194239741169122,0.4510736983053492,0.47296310290398097,-2.9622491,58.984669999999994
345,Shetland Islands,0.3353495809311449,0.5194239741169122,0.4510736983053492,0.4792137194491006,-1.2659409,60.52965
141,Golspie,0.3587336463063518,0.5194239741169122,0.430843852014427,0.47296310290398097,-3.976086,57.97341
217,Orkney Islands,0.3400260216039832,0.5194239741169122,0.4510736983053492,0.47296310290398097,-2.9605206,58.980940000000004
150,Brora,0.34718126444513253,0.5204697875543625,0.4425455753582224,0.4739153820379839,-3.8525480000000005,58.012159999999994
169,Thurso,0.3424950482144479,0.5204697875543625,0.4425455753582224,0.4801785783432622,-3.5220800000000003,58.59356999999999
200,John o' Groats,0.34718126444513253,0.5204697875543625,0.4425455753582224,0.4739153820379839,-3.0688997000000002,58.63734
199,Wick,0.3424950482144479,0.5204697875543625,0.4425455753582224,0.4801785783432622,-3.093716,58.43894
366,Northampton,0.6258749706151391,0.5257627042408475,0.3006981467824791,0.2766257965066143,-0.9026559999999999,52.24048
124,Inverness,0.330189482896265,0.5262979284844249,0.4411398181264456,0.49822220365743275,-4.224721,57.47776999999999
137,Tain,0.3622621571863151,0.5268342384279892,0.4214246342267604,0.47971053909660044,-4.05523,57.8115
121,Alness,0.3622621571863151,0.5268342384279892,0.4214246342267604,0.47971053909660044,-4.256825,57.69595
114,Lairg,0.3622621571863151,0.5268342384279892,0.4214246342267604,0.47971053909660044,-4.402414,58.022059999999996
127,Invergordon,0.3622621571863151,0.5268342384279892,0.4214246342267604,0.47971053909660044,-4.1728819999999995,57.688109999999995
112,Altnaharra,0.3622621571863151,0.5268342384279892,0.4214246342267604,0.47971053909660044,-4.442655,58.28023
378,Wellingborough,0.6064355755825187,0.5279101412650783,0.32190577107490637,0.2763439277559927,-0.693964,52.30242
89,Inchnadamph,0.3463591865804869,0.5322580595129033,0.4345197818322767,0.48464922104034697,-4.974295,58.15221
183,Cockermouth,0.6212688208582475,0.5337233150453202,0.1569163044381073,0.460292671417461,-3.367985,54.66326
78,Ullapool,0.3430569100392651,0.5346432131342814,0.4466987659479145,0.47395351949088876,-5.161313,57.895419999999994
286,Aberdeen,0.22186885390894295,0.5350120667798552,0.445510018650471,0.6373814827324066,-2.094278,57.149719999999995
252,Banchory,0.21040352106283586,0.5400417787694987,0.4529620522062173,0.643373579606962,-2.4909599,57.05386
165,Workington,0.6189850643441184,0.5464153546930157,0.15294257114739407,0.4679507963896511,-3.5427519999999997,54.64357
260,Fortuneswell,0.6958288625672949,0.5496102078546775,0.32175943660979234,0.156528182544937,-2.4422189999999997,50.55919
442,Ipswich,0.828834171626211,0.5531383709123395,0.1429385692244575,0.19968971915803652,1.14822,52.056740000000005
258,Weymouth,0.6669960874493477,0.5633853883393753,0.3604670420252246,0.1468920738203719,-2.457621,50.61443
465,Hawes,0.6997940150310834,0.5746572807041127,0.12097329786136231,0.398780972713343,-2.1968695,54.303830000000005
153,Dalbeattie,0.4146065454342331,0.5793798946974412,0.220721554256259,0.6565401526035649,-3.8225269999999996,54.934219999999996
81,Achnasheen,0.22169242836494463,0.60162917038045,0.47586800198334295,0.5984942462590954,-5.078765799999999,57.578590000000005
261,Dorchester,0.6512006479798342,0.6847681978827815,0.3562445351099522,0.17030001496132896,-2.4411810000000003,50.71116
303,Ringwood,0.6228436166771019,0.6975489030294132,0.2912672504272492,0.2881982239717919,-1.7888169999999999,50.84495
343,Isle of Wight,0.5658153397122726,0.7004628959444452,0.3143948412948109,0.3357627077477088,-1.304734,50.69385
300,Bournemouth,0.605527845211024,0.7041997718996028,0.3007827660586596,0.29942024103567033,-1.880769,50.719159999999995
358,Portsmouth,0.5783331742865587,0.7126938491476739,0.2704322831851279,0.3730722419665975,-1.0879769,50.81977
334,Southampton,0.5423297947365604,0.7183881387793424,0.33482186409067,0.3414734335871782,-1.4043508999999998,50.9097
65,Stornoway,0.464386013504235,0.7825428748094855,0.3842966054129154,0.3829546887739962,-6.384869200000001,58.209430000000005
293,Poole,0.6189911158799287,0.8354430379746836,0.33613016568967735,0.23458179302817994,-1.987248,50.71505
467,Aysgarth,0.6717768007392181,0.8533700127595598,0.08767417803271509,0.47067321948986346,-1.9967433999999997,54.29159
302,Salisbury,0.6375185910162625,0.8767665114288019,0.3187071020288994,0.23035873270276758,-1.794472,51.06878
276,Alderney,0.6686509497419957,0.9422843179425883,0.27442444042294534,0.241903057904524,-2.1973557,49.715
279,Blandford Forum,0.6663374010515704,1.0,0.3027604710691175,0.20858484765773577,-2.165353,50.85691
