,placename,said,this_is,was_like,went,longitude,latitude
0,Dingle,0.7083637150903721,0.01,0.6590792888424921,0.09093083205784079,-10.264013499999999,52.14094
1,Tralee,0.7105955959578015,0.01,0.6557710759353542,0.09059345475280987,-9.6999325,52.27131
2,Killarney,0.6993315912094296,0.01,0.668254034199406,0.09517786277992525,-9.5044265,52.059940000000005
3,Bantry,0.7167755342070719,0.01,0.6328499087084087,0.0990645711409691,-9.4539805,51.68035
4,Mayo,0.5578193976597484,0.01,0.8755741662461166,0.11825733149423515,-9.4289369,54.01526
5,Ballycastle,0.6795742763263117,0.01,0.7474552268178773,0.06404807867378143,-9.3724643,54.279669999999996
6,Abbeyfeale,0.6845507017045604,0.01,0.6971496903400412,0.09263846827870793,-9.2970823,52.386179999999996
7,Ennistymon,0.6716860674076676,0.01,0.7000272170470924,0.10565235166640949,-9.2934951,52.940369999999994
8,Galway,0.6131183511083075,0.01,0.827337415441442,0.08683315665404145,-9.0567905,53.270669999999996
9,Claremorris,0.5271848562930219,0.01,0.9728315436769369,0.08745189416748715,-9.0017356,53.72388
10,Clare,0.6559887080207228,0.01,0.7352795611372892,0.09983549669566408,-8.9811351,52.90453
11,Adare,0.6689311844841095,0.01,0.7002219945443651,0.10872769735244506,-8.7925892,52.56363
12,Charleville,0.6762775389469284,0.01,0.6864454236042768,0.10958962413236352,-8.681017599999999,52.36206
13,Mallow,0.6917644812275706,0.01,0.6752080052722538,0.09923580924415233,-8.6539164,52.13898
14,Limerick,0.6689311844841095,0.01,0.7002219945443651,0.10872769735244506,-8.6267343,52.66384
15,Loughrea,0.6443920496389761,0.01,0.780115994143828,0.08269228222503873,-8.5660931,53.19891
16,Sligo,0.7565826802395829,0.01,0.6203057198587781,0.06128327024269141,-8.476088800000001,54.27661
17,Cork,0.6917644812275706,0.01,0.6752080052722538,0.09923580924415233,-8.4756035,51.898509999999995
18,Nenagh,0.6459014578986383,0.01,0.7775987022016797,0.08265559846265291,-8.19834,52.8635
19,Roscommon,0.6758925851079415,0.01,0.756731608730549,0.061994212888620386,-8.1890955,53.627590000000005
20,Tipperary,0.6625092057484003,0.01,0.7078921873398978,0.11096292822538616,-8.161851400000002,52.47379
21,Donegal,0.836133725544332,0.01,0.5180106503921089,0.03856858542809064,-8.1096143,54.653830000000006
22,Leitrim,0.659141315763707,0.01,0.8499021812903987,0.017815915356538203,-8.0020132,54.12469
23,Athlone,0.6266124122983326,0.01,0.7467048154281184,0.1262351999962608,-7.9406898,53.423930000000006
24,Longford,0.59950083710736,0.01,0.9775711639789272,0.01,-7.7932573000000005,53.727630000000005
25,Offaly,0.5946624599462523,0.01,0.8110588861068629,0.1194522448585901,-7.7122229,53.235690000000005
26,Fermanagh,0.7059390532324866,0.01,0.7176605896432867,0.05371175584987391,-7.6318728,54.343830000000004
27,Enniskillen,0.7059390532324866,0.01,0.7176605896432867,0.05371175584987391,-7.631533599999999,54.343819999999994
28,Doon,0.699036642375451,0.01,0.7654042840067266,0.029115151534036335,-7.60964,54.185930000000006
29,Westmeath,0.5036826034312588,0.01,1.0,0.09624934024111712,-7.4653217000000005,53.534530000000004
30,Strabane,0.828744801146712,0.01,0.4617156022680804,0.08565325672139652,-7.4633103,54.82739
31,Cavan,0.6314629522979552,0.01,0.9040233882188,0.013053045782680999,-7.3633319,53.98972
32,Mullingar,0.5078678361641326,0.01,0.9936754296164778,0.09569901298725579,-7.340186800000001,53.525819999999996
33,Laois,0.6880152862554446,0.01,0.7622604923167011,0.044098343926418884,-7.332300699999999,52.99429
34,Omagh,0.8362462318005929,0.01,0.4547841134914601,0.08165564725630596,-7.309959700000001,54.59771
35,Derry,0.8684820108577658,0.01,0.3864516088258657,0.09082524230935189,-7.308574799999999,54.99661
36,Kilkenny,0.8031012805644528,0.01,0.5485190227681427,0.056181536184247094,-7.2447879,52.65415
37,Tyrone,0.8159117902299565,0.01,0.46838994330627975,0.09603490311273055,-7.131232000000001,54.491209999999995
38,Waterford,0.7060460862114154,0.01,0.7183933881742499,0.05308643225553655,-7.110070200000001,52.25932
39,Monaghan,0.9346958955893279,0.01,0.25431186094461494,0.10404180702513878,-6.9683132,54.2492
40,Carlow,0.9413441031214096,0.01,0.35937422134328295,0.024485349121420353,-6.934135899999999,52.83651
41,Kildare,0.5599935050442327,0.01,0.9342645631663941,0.0756084210905006,-6.8194707999999995,53.21204
42,Dungannon,0.873856769197368,0.01,0.39978039873233,0.0754554540504362,-6.7669352,54.508269999999996
43,Cookstown,0.887606858138125,0.01,0.38892787316752464,0.06686175157600313,-6.7443895000000005,54.641819999999996
44,Coleraine,0.9049595798469059,0.01,0.3500081174558038,0.07325775675677017,-6.6646103000000005,55.132580000000004
45,Meath,0.5550158633821326,0.01,0.9479101773210821,0.07207721946145829,-6.656416900000001,53.60555
46,Armagh,0.8669318570890802,0.01,0.42237583167660225,0.06807415700466175,-6.652792,54.350280000000005
47,Magherafelt,0.8403110524321721,0.01,0.5030385807599824,0.043938436715092295,-6.607980499999999,54.75536999999999
48,Louth,0.5404928260537724,0.01,0.967235420412205,0.07578008410212844,-6.4889423,53.925230000000006
49,Wexford,0.6921451780730771,0.01,0.7873133334832153,0.022164286742665323,-6.4633381,52.33692
50,Craigavon,0.8624030241681675,0.01,0.41658866069646006,0.0773043015110665,-6.4175653,54.442930000000004
51,Drogheda,0.5550754612908538,0.01,0.9368396667274138,0.07957529551143008,-6.3560985,53.717859999999995
52,Rosslare,0.6990025864276099,0.01,0.7756307242438618,0.022164286742665323,-6.3414908,52.25131
53,Newry,0.8521473187326559,0.01,0.49598950024963634,0.03497329344198431,-6.34023,54.1751
54,Ballymena,0.8959499572172149,0.01,0.3980568250915687,0.050906156208100045,-6.2802213,54.86529
55,Banbridge,0.8594644823830404,0.01,0.43856370659090776,0.0657055048801089,-6.2704803,54.34873
56,Dublin,0.5685634410616207,0.01,0.922064032273388,0.07396834531232858,-6.2603097000000005,53.34981
57,Antrim,0.8336768321643828,0.01,0.4686167347645405,0.07519250654128845,-6.2072498,54.719530000000006
58,Wicklow,0.5770099242680857,0.01,0.9039940679891576,0.0764837324864247,-6.044589,52.980819999999994
59,Kilkeel,0.8264101442938343,0.01,0.4975666799522878,0.06386628867755675,-6.007004,54.06312
60,Belfast,0.8547398277620437,0.01,0.46282355469139735,0.05462445918892484,-5.93012,54.597280000000005
61,Down,0.8420254045208061,0.01,0.5048219345155982,0.040723154514627435,-5.7156921999999994,54.32875
62,Balivanich,0.09271549357102778,0.01,0.5251415788933301,0.8994046253692011,-7.3743509000000005,57.472269999999995
63,Western Isles,0.08342551751357495,0.01,0.5437251134190403,0.8975200855992224,-7.0194034,57.759890000000006
64,Dunvegan,0.0792378522129982,0.01,0.531167663122787,0.9109797687634079,-6.581398200000001,57.4366
65,Stornoway,0.09248926477465576,0.29755929494367134,0.594750705006476,0.8476424202813333,-6.384869200000001,58.209430000000005
66,Scilly Isles,0.7692995360485242,0.01,0.43977764698215566,0.16987230580604107,-6.327496599999999,49.92773
67,Portree,0.09187747399737128,0.01,0.5176711366375538,0.9054865523913173,-6.1960231,57.41246999999999
68,Islay,0.01,0.01,0.5305730737308458,0.9920333207536827,-6.177067,55.73625
69,Mull,0.03528135382122879,0.01,0.5373971240688107,0.9579093484744262,-6.0008870000000005,56.4392
70,Broadford,0.07093428235907953,0.01,0.5447481096999296,0.9113665062660894,-5.9096592,57.24139
71,Kyle of Lochalsh,0.05003001180403495,0.01,0.5845115213479763,0.9085300299440061,-5.7143293,57.28261
72,Campbeltown,0.015176789898518932,0.01,0.5275272924197674,0.9880677918761612,-5.605373999999999,55.424119999999995
73,Penzance,0.7735005804714674,0.01,0.4268481509451008,0.17381786398666524,-5.537592,50.1188
74,Oban,0.0213670665605253,0.01,0.5568577789625591,0.9608104816981663,-5.471047,56.41516
75,Lochgilphead,0.028813764441090316,0.01,0.5247406273430931,0.9740920574059806,-5.4323449,56.03829
76,Helston,0.7641431006602584,0.01,0.4478141872406443,0.17038375393721936,-5.274996,50.10159
77,Redruth,0.7596306875713411,0.01,0.449459228252186,0.174514359745477,-5.226666000000001,50.23302
78,Ullapool,0.11108867743118399,0.30680185407789134,0.5879804256903645,0.8304735696678823,-5.161313,57.895419999999994
79,Ballachulish,0.023799634263445942,0.01,0.5676744571794623,0.950584068525268,-5.133719999999999,56.673930000000006
80,Fort William,0.08520494078826163,0.01,0.5167002536976901,0.9139204184724979,-5.1052179,56.81981999999999
81,Achnasheen,0.11099441543269616,0.28229301185818273,0.6050498759899332,0.8192814104184294,-5.078765799999999,57.578590000000005
82,Newquay,0.7515947001647454,0.01,0.4555584576481716,0.1797026334904763,-5.0737190000000005,50.4155
83,Falmouth,0.7512298150093076,0.01,0.4647425274597418,0.17384994457423433,-5.066269999999999,50.152570000000004
84,Rothesay,0.024517849877732527,0.01,0.5249862749207705,0.9789263824166087,-5.055793,55.83596
85,Truro,0.7504641643248134,0.01,0.4581273449060867,0.17926341979488394,-5.051041000000001,50.2632
86,Milford Haven,0.7267004104349862,0.01,0.4466857210170825,0.21475708444538366,-5.0426971,51.71431
87,Stranraer,0.07370619325655785,0.01,0.48248717188150597,0.9506966692630933,-5.024055000000001,54.903369999999995
88,Fishguard,0.7386692516752783,0.01,0.44321111839684857,0.20319412175992263,-4.975989,51.99393
89,Inchnadamph,0.3238738883925776,0.5515057721605936,0.5414893164024719,0.6108085802328768,-4.974295,58.15221
90,Haverfordwest,0.7273754479725457,0.01,0.4434484775703871,0.21618385618435476,-4.971319,51.80048
91,Dunoon,0.02435912483511748,0.01,0.5389977185131557,0.9695340645205061,-4.926214,55.95097
92,Pembroke,0.7277981066109291,0.01,0.4436961972490994,0.21552248619029854,-4.908637000000001,51.674040000000005
93,Girvan,0.03055426663252983,0.01,0.5111134548876148,0.9813798037758639,-4.8542179,55.240159999999996
94,Wadebridge,0.7515947001647454,0.01,0.4555584576481716,0.1797026334904763,-4.836456,50.51665
95,Invergarry,0.03808549624077004,0.01,0.5871032017172746,0.9206681062092649,-4.800261,57.07095
96,St Austell,0.7560292710871689,0.01,0.4573165317711626,0.17333743417194444,-4.7834252,50.340379999999996
97,Greenock,0.020443907117267533,0.01,0.5389977185131557,0.9740936154036108,-4.7719830000000005,55.956480000000006
98,Helensburgh,0.017218930485121128,0.01,0.5459120088511868,0.9731224163353502,-4.734014,56.00232
99,Bodmin,0.7409595141675774,0.01,0.47614467782403286,0.1780162426918403,-4.7188629,50.4715
100,Tenby,0.7113825316096959,0.01,0.46829659515466115,0.21782329459985986,-4.703579,51.672740000000005
101,Camelford,0.7515947001647454,0.01,0.4555584576481716,0.1797026334904763,-4.682364,50.62206
102,Irvine,0.014175788288767503,0.01,0.5181291745713005,0.9956567983332824,-4.6696364,55.61156999999999
103,Cardigan,0.7483356675847578,0.01,0.43712929464955547,0.196094893103304,-4.660864,52.0837
104,Holyhead,0.7563394234692913,0.3202551836701719,0.07184637360043826,0.43167645714738145,-4.633038,53.30944
105,Ayr,0.01244258380043696,0.01,0.5214753069273758,0.995387972923984,-4.629179,55.45856
106,Dumbarton,0.021135364486822576,0.01,0.5392403615443327,0.9731224163353502,-4.564554,55.94529
107,Bude,0.7395042305393057,0.01,0.46863310436271555,0.18484522957767854,-4.543678,50.826640000000005
108,Isle of Man,0.6760233356219735,0.662513342672058,0.10817051195089455,0.4952629436141537,-4.5126330999999995,54.27697
109,Kilmarnock,0.02791614695871259,0.01,0.5011334910685712,0.9912735844546963,-4.498792,55.61472
110,Newton Stewart,0.0759849010522674,0.01,0.48594364361768533,0.9456805542562406,-4.483164,54.9603
111,Liskeard,0.7596854203446571,0.01,0.4540351525724255,0.17132251832754053,-4.4647190000000005,50.45552
112,Altnaharra,0.32593184066924785,0.549428643954026,0.5518126273629851,0.6013866603817987,-4.442655,58.28023
113,Pwllheli,0.7948433213549642,0.3601983813656885,0.0651038604381935,0.3908508288795256,-4.417633900000001,52.888819999999996
114,Lairg,0.32459210400686417,0.5512385631360972,0.5407579683422332,0.6104763726472554,-4.402414,58.022059999999996
115,Launceston,0.7477019836981463,0.01,0.45997141122202256,0.18121969827392986,-4.360451599999999,50.636829999999996
116,Carmarthen,0.7101115149849213,0.01,0.49863153267408056,0.19856793106908593,-4.312131,51.857620000000004
117,Llangefni,0.7564020620876423,0.32276242548040024,0.06588079472119833,0.4356431191140886,-4.311401999999999,53.25578
118,Caernarfon,0.7586223882584822,0.3246409959519445,0.08253955459566634,0.4216430940444903,-4.273911,53.13955
119,Cumnock,0.01244258380043696,0.01,0.514727924327699,1.0,-4.265828900000001,55.45355
120,Aberaeron,0.770155191738027,0.01,0.3986298646327475,0.19700207263257483,-4.2581619,52.24279
121,Alness,0.32593184066924785,0.549428643954026,0.5518126273629851,0.6013866603817987,-4.256825,57.69595
122,Glasgow,0.02263686690144972,0.01,0.5255273005009614,0.9807471151018196,-4.251806,55.86424
123,Dalwhinnie,0.058694817961836177,0.2917307625385085,0.5832651525755335,0.8949338803510224,-4.242783,56.9366
124,Inverness,0.3134655393337078,0.549694051356285,0.5545488367794619,0.6140295986973441,-4.224721,57.47776999999999
125,Saltash,0.7597839393366268,0.01,0.4479431755300617,0.17537182498672693,-4.21643,50.409209999999995
126,Bideford,0.7439911016673422,0.01,0.4905848391205215,0.16461540934723512,-4.206666,51.01668
127,Invergordon,0.33104023284538076,0.5490574623619779,0.5367879263645744,0.6057137863456946,-4.1728819999999995,57.688109999999995
128,Llanelli,0.7004195571145612,0.01,0.4991409587134906,0.20950620752287655,-4.160248,51.680890000000005
129,Plymouth,0.77742552846013,0.01,0.41969297886177204,0.17413803249968893,-4.1426565,50.37546
130,Tavistock,0.7662843683807556,0.01,0.43153866245256584,0.17901555653552031,-4.141654,50.551120000000004
131,Porthmadog,0.7932432999483693,0.3378664677422857,0.07611562696752475,0.3855203524417258,-4.1333839999999995,52.92784
132,Bangor,0.7681094022998703,0.3185338758555217,0.0488554801736712,0.4337111312344603,-4.129263,53.22739
133,Tywyn,0.8556885291661822,0.01,0.18785947715296222,0.2414683872720375,-4.087249,52.58701
134,Aberystwyth,0.8639902745943233,0.01,0.20480056079342407,0.2202212654070917,-4.08292,52.4153
135,Lampeter,0.7229037803926527,0.01,0.4639809267243946,0.20735666651960116,-4.0785089999999995,52.1129
136,Barnstaple,0.7272763208386512,0.01,0.4998722031686776,0.17773127076164627,-4.058338,51.07816
137,Tain,0.3159765573450468,0.3807356895960394,0.46998183492627815,0.6714335256586984,-4.05523,57.8115
138,Okehampton,0.7614222736845435,0.01,0.44307477414875773,0.17679186900865818,-4.004263,50.73831
139,Llandeilo,0.7029153715777569,0.01,0.4993764529960976,0.2064387934611406,-3.9914300000000003,51.88469
140,Motherwell,0.01,0.01,0.6173526650690075,0.9443415261110841,-3.9810968,55.78321
141,Golspie,0.2754688318140935,0.35947009928171225,0.5821204203588485,0.6422713509234571,-3.976086,57.97341
142,Airdrie,0.041483793321750104,0.01,0.5749837935797814,0.924994594810494,-3.9625660000000003,55.86626999999999
143,Swansea,0.6959752559213257,0.01,0.5099576369303938,0.20728797298772036,-3.9436459999999998,51.62144
144,Stirling,0.05511468644506401,0.01,0.569636944069538,0.9127764941214979,-3.9369029,56.116519999999994
145,Tregaron,0.766533098428378,0.01,0.3905940496096213,0.20671271777177447,-3.934385,52.22
146,Castle Douglas,0.07565224741889397,0.30026035337777146,0.49137741776633925,0.9378687541379885,-3.9314139999999997,54.940419999999996
147,Dolgellau,0.8226335829350507,0.36102120120602493,0.03985168315212985,0.3757372604127178,-3.8844,52.74215
148,Aberfeldy,0.042552906827183906,0.01,0.6146914657099913,0.8966075947143938,-3.866969,56.62175
149,Machynlleth,0.9033966550977799,0.01,0.11140319677531348,0.23817343473820576,-3.853485,52.59027
150,Brora,0.2823615124003177,0.3622164353273088,0.5702172359643386,0.6423407526360788,-3.8525480000000005,58.012159999999994
151,Llandudno,0.7621964383559968,0.3260176249858834,0.05077911516934413,0.43916985920446233,-3.827609,53.324059999999996
152,Aviemore,0.26003662230676733,0.3536822930213404,0.568755368684275,0.6694644291082397,-3.823812,57.19449
153,Dalbeattie,0.06390051284608596,0.30118226244117347,0.5068276247122498,0.9409786590441869,-3.8225269999999996,54.934219999999996
154,Falkirk,0.05227648807768089,0.01,0.5552745901669066,0.9258987999806524,-3.7839131,56.00188000000001
155,Kingsbridge,0.77208178535874,0.01,0.41907321344225823,0.18078480448085782,-3.777493,50.28395
156,Pitlochry,0.06312330746500287,0.01,0.5876859801333169,0.8911127495265989,-3.729711,56.70436
157,Colwyn Bay,0.7501108338659639,0.3324568125073547,0.06363598406512865,0.44435919522057316,-3.72764,53.29318000000001
158,Totnes,0.8080174998920542,0.01,0.3844523421424218,0.1626021931366097,-3.685797,50.43374
159,Grantown-on-Spey,0.2553496724851657,0.355450063725275,0.584203710739254,0.6643363507262288,-3.609628,57.33041
160,Dumfries,0.059162479102722876,0.2896366611540187,0.5610537835580647,0.9096032070389766,-3.60512,55.070859999999996
161,Whitehaven,0.6867114299666797,0.47206551532891317,0.15126969544984223,0.45620167684452223,-3.589233,54.5497
162,Dartmouth,0.7668353449654661,0.01,0.42611265868279236,0.18208289977918218,-3.578807,50.35252
163,Bridgend,0.7531703958943123,0.335673703834734,0.46300051211977084,0.16776681364485826,-3.576945,51.504290000000005
164,Paignton,0.772466739197727,0.01,0.42199767323774806,0.17833782756634609,-3.564235,50.43508
165,Workington,0.6500520265417454,0.4976238499131097,0.1466224908540051,0.5016856472088579,-3.5427519999999997,54.64357
166,Llanidloes,0.8868849936722832,0.01,0.2584371032897816,0.15689765563139305,-3.5401949999999998,52.447790000000005
167,Exeter,0.8122592898240214,0.01,0.41356173550479863,0.13776551554955996,-3.533899,50.71841
168,Torquay,0.7771615948643623,0.01,0.41384281601017153,0.17844476285824296,-3.525315,50.46192
169,Thurso,0.28119387990291617,0.3626782195534613,0.5721782723836901,0.6423524376183061,-3.5220800000000003,58.59356999999999
170,Livingston,0.054367888160266956,0.01,0.5494505357883449,0.9274439087214512,-3.518068,55.90071
171,Rhyl,0.7480717339889914,0.33175892094585924,0.07959478821003532,0.4358357442756511,-3.4916339999999995,53.319140000000004
172,Tiverton,0.7862004083064879,0.01,0.4414553235849958,0.14904478103016078,-3.491207,50.90205
173,Minehead,0.7376457488142752,0.01,0.4877936154215704,0.17391261856981627,-3.481152,51.20428
174,Dunfermline,0.032867638518005976,0.01,0.5870129617172081,0.9268056254195527,-3.452151,56.071740000000005
175,Perth,0.0455790210496166,0.01,0.5862096081460094,0.9125524257350331,-3.4308381000000003,56.39499
176,Prestatyn,0.7541945068972415,0.3259055451182628,0.06823366544623381,0.43655908008454825,-3.4076129999999996,53.33651
177,Builth Wells,0.7411328346164104,0.01,0.4395909506789188,0.2028005149040532,-3.4045919999999996,52.15002
178,Braemar,0.2533768600780974,0.35416669234768544,0.5644104836294177,0.6801826738057896,-3.3979439,57.00646999999999
179,Brecon,0.700430503669224,0.01,0.4887739264211428,0.2165795875824473,-3.391463,51.94895
180,Merthyr Tydfil,0.7525865796456109,0.3570337844943097,0.4487318171839131,0.17788140507874653,-3.381646,51.74873
181,Llandrindod Wells,0.8133679325546271,0.01,0.34629449798120376,0.18245405730556064,-3.377742,52.2417
182,Corwen,0.7838955504079714,0.3511283986773817,0.10750775043490818,0.3747499856416355,-3.369242,52.98005
183,Cockermouth,0.6226388129556123,0.3616408170224096,0.20819766683495577,0.4935506334003957,-3.367985,54.66326
184,Lockerbie,0.1248199139722432,0.23746120704328097,0.5096062085948885,0.8690906654767342,-3.349008,55.122240000000005
185,Blairgowrie,0.17194239922936252,0.01,0.5826414501640534,0.7678414983858083,-3.3378318,56.58941
186,Elgin,0.25907514992218783,0.35390228057876827,0.5787338820325942,0.6637601748753195,-3.318485,57.64945
187,Newtown,0.9262001528868797,0.01,0.1753149774881764,0.16793203221174266,-3.313106,52.51211
188,Ruthin,0.8066771550877464,0.33956032452336904,0.05352423462027045,0.3852930972419264,-3.3103108,53.114869999999996
189,Sidmouth,0.7768593483272749,0.29658205711313174,0.4335330596985776,0.16090758744137768,-3.2375599999999998,50.67865
190,Barrow-in-Furness,0.7314974339451438,0.5975876657528018,0.10772159126170137,0.4319399003830479,-3.2188939999999997,54.10896999999999
191,Peebles,0.0638549022016559,0.01,0.5445686657503145,0.91973359090339,-3.1936419999999996,55.65306999999999
192,Edinburgh,0.12578625149222802,0.01,0.588447684473716,0.8176213639433599,-3.1882669999999997,55.95325
193,Cardiff,0.7339865588471579,0.3305253786464716,0.4892050270414366,0.1722719762470514,-3.17909,51.48158
194,Llangollen,0.8219025963403225,0.3365871737202864,0.0629681459016069,0.3611524905052438,-3.1716599999999997,52.96921
195,Kirkcaldy,0.14124825995391546,0.01,0.577324646118815,0.8072187554020912,-3.158137,56.11682
196,Welshpool,0.9615794175581515,0.01,0.02061636924591791,0.23247548331388082,-3.146407,52.66035
197,Mold,0.818252528502091,0.33746565420554103,0.04537911626755759,0.37741295768216404,-3.1419029999999997,53.1672
198,Taunton,0.7832326757089255,0.3175382899248259,0.46317373976628157,0.13291214047699795,-3.106849,51.01534
199,Wick,0.2841007983079057,0.36290958577765264,0.5824130010249648,0.6319683834124524,-3.093716,58.43894
200,John o' Groats,0.2887555166074431,0.36290958577765264,0.5744825523394592,0.6319683834124524,-3.0688997000000002,58.63734
201,Dalkeith,0.13994561994900068,0.01,0.5780482238001732,0.8082415808463737,-3.066606,55.893119999999996
202,Oswestry,0.8509377244423788,0.31714681637704956,0.04962557652326114,0.3367514857100812,-3.056412,52.85715
203,Blackpool,0.7420870092978816,0.28931265361792774,0.0967688796118624,0.4316996146576134,-3.0356748,53.81751
204,Birkenhead,0.7718075133502349,0.29476881915325465,0.04706725698062351,0.43098180265849634,-3.023009,53.389990000000004
205,Cupar,0.1487119858083994,0.01,0.5995300060432828,0.7833490986169301,-3.010137,56.32023
206,Southport,0.7427097466298289,0.29479939932018157,0.05576189652777004,0.4589225780696678,-3.010113,53.64571
207,Bridgwater,0.7691377702962802,0.3200030039680256,0.4882682301635955,0.13213597438481933,-3.003632,51.12789
208,Langholm,0.4221921935253558,0.32797219546918555,0.42598781459544444,0.578605902304059,-2.998913,55.153059999999996
209,Newport,0.7610324547101491,0.3479927225840269,0.47495995405737573,0.15025293737437315,-2.997664,51.58415
210,Axminster,0.7753803471638995,0.30222222517224695,0.45248118040136387,0.14959376274061417,-2.9949369999999997,50.78273
211,Wrexham,0.8281159823955072,0.3308328871157555,0.048957634754687715,0.3635794967228582,-2.9924939999999998,53.043040000000005
212,Liverpool,0.7650261227364195,0.2849796099032709,0.06473419761358207,0.4269487133382797,-2.9915726,53.40837
213,Weston-super-Mare,0.7298888985515878,0.3516057811592226,0.512991918080729,0.16046943601689692,-2.977255,51.347409999999996
214,Dundee,0.17956180941683442,0.01,0.6044562190434581,0.7440572481980164,-2.9707209999999997,56.462019999999995
215,Kirkwall,0.2841007983079057,0.36290958577765264,0.5824130010249648,0.6319683834124524,-2.9622491,58.984669999999994
216,Ambleside,0.7008671495718979,0.43074905478837533,0.12390563278909265,0.4590382239846795,-2.961333,54.428740000000005
217,Orkney Islands,0.2841007983079057,0.36290958577765264,0.5824130010249648,0.6319683834124524,-2.9605206,58.980940000000004
218,Lyme Regis,0.772235645265949,0.2946467355411045,0.44370365681282486,0.1593682857826555,-2.936639,50.725159999999995
219,Carlisle,0.6166869279284914,0.3980503223434061,0.30052002483620305,0.43683180048792236,-2.932931,54.892469999999996
220,Chester,0.812771345325486,0.3423390897692416,0.048792073882005654,0.3813895341792458,-2.893075,53.19339
221,Forfar,0.2120122625737904,0.3749395863911525,0.5723569910979431,0.7226090738206896,-2.889062,56.64356
222,Morecambe,0.7493275470656233,0.42062199395773836,0.16104431405633576,0.37737181238110973,-2.864968,54.074169999999995
223,Selkirk,0.24521073029939428,0.01,0.46839191180226264,0.7606145139235062,-2.838524,55.55066
224,Galashiels,0.24398106732556785,0.01,0.47580547488463315,0.7569787848170865,-2.814449,55.62373
225,Lancaster,0.7631037861091865,0.395449585821271,0.1734105094270755,0.3532531592473993,-2.8007399,54.046569999999996
226,St Andrews,0.15732509990251511,0.01,0.5990976621623678,0.7736148002409797,-2.7967214,56.339780000000005
227,Hawick,0.34046460826841873,0.01,0.4383919294151215,0.6701972545390668,-2.780914,55.42706
228,Bridport,0.7720069839018754,0.6119866099642416,0.4395582114825687,0.15772849327677993,-2.758301,50.733579999999996
229,Shrewsbury,0.8672699839997856,0.3089807739408808,0.22373251910813877,0.19884560873764728,-2.7553267999999997,52.7073
230,Penrith,0.6270454093494521,0.3708338789562084,0.2286426733252943,0.4743066715795526,-2.752708,54.6641
231,Kendal,0.8002235529718984,0.776276921095868,0.01,0.42070489619876195,-2.74629,54.32801
232,Street,0.7873491884041929,0.34587714396602104,0.4435129199125699,0.14113397724431148,-2.7429189999999997,51.12468
233,Glastonbury,0.7821878878805223,0.3453732586728435,0.44523007004012327,0.1459779335130177,-2.718454,51.14743
234,Hereford,0.81475632057107,0.40071373635496355,0.42503257601839367,0.12103141709303275,-2.715974,52.0564
235,Ludlow,0.8325645405822226,0.2893828694740809,0.3195876021636465,0.17403237193312596,-2.7139129,52.36775
236,Preston,0.6518046915717,0.5352632468779072,0.26030230503627266,0.42137837608348994,-2.70309,53.7632
237,Whitchurch,0.8588016076839945,0.3070151566685957,0.03388900521433871,0.33850196686578116,-2.682045,52.96872
238,Wells,0.7618054030977529,0.34625605356924594,0.4715421270054958,0.15171483487809978,-2.6445979,51.20935
239,Yeovil,0.748430537725171,0.3100285120942427,0.5072380043221957,0.14343159884053816,-2.633308,50.94206
240,Wigan,0.6730130330896095,0.5340941362790679,0.2504221128820554,0.403452196985572,-2.6325074,53.54506
241,Warrington,0.6695721660738292,0.522549815091924,0.2583434443230078,0.402216988137052,-2.5969501,53.39004
242,Arbroath,0.19672235827708515,0.3739292556047757,0.5995293844129723,0.7218561360568171,-2.591543,56.55911
243,Bristol,0.7441139463363391,0.32419699089261,0.45953378348346907,0.1808547019199984,-2.58791,51.45451
244,Guernsey,0.7644337925007583,0.7832232178660998,0.35274121872072833,0.22333237422054972,-2.5852779999999997,49.46569
245,Ross-on-Wye,0.7599809773205622,0.31810641727410577,0.4605209324164562,0.1617935215484174,-2.582446,51.91445
246,Jedburgh,0.4156120978889571,0.01,0.39669369342581395,0.6111909978330378,-2.5549369,55.47772
247,Sedbergh,0.7505997799742508,0.8489008350139783,0.09557224126425518,0.4142459337501166,-2.5281740000000004,54.32363
248,Nantwich,0.904678618277218,0.01,0.09792086418216922,0.24589607490116103,-2.524102,53.06718000000001
249,Banff,0.2687531205282561,0.3532431238953804,0.5681336347687778,0.6597459939808886,-2.524038,57.666509999999995
250,Dunbar,0.17844100384771377,0.01,0.5622353991731694,0.7742217819541242,-2.516737,56.00209
251,Cinderford,0.7447166149847391,0.3097584584030553,0.47210791419305287,0.1717736294595823,-2.5009579,51.8253
252,Banchory,0.23579182815368635,0.35403441534655966,0.5986526784651409,0.677256612619965,-2.4909599,57.05386
253,Blackburn,0.6578313780556846,0.4256903366008755,0.286355038557138,0.39818913935431904,-2.487529,53.748580000000004
254,Market Drayton,0.9715754463913773,0.01,0.016596389633320052,0.22358335347517394,-2.483485,52.90355
255,Telford,0.8405780267375674,0.28423037210800517,0.2859649655373336,0.1877600306897206,-2.4672611,52.67759
256,Montrose,0.18435883292699268,0.3753105783387545,0.6572627814703192,0.696769683122403,-2.4661150000000003,56.70692
257,Turriff,0.2642218550396418,0.3532431238953804,0.5681336347687778,0.6650223654100731,-2.4623,57.53893000000001
258,Weymouth,0.7810421484924457,0.9806941005690187,0.4243988239168947,0.15206141853276425,-2.457621,50.61443
259,Crewe,0.7192135751873225,0.4440227436791269,0.2514295684051837,0.35030854372615955,-2.4438209,53.1004
260,Fortuneswell,0.7518835675794676,0.8052842718094195,0.40240730481921994,0.2036686736744928,-2.4422189999999997,50.55919
261,Dorchester,0.8000915861740143,0.9740897327350304,0.40851782716584545,0.14083229224862895,-2.4411810000000003,50.71116
262,Alston,0.648271995125134,0.35719071527342316,0.23275164967733764,0.44698385468301155,-2.438685,54.812169999999995
263,Kelso,0.38915245084236766,0.01,0.4214991257287708,0.625047191394131,-2.432207,55.600030000000004
264,Wincanton,0.7554515362577249,0.8912328415631595,0.4764491730710992,0.14761963810689407,-2.416007,51.055690000000006
265,Clitheroe,0.6624325798657582,0.6541239464895438,0.2582119695123487,0.40865513007191084,-2.3930830000000003,53.8711
266,Sark,0.7505663321683356,0.7962120607988715,0.3717442501009371,0.22629759780135375,-2.3666256000000003,49.43007
267,Bath,0.7538095530582545,0.3102990873076567,0.46953571157348206,0.16293447154030516,-2.3590167,51.38106
268,Kidderminster,0.8276957563248275,0.26672884475904773,0.3055731540247611,0.18962020904220753,-2.2496839,52.3886
269,Manchester,0.6966946878194644,0.4257062667343444,0.24880338755365586,0.37860057678488634,-2.2426305,53.48076
270,Burnley,0.6754760078888161,0.6876564033304979,0.2681491444450235,0.38617301181266717,-2.2405035,53.78929
271,Gloucester,0.8243132709339175,0.3677655740523159,0.37679458195309834,0.1433668711208072,-2.238156,51.86424
272,Newcastle-under-Lyme,0.9204453058436964,0.01,0.08257229379201649,0.2380268413248107,-2.2273002,53.01321
273,Worcester,0.830273061806072,0.27824471927928285,0.3102271965540131,0.18326570325286534,-2.221575,52.19364
274,Trowbridge,0.8189166194849884,0.38250189573329396,0.413266461107337,0.12450157354219757,-2.208853,51.31966
275,Shaftesbury,0.7893712603072444,1.0,0.4105325310019987,0.15155216576188316,-2.198083,51.0046
276,Alderney,0.7610944851865746,0.7882692772868253,0.3626857496120769,0.2203483838501082,-2.1973557,49.715
277,Stoke-on-Trent,0.8952791766731353,0.01,0.1025016579398406,0.25371056610622894,-2.179404,53.002669999999995
278,Colne,0.6356360221923147,0.6177175703019073,0.36844183907669675,0.36505754074748054,-2.176991,53.85564
279,Blandford Forum,0.7587160421150438,0.9468545619587844,0.38152612106105244,0.20787108900989182,-2.165353,50.85691
280,Rochdale,0.6823607826300067,0.6917727308544213,0.2685716458460229,0.37780571472114427,-2.1561,53.60971
281,Jersey,0.7516926110147883,0.7747441198606001,0.34831894069222075,0.24131874868145597,-2.13125,49.21444
282,Wolverhampton,0.8551138350463674,0.2665289121017906,0.2617451089868162,0.18765245803515676,-2.12882,52.586969999999994
283,Stafford,0.8440292321660865,0.2766831869104369,0.26173785663319427,0.20041401662482616,-2.12066,52.80669
284,Macclesfield,0.7163729442522371,0.43895259941375214,0.21632247859752748,0.37768893571694695,-2.119287,53.25866
285,Hexham,0.6106596333025808,0.3784059549873218,0.27237146472367135,0.46338482491895405,-2.1121439,54.97266
286,Aberdeen,0.24720178696423503,0.3535064926198441,0.5963164881534359,0.6655741090254166,-2.094278,57.149719999999995
287,Dudley,0.827038963045039,0.2750858591523974,0.29437987144477973,0.19791095179562415,-2.081112,52.51225
288,Cheltenham,0.8333484355244879,0.32650406299002355,0.36821784495483295,0.13932429217866066,-2.0782533,51.899390000000004
289,Bromsgrove,0.8447778548766598,0.27313655130247333,0.2978694967975161,0.1748979104348237,-2.061906,52.33559
290,Skipton,0.7290733802291836,0.38182623998309884,0.2752389417407037,0.3234811700760494,-2.0162787,53.96285
291,Fraserburgh,0.2687531205282561,0.3532431238953804,0.575852832753784,0.65446955173363,-2.007631,57.69335
292,Berwick,0.3335105053476957,0.01,0.49855320725496455,0.6371730161325698,-2.005395,55.77024
293,Poole,0.7294005605852263,0.8056834259572613,0.38327963656176695,0.2429189538839075,-1.987248,50.71505
294,Walsall,0.8389865193179317,0.2744488908691984,0.27496407753843516,0.1972790421203951,-1.9829189999999999,52.586209999999994
295,Cirencester,0.8312029108105127,0.3387314360607587,0.38906100565901147,0.1273928630536371,-1.968243,51.71849
296,Evesham,0.7971566932404417,0.28821636648637483,0.35603575576103647,0.1903685436312633,-1.9467700000000001,52.09215
297,Buxton,0.6287165833613584,0.41499638110985815,0.29274342965253247,0.42788570727674835,-1.91483,53.259080000000004
298,Keighley,0.6643068732808581,0.6240343423334479,0.3254635626731306,0.36095335008086366,-1.9123580000000002,53.8678
299,Birmingham,0.8096017096085802,0.28495068912524696,0.3282338581516301,0.194928590240887,-1.8904009999999998,52.48624
300,Bournemouth,0.7315278410414298,0.8060258290046198,0.37064365363629387,0.24907389434042487,-1.880769,50.719159999999995
301,Halifax,0.6346830637946957,0.6065324831067098,0.3697318255759224,0.3654524223286838,-1.8575400000000002,53.727019999999996
302,Salisbury,0.7164234200320732,0.8086033814932244,0.3771331632621873,0.26218833939335395,-1.794472,51.06878
303,Ringwood,0.7299369417637201,0.8043166110234058,0.35242574133817745,0.2634042857257178,-1.7888169999999999,50.84495
304,Huddersfield,0.6116782710281785,0.5641645863461119,0.3745674877608762,0.38956930501054166,-1.7850351000000002,53.645790000000005
305,Peterhead,0.2585381606017686,0.3535064926198441,0.5847289883515805,0.6602937717840822,-1.784066,57.50812
306,Swindon,0.8502195088280915,0.32230533495428765,0.35612122992872286,0.1280095468429338,-1.7797176,51.55577
307,Bradford,0.7296900361418748,0.43071250082139756,0.2693874320234305,0.3260326744679385,-1.759398,53.79598000000001
308,Ashbourne,0.7465915165417637,0.01,0.2789226193553508,0.3062667834409497,-1.7321790000000001,53.016630000000006
309,Marlborough,0.8048983399549852,0.5825653602471674,0.41167301541156215,0.13892636542027093,-1.7270619999999999,51.42007
310,Stratford-upon-Avon,0.7851434576395697,0.30191429000295944,0.3801099436088064,0.18769735669413865,-1.7082979999999999,52.19173
311,Alnwick,0.47020256599404087,0.01,0.38956027840335083,0.5524959865626954,-1.7062990000000002,55.41274
312,Otley,0.7127538916522178,0.41223705441970654,0.29858665096566644,0.3260719076809921,-1.691786,53.90583
313,Bishop Auckland,0.6859062500570129,0.3268229027149594,0.18304008096113167,0.4375921741495758,-1.6787880000000002,54.663819999999994
314,Burton upon Trent,0.7973920441656982,0.23623828483287254,0.33773205848007865,0.2033822853828167,-1.6371358999999999,52.81403
315,Newcastle,0.6559394485247383,0.3640707313097576,0.21742659763393005,0.4484275519416935,-1.61778,54.97825
316,Durham,0.6941331940282888,0.32503047823303716,0.1696244700213085,0.43720848182408095,-1.5848520000000001,54.77525
317,Ashington,0.624232144801025,0.37820469481894226,0.24554024284402504,0.4659231571490598,-1.5659829,55.18298000000001
318,Darlington,0.6678365290177956,0.01,0.19277833419446402,0.4568598600252438,-1.559458,54.52361
319,Leeds,0.6690497721596271,0.32710552035069806,0.3035510942299342,0.37484339468137856,-1.5490774,53.80076
320,Harrogate,0.7245074506508027,0.4072792744886214,0.29047406459920017,0.3180039585887063,-1.5418120000000002,53.99211999999999
321,Leamington Spa,0.7688391726107472,0.5397542170050191,0.3609049859827545,0.21625864007060847,-1.5200789,52.28519
322,Coventry,0.7786193110603377,0.27372791009639535,0.34696782721246766,0.21837008095001595,-1.519693,52.40682
323,Blyth,0.6331134494843869,0.3725580314375495,0.24234765317462972,0.4578471347963262,-1.510277,55.12696
324,Wakefield,0.6750551736762117,0.33553194461130526,0.27324982835233064,0.38843614500680523,-1.505924,53.6833
325,Andover,0.8046678541651325,0.8542542606706529,0.25706475077442187,0.2408176399890969,-1.4919233,51.2112
326,Witney,0.8315039410637493,0.01,0.3329161848600073,0.17047949997340783,-1.4850543999999999,51.785940000000004
327,Barnsley,0.6485955266296223,0.3712656045376606,0.2940209835455493,0.4045170175477981,-1.479726,53.55263000000001
328,Derby,0.7762068120409664,0.01,0.3444748824574786,0.22697213995719331,-1.4746186000000001,52.92253
329,Sheffield,0.6600827194647372,0.10282322738625105,0.16693602253368436,0.482017201851836,-1.470085,53.381130000000006
330,Nuneaton,0.8136823419302295,0.29153770449242095,0.2801554158660155,0.22294174172379266,-1.465382,52.52049
331,Northallerton,0.6395220490977295,0.3131099498760247,0.35426607787225056,0.3747720808807559,-1.429959,54.337959999999995
332,South Shields,0.666023049795269,0.33335288251498124,0.20482366471996233,0.44575898527331065,-1.427406,54.99941999999999
333,Chesterfield,0.716796819174472,0.01,0.2705488446534458,0.34668662414419016,-1.421629,53.23505
334,Southampton,0.77533473651947,0.7667048547366214,0.26973668465284906,0.2676215728566786,-1.4043508999999998,50.9097
335,Wetherby,0.7233270471729608,0.42011758714233416,0.30590686589641836,0.30863763092579977,-1.384816,53.92706
336,Sunderland,0.6892419085196426,0.325849552595564,0.17249132540803042,0.44093280434120463,-1.383801,54.90687
337,Rotherham,0.6128477279513583,0.07855072955744288,0.37564591274444703,0.39472386935226744,-1.3635008999999998,53.4326
338,Castleford,0.6598941954677608,0.34132942273842604,0.2991719159029507,0.38828601068970503,-1.345968,53.72346999999999
339,Thirsk,0.6446310494157877,0.4033295021994489,0.32351330117916016,0.38849534891675613,-1.341377,54.23385
340,Banbury,0.8175300558943245,0.42794961829788236,0.34852532195528835,0.16969009090137174,-1.339775,52.0629
341,Stockton,0.6739805868934465,0.01,0.19107144096703296,0.4508712712247965,-1.3289821000000002,54.57046
342,Newbury,0.911828542898027,0.01,0.15804411896802323,0.19647306161901873,-1.3231138999999998,51.40141
343,Isle of Wight,0.7901715750815059,0.6763353884785879,0.269181361575518,0.2520736771413916,-1.304734,50.69385
344,Abingdon,0.9167794263153956,0.01,0.18670811421296582,0.17111487973426792,-1.2879528999999998,51.67078
345,Shetland Islands,0.28778431395205295,0.3625857678860078,0.5651828592901458,0.639461573015311,-1.2659409,60.52965
346,Rugby,0.792401023381233,0.5665763895888613,0.32892531826694854,0.21027975334631335,-1.265032,52.37088
347,Oxford,0.8686510743131188,0.01,0.29070904085654864,0.156072129341564,-1.2577263,51.75202
348,Middlesbrough,0.673293386517372,0.01,0.19580857474778127,0.448433996386437,-1.234956,54.57423000000001
349,Hartlepool,0.6855322427726893,0.01,0.17647949826974388,0.44739353724170255,-1.212926,54.69174
350,Loughborough,0.7900177151742969,0.01,0.348657418396258,0.20803014640432912,-1.206166,52.7721
351,Mansfield,0.7129405912234166,0.01,0.31454379742974514,0.32110486959949336,-1.198674,53.1472
352,Nottingham,0.7037898796669568,0.01,0.41073849784485955,0.26600755812977683,-1.1581086,52.95478000000001
353,Bicester,0.809680159917,0.4287688348937437,0.3494837722889434,0.17816411083056924,-1.1535898999999998,51.8996
354,Leicester,0.8027880874727019,0.33819986267845664,0.32051942599900396,0.20734115736137237,-1.1397591999999999,52.636880000000005
355,Doncaster,0.6117336119434206,0.07011681434121646,0.3840925217977259,0.39037365669621366,-1.128462,53.522819999999996
356,Worksop,0.6917742114983818,0.01,0.3178762539189906,0.34347523693780097,-1.122745,53.3093
357,Basingstoke,0.8924282073253125,0.4567544287430433,0.15572398743933802,0.21382865949388166,-1.0923964,51.26654
358,Portsmouth,0.8037678041150526,0.6479140391033573,0.2525883909089054,0.24800744496249438,-1.0879769,50.81977
359,York,0.7743781292702951,0.3858870490954387,0.24180061850143794,0.29351924682995284,-1.0872979,53.95997
360,Selby,0.6920636870550296,0.31813557510768725,0.28953871819208354,0.3577559848531471,-1.067189,53.783519999999996
361,Helmsley,0.6929047473383144,0.29758418577721657,0.27406913710149744,0.3676573430659084,-1.0562636,54.24651
362,Towcester,0.8330735553740588,0.4314022850828239,0.31436766884178574,0.17488608381644835,-0.9896879999999999,52.13511
363,Reading,0.875701263658108,0.01,0.24749734227141018,0.17739877990372852,-0.9781303,51.45426
364,Retford,0.6858059066392675,0.01,0.3083073949452546,0.35696593841844404,-0.9455030000000001,53.32136
365,Petersfield,0.8054791154940575,0.7487442930059792,0.21551736374044914,0.2698475973799862,-0.93899,51.00759
366,Northampton,0.7500694802150144,0.43809934163982334,0.38613178003114174,0.222391202015709,-0.9026559999999999,52.24048
367,Melton Mowbray,0.8046605564620236,0.01,0.3307854433659044,0.20319497157681188,-0.887126,52.7664
368,Aylesbury,0.8259759309588627,0.01,0.34595622748726984,0.16800320437621707,-0.8084,51.81561
369,Newark-on-Trent,0.7051697536964385,0.01,0.3259472946597088,0.3223590576918733,-0.80657,53.070040000000006
370,Malton,0.7351213516805698,0.2980518963923084,0.2239157964446684,0.35277102979890007,-0.7978970000000001,54.13684
371,Chichester,0.8286183076261598,0.6879484083663164,0.19897122255722344,0.25512062477971154,-0.774936,50.83761
372,Gainsborough,0.7073754844610605,0.01,0.29004772981128657,0.34432951536571627,-0.774465,53.400569999999995
373,Milton Keynes,0.8068918291875282,0.4104561982489939,0.34304513274345444,0.18608546650946,-0.7594171,52.040620000000004
374,Aldershot,0.9629817928388849,0.01,0.09683611929044221,0.17874347349481318,-0.7557509,51.24837
375,High Wycombe,0.8815637518221455,0.01,0.22864650671220874,0.1834571245071682,-0.748229,51.628609999999995
376,Midhurst,0.815281755194899,0.3336069586615881,0.21118532571200765,0.26759508689696376,-0.737274,50.9869
377,Kettering,0.7771001725298649,0.4201746701205978,0.3093038683328984,0.24369667797371644,-0.7302489999999999,52.39632
378,Wellingborough,0.7108291224572818,0.47023170094663874,0.41266358331125697,0.24947068800962902,-0.693964,52.30242
379,Corby,0.7748226810180048,0.42456446493573763,0.29378414239726963,0.2568910766323088,-0.6842333,52.4923
380,Bognor Regis,0.8196761887502259,0.6671357364002888,0.22198097210340748,0.2501161239370119,-0.673061,50.783
381,Scunthorpe,0.6341533721773854,0.01,0.37351185588868846,0.3725452773586332,-0.654413,53.58865
382,Grantham,0.7559331846629027,0.01,0.37032341042136285,0.23291200592265718,-0.643582,52.912519999999994
383,Whitby,0.7062309613568373,0.01,0.1783403486040618,0.4220180049287963,-0.613347,54.486340000000006
384,Slough,0.9653128008402087,0.01,0.08061809530607998,0.18711445312618954,-0.5950406,51.51054
385,Guildford,1.0,0.01,0.07595617879289548,0.1499079825354131,-0.570409,51.23622
386,Woking,0.9747049447411837,0.01,0.13582653364745012,0.1384404826138441,-0.5600349,51.31677
387,Lincoln,0.7107445907296059,0.01,0.2924305423962751,0.3387769534475265,-0.540579,53.23069
388,Bedford,0.8300285887519282,0.4172595031068976,0.3366613002703366,0.16340484518850318,-0.46677820000000003,52.13864
389,Heathrow,0.8293590244916994,0.49423348132869827,0.4112842892574305,0.11202753633338998,-0.4542955,51.47002
390,Driffield,0.7612337496875671,0.01,0.23428251792186083,0.3197288036015806,-0.443377,54.006
391,Beverley,0.7551286128951628,0.01,0.2716284092925858,0.30131100543323347,-0.435093,53.84196
392,Luton,0.8276385909838092,0.44928793725727295,0.3247159486197684,0.17387444762787427,-0.4200255,51.87867
393,Scarborough,0.6585021585997649,0.01,0.3111190288393986,0.38683912661768843,-0.399752,54.28311
394,Worthing,0.867617233039377,0.01,0.19380651072794053,0.2235124645829959,-0.372882,50.81787
395,Dorking,0.9738267878004292,0.46143272017174963,0.19412271334585376,0.09272316669533617,-0.332378,51.2322
396,Hull,0.7233720496754641,0.01,0.30361522575696187,0.31642754825915365,-0.3274198,53.767619999999994
397,Horsham,0.9973600559004059,0.01,0.08147677397490834,0.1492086540536372,-0.325858,51.06288
398,Biggleswade,0.8466375528855418,0.41241996648792995,0.3035045755617026,0.16680014693334017,-0.26421999999999995,52.086940000000006
399,Peterborough,0.8136452452727606,0.3946814784036224,0.27469066380689094,0.22517966368354972,-0.2405299,52.5695
400,Welwyn Garden City,0.8527068093043274,0.45439368726739515,0.3373376340481011,0.13597884635799287,-0.208661,51.80317
401,Bridlington,0.7356778015426122,0.01,0.2665481355804717,0.3274338808821581,-0.198802,54.08535
402,Stevenage,0.9262281274154635,0.49606184343314863,0.15848081426111107,0.17199684802915777,-0.19661199999999998,51.90376
403,Crawley,0.9996722115020312,0.01,0.12146397253471525,0.11918327781314351,-0.18722750000000002,51.109140000000004
404,Huntingdon,0.8303004281927296,0.41944363819215363,0.2930780739696555,0.19284625558993615,-0.182552,52.33146
405,Hove,0.9161931774989918,0.01,0.12020599999647749,0.21725434219250916,-0.168749,50.82793
406,Spalding,0.8336148016879592,0.01,0.3370647383418158,0.16518535320762323,-0.1537024,52.7901
407,Brighton,0.9426619466744665,0.01,0.1421270676589683,0.1714477955006303,-0.137163,50.82253
408,London,0.8343390987215026,0.11058907263012478,0.4552079617581321,0.08193509537671993,-0.12775830000000002,51.50735
409,Grimsby,0.7012198718888213,0.01,0.23550764765869675,0.3887774173059119,-0.08078400000000001,53.56746999999999
410,Boston,0.7753377772290985,0.01,0.35322184255575434,0.22200552678413923,-0.026576999999999996,52.97894
411,Royston,0.9208466795146777,0.3965521312195437,0.16070583635229818,0.178228696914152,-0.024066,52.048140000000004
412,Louth_Lincs,0.8204734628148582,0.01,0.25585246806400186,0.2360002404981797,-0.007711,53.36596
413,Lewes,0.9730726918125245,0.01,0.12943410195503768,0.14471050244078032,0.00878,50.873870000000004
414,Chatteris,0.9239104985365061,0.46565178757432524,0.16913369289121188,0.16786850839927145,0.054012,52.4561
415,Uckfield,0.973128640869692,0.01,0.09110095804627406,0.17084739986837752,0.095913,50.966409999999996
416,Cambridge,0.9716058534876634,0.01,0.11263692573144396,0.15790058119685238,0.12181700000000001,52.20534
417,Bishop's Stortford,0.9528842043040636,0.3590682427005142,0.14784730977568583,0.15027050025675093,0.15365020000000001,51.87216
418,Wisbech,0.9179397611096888,0.01,0.1656032471480897,0.18418966666569883,0.158797,52.66631999999999
419,Sevenoaks,0.9750150971233061,0.01,0.13403167973109104,0.1393062335697642,0.190898,51.27241
420,Tunbridge Wells,0.9524177594470277,0.01,0.12233964243202922,0.17361270402598625,0.26369499999999996,51.13238
421,Eastbourne,0.966425700564295,0.01,0.08056960814186517,0.18585169604684307,0.29047199999999995,50.768029999999996
422,Brentwood,0.8730984162159827,0.01,0.18618780964312306,0.22233709700709367,0.30717490000000003,51.620470000000005
423,Skegness,0.8344096431848873,0.01,0.2428412276411233,0.22866547092709144,0.337881,53.1464
424,Downham Market,0.9618786233856105,0.01,0.0957765504262882,0.18075215734869596,0.385472,52.606609999999996
425,King's Lynn,0.9248519022375356,0.01,0.1423450526878311,0.1920388587270777,0.4022963,52.75168000000001
426,Bexhill,0.9439767495178948,0.01,0.10684125913705908,0.19403578678065925,0.4662071,50.849909999999994
427,Chelmsford,0.8826845573912648,0.43380351564770553,0.17746695801788623,0.2106555140475086,0.4685497,51.73559
428,Mildenhall,0.9343723640848403,0.01,0.1534284103079153,0.17337610084040517,0.5156095,52.347570000000005
429,Medway,0.8408602045911062,0.3952847373865346,0.2190037773365815,0.23154288009600665,0.5417860999999999,51.404740000000004
430,Braintree,0.9236483893665166,0.3758560905878418,0.1661371239797104,0.17156294568912325,0.5509269,51.88009
431,Gillingham,0.8404582227781989,0.395449585821271,0.2194988022737994,0.23167070671976417,0.551438,51.38632
432,Hastings,0.9336948939795771,0.01,0.1176586625893245,0.1986148126341427,0.573453,50.85426
433,Maldon,0.8476823407139457,0.4326489128489897,0.20987233889129542,0.22928272126098098,0.6714479999999999,51.7318
434,Southend,0.8560844295598321,0.40892211691371494,0.18623370668104428,0.2360102966647024,0.7077123000000001,51.54593
435,Bury St Edmunds,0.9904631183207011,0.01,0.11345613087555911,0.13538107099448193,0.7104931999999999,52.24292
436,Thetford,0.9814498468394557,0.01,0.09961542840844315,0.15533739182273615,0.751657,52.412859999999995
437,Ashford,0.8863370577971992,0.4303580553517141,0.11977976881361556,0.24588502728160078,0.8750190000000001,51.14647
438,Faversham,0.9049091040670698,0.42293589325521,0.09639828434178523,0.24035094888075223,0.889358,51.31599
439,Colchester,0.9070071937108395,0.40102442136871896,0.16978381459088593,0.18807297575918572,0.891874,51.89593
440,New Romney,0.8488256475343187,0.36235482836182,0.20458112529383693,0.2326178276428296,0.939473,50.98512
441,Canterbury,0.903462334425758,0.4248942092163218,0.09204179552113297,0.24498443383322163,1.0789089,51.280229999999996
442,Ipswich,0.9157474094674314,0.3816551332816426,0.13498494981215892,0.20197073952977793,1.14822,52.056740000000005
443,Clacton,0.8979665558429364,0.40142054120542375,0.12339247696782,0.23030505097874474,1.153035,51.78953
444,Folkestone,0.8929621559361026,0.4298378132250641,0.09967873109505672,0.2519175941060666,1.169456,51.0814
445,Sheringham,0.9368170946262752,0.01,0.12782770562779544,0.18802807710020383,1.2109589,52.944419999999994
446,Harwich,0.8791816598990595,0.35502862635502147,0.17893400555053715,0.21490849348781776,1.260297,51.93473
447,Norwich,0.9922802463947821,0.01,0.0791380971419615,0.15672294744257878,1.297355,52.63089
448,Cromer,0.942173608708105,0.01,0.12782770562779544,0.1817904211331331,1.301866,52.93145
449,Dover,0.875639233181683,0.413048732648837,0.15275083326952998,0.23606390594679905,1.3134027,51.12788
450,Felixstowe,0.877772595057144,0.36028960034424257,0.18543221800077683,0.21202888895860533,1.3512549999999999,51.961729999999996
451,Margate,0.8970221114322764,0.4203112615328714,0.09897784292002963,0.24781134971530075,1.3868339,51.38965
452,Ramsgate,0.9057386096537658,0.41876442660859503,0.10420223125911536,0.23411315127753327,1.4198950000000001,51.33555
453,Great Yarmouth,0.9627798897195428,0.42407077303153573,0.13323350641247927,0.147765452521474,1.728047,52.59823000000001
454,Lowestoft,0.9063783749596334,0.3896003347603762,0.175683397052167,0.18494359588260886,1.7534490000000003,52.48114
455,Swaffham,0.9849235535192257,0.01,0.06176943545296494,0.1771617518097028,0.687481,52.64747
456,Dereham,0.9975893254064049,0.01,0.06923324698542979,0.1573108790937893,0.9378270000000001,52.681619999999995
457,Ely,0.9781841246982845,0.01,0.09776991162178271,0.16040230048264645,0.262363,52.39954
458,March,0.9214907018140258,0.48329369922447757,0.13300671495421854,0.19511703713607742,0.088622,52.551719999999996
459,St Neots,0.855701908288548,0.3938617876966459,0.2742615316825802,0.1765107920725398,-0.26510300000000003,52.23008
460,Banham,0.9853626319896026,0.01,0.08916551207470258,0.157924163615529,1.0402849,52.45125
461,Holt,0.9355393884403164,0.01,0.12943876418236602,0.1884147437848111,1.086747,52.90936
462,Hunstanton,0.9139077801420981,0.01,0.12517924969014324,0.21651677195071714,0.49103199999999997,52.93891
463,Horncastle,0.8026530799651893,0.01,0.26002039569048574,0.25390354535816206,-0.11245,53.20731
464,Market Weighton,0.7576718624285653,0.07839223421164947,0.26335647835654213,0.30283281502765197,-0.6677465,53.86484
465,Hawes,0.6886136979103633,0.622179477417661,0.2709557016916322,0.3699340025122003,-2.1968695,54.303830000000005
466,Reeth,0.6557570059470188,0.5149556928939562,0.3275135958319273,0.3711377681358183,-1.9428115000000001,54.38946
467,Aysgarth,0.6539933943624022,0.630942330925576,0.3424069256247307,0.3612784758590746,-1.9967433999999997,54.29159
468,Stanhope,0.6710821824754167,0.35084691890831937,0.19609234898449956,0.4455743625541218,-2.011302,54.74946
469,Keswick,0.6457038117727754,0.35115006555534384,0.21628207262734853,0.4613224609649005,-3.134706,54.60128
470,Oxenholme,0.7985432568311063,0.7737431290631916,0.01,0.42486567050658786,-2.7243327999999996,54.30134
