,placename,said,this_is,was_like,went,longitude,latitude
0,Welshpool,0.8706183405257206,0.01,0.01,0.2242608086619908,-3.146407,52.66035
1,Uckfield,0.909510454666566,0.01,0.01,0.16197313110070582,0.095913,50.966409999999996
2,Liverpool,0.2087233393850371,0.2849796099032709,0.01,0.4208154501311344,-2.9915726,53.40837
3,Llangefni,0.1796817370138487,0.32276242548040024,0.01,0.4296029105432279,-4.311401999999998,53.25578
4,Holyhead,0.17947080089902814,0.3202551836701719,0.01,0.4255937941183216,-4.633038,53.30944
5,Caernarfon,0.1871587055109358,0.3246409959519445,0.01,0.4154530457635425,-4.273911,53.13955
6,Dolgellau,0.4027169835438275,0.3610212012060249,0.01,0.3690558903828088,-3.8844,52.74215
7,Llangollen,0.4002553795631346,0.3365871737202864,0.01,0.3543150223480985,-3.1716599999999997,52.96921
8,Mold,0.3879637430472416,0.33746565420554103,0.01,0.3707495223339287,-3.1419029999999997,53.1672
9,Norwich,0.9740036597912748,0.01,0.01,0.14769750724156314,1.297355,52.63089
10,Pwllheli,0.30913302588524794,0.3601983813656885,0.01,0.3843312166112057,-4.417633900000001,52.888819999999996
11,Horsham,0.9911099643259762,0.01,0.01,0.14010278974357093,-0.325858,51.06288
12,Swaffham,0.9492299298791184,0.01,0.01,0.1683550643970339,0.687481,52.64747
13,Kendal,0.3272510046016957,0.7762769210958679,0.01,0.4145048065577089,-2.74629,54.32801
14,Dereham,0.9918820314646736,0.01,0.01,0.1482917314178035,0.9378270000000001,52.681619999999995
15,Oxenholme,0.32159259212361946,0.7737431290631916,0.01,0.4187101128726505,-2.7243327999999996,54.30134
16,Prestatyn,0.17224777490909926,0.3259055451182628,0.01,0.4305286748765803,-3.4076129999999996,53.33651
17,Oswestry,0.4980314365132905,0.3171468163770496,0.01,0.3296528580574231,-3.056412,52.85715
18,Banham,0.9507085306062883,0.01,0.01,0.14891157981171355,1.0402849,52.45125
19,Chester,0.3695058090389529,0.3423390897692416,0.01,0.3747686594026167,-2.893075,53.19339
20,Llandudno,0.1991943515962222,0.3260176249858834,0.01,0.4331673966883456,-3.827609,53.324059999999996
21,Guildford,1.0,0.01,0.01,0.1408096030102986,-0.570409,51.23622
22,Whitchurch,0.5245131345784401,0.3070151566685957,0.01,0.3314220742930662,-2.682045,52.96872
23,Ruthin,0.3489835681982762,0.33956032452336904,0.01,0.3787140015874568,-3.3103108,53.114869999999996
24,Slough,0.8831905425535578,0.01,0.01,0.1784142876570481,-0.5950406,51.51054
25,Porthmadog,0.3037449393018927,0.3378664677422857,0.01,0.3789436890581331,-4.1333839999999995,52.92784
26,Birkenhead,0.23155973371837954,0.29476881915325465,0.01,0.4248917048693765,-3.023009,53.389990000000004
27,Southport,0.13357274065340755,0.2947993993201816,0.01,0.4531315252941397,-3.010113,53.64571
28,Wrexham,0.4211790133990061,0.3308328871157555,0.01,0.35676800436977185,-2.9924939999999998,53.04304000000001
29,Newcastle-under-Lyme,0.7320988466405947,0.01,0.01,0.2298715818433088,-2.2273002,53.01321
30,Bangor,0.2191063112503437,0.3185338758555217,0.01,0.4276502449503573,-4.129263,53.22739
31,Eastbourne,0.8869382424576048,0.01,0.01,0.1771380155194257,0.29047199999999995,50.768029999999996
32,Canterbury,0.6749085365201575,0.4248942092163218,0.01,0.2369036401929724,1.0789089,51.280229999999996
33,Rhyl,0.15162928166651082,0.33175892094585924,0.01,0.4297975973366961,-3.4916339999999995,53.319140000000004
34,Market Drayton,0.9042800581884592,0.01,0.01,0.2152735079824843,-2.483485,52.90355
35,Colwyn Bay,0.15849596897703788,0.3324568125073547,0.01,0.4384122732195866,-3.72764,53.29318000000001
36,Sedbergh,0.16014249942668407,0.8489008350139783,0.01,0.40797671501422544,-2.5281740000000004,54.32363
37,Downham Market,0.8716259188605776,0.01,0.01,0.1719838973904341,0.385472,52.606609999999996
38,Faversham,0.6797805463954176,0.42293589325521,0.01,0.23222056389773604,0.889358,51.31599
39,Blackpool,0.13147566704589853,0.2893126536179277,0.01,0.4256171994791539,-3.0356748,53.81751
40,Aldershot,0.8753408519895071,0.01,0.01,0.1699537149603111,-0.7557509,51.24837
41,Ely,0.9265348422634658,0.01,0.01,0.15141623972488835,0.262363,52.39954
42,Nantwich,0.6790043834098254,0.01,0.01,0.2378250383886772,-2.524102,53.06718000000001
43,Margate,0.6532210272393645,0.4203112615328714,0.01,0.2397608120391733,1.3868339,51.38965
44,Thetford,0.9375321911622272,0.01,0.01,0.14629712227310473,0.751657,52.412859999999995
45,Folkestone,0.6395490903216531,0.4298378132250641,0.01,0.24391100481331715,1.169456,51.0814
46,Stoke-on-Trent,0.6473516786464745,0.01,0.010005206929800536,0.2457231666651664,-2.179404,53.002669999999995
47,Ramsgate,0.682573913974172,0.41876442660859503,0.011881041850510914,0.2259160042866062,1.4198950000000001,51.33555
48,Bexhill,0.8113411964149997,0.01,0.014792048740990781,0.18540969908088226,0.4662071,50.849909999999994
49,Corwen,0.2722663080313455,0.3511283986773817,0.01552722883389504,0.3680580489902569,-3.369242,52.98005
50,Barrow-in-Furness,0.09581517610100287,0.5975876657528018,0.015763108161075887,0.42586005693880025,-3.2188939999999997,54.10896999999999
51,Isle of Man,0.01,0.662513342672058,0.016258294752487967,0.48986083513055195,-4.5126330999999995,54.27697
52,Machynlleth,0.6746873607881183,0.01,0.019824141054182027,0.2300197442192203,-3.853485,52.59027
53,Cambridge,0.9043824543607,0.01,0.021185018490262268,0.14888774499471905,0.12181700000000001,52.20534
54,Bury St Edmunds,0.9678844645381132,0.01,0.022088651164690085,0.12612721258965584,0.7104931999999999,52.24292
55,Hastings,0.7767169547331928,0.01,0.026724297069940367,0.1900377334113475,0.573453,50.85426
56,Ashford,0.6172390123136309,0.4303580553517141,0.029064005144249182,0.2378138725284635,0.8750190000000001,51.14647
57,Hove,0.7177797659143149,0.01,0.0295341638419342,0.2088767584485651,-0.168749,50.82793
58,Crawley,0.9988961692632335,0.01,0.030921783411037775,0.10975605738772977,-0.18722750000000002,51.109140000000004
59,Tunbridge Wells,0.8397663738292941,0.01,0.03188770011323383,0.1647680318034078,0.26369499999999996,51.13238
60,Clacton,0.6564014523491958,0.40142054120542375,0.033049040095216184,0.22206714658617616,1.153035,51.78953
61,Ambleside,0.01,0.4307490547883753,0.03361508191087842,0.4532484089462477,-2.961333,54.42874000000001
62,Hunstanton,0.7100836696086279,0.01,0.03501995815556542,0.2081312941272518,0.49103199999999997,52.93891
63,Cromer,0.8052691034010662,0.01,0.03794136476444334,0.17303327352243342,1.301866,52.93145
64,Sheringham,0.7872309936989701,0.01,0.03794136476444334,0.17933768998150926,1.2109589,52.944419999999994
65,Lewes,0.90932204570964,0.01,0.03971331678379349,0.1355564952359515,0.00878,50.873870000000004
66,Holt,0.7829283065413741,0.01,0.03971845950168261,0.179728495088986,1.086747,52.90936
67,March,0.7356192270422622,0.4832936992244776,0.04365412436091424,0.18650252186127692,0.088622,52.551719999999996
68,Great Yarmouth,0.8746609414058231,0.4240707730315357,0.04390428901556477,0.13864414188912605,1.728047,52.59823000000001
69,Sevenoaks,0.9158631131924392,0.01,0.04478472231818168,0.1300943854627341,0.190898,51.27241
70,Ipswich,0.7162786380292507,0.3816551332816426,0.045836236702576534,0.19342957817931625,1.14822,52.05674000000001
71,Woking,0.9148186722355736,0.01,0.046764554422872084,0.12921936853253194,-0.5600349,51.31677
72,Brighton,0.8069135859272687,0.01,0.05371442337822509,0.16257995265769995,-0.137163,50.82253
73,King's Lynn,0.7469380999218588,0.01,0.05395487401019625,0.18339139827124307,0.4022963,52.75168000000001
74,Workington,0.01,0.4976238499131097,0.058673146249531676,0.496352279748206,-3.5427519999999997,54.64357
75,Bishop's Stortford,0.8413371311114854,0.3590682427005142,0.06002419538031273,0.14117600069256486,0.15365020000000001,51.87216
76,Whitehaven,0.01,0.4720655153289132,0.06379929315878388,0.4503815027603731,-3.589233,54.5497
77,Dover,0.5812139909955603,0.41304873264883707,0.06543307749084666,0.2278876375266346,1.3134027,51.12788
78,Mildenhall,0.7789983414507377,0.01,0.06618048582406498,0.16452889629716605,0.5156095,52.34757000000001
79,Basingstoke,0.6377510135370916,0.4567544287430433,0.06871264583004656,0.2054144112939912,-1.0923964,51.26654
80,Newbury,0.7030818193507407,0.01,0.07127189081691075,0.18787305962647213,-1.3231138999999998,51.40141
81,Stevenage,0.7515725506775212,0.4960618434331486,0.0717535920591914,0.16313488159511152,-0.19661199999999998,51.90376
82,Royston,0.7334504761141827,0.3965521312195437,0.07420792560111761,0.16943342881997245,-0.024066,52.048140000000004
83,Morecambe,0.15585824358009084,0.4206219939577384,0.07458128691986765,0.3707079366622357,-2.864968,54.074169999999995
84,Wisbech,0.7236614020478792,0.01,0.07961006503708593,0.17545819774151875,0.158797,52.66631999999999
85,Braintree,0.7428852594245351,0.3758560905878418,0.08019896337669967,0.1626963352776189,0.5509269,51.88009
86,Sheffield,0.01,0.10282322738625103,0.08108019665765485,0.4764733266145543,-1.470085,53.38113000000001
87,Chatteris,0.7437679144292576,0.4656517875743253,0.08350435958796494,0.15896235710054046,0.054012,52.4561
88,Durham,0.01,0.3250304782330372,0.08404571635775943,0.4311850270442657,-1.5848520000000001,54.77525
89,Colchester,0.6868458822800986,0.40102442136871896,0.08422148302694743,0.17938306918263378,0.891874,51.89593
90,Sunderland,0.01,0.325849552595564,0.08720803072908748,0.43494921030474254,-1.383801,54.90687
91,Lancaster,0.20224985337591608,0.39544958582127104,0.08822194613158188,0.3463311459912508,-2.8007399,54.046569999999996
92,Newtown,0.7514783461990575,0.01,0.0903226892479764,0.15902656079676886,-3.313106,52.51211
93,Lowestoft,0.6847283294381357,0.3896003347603762,0.09072907824383644,0.17622019612507134,1.7534490000000005,52.48114
94,Hartlepool,0.01,0.01,0.09160722589405808,0.44147909124890095,-1.212926,54.69174
95,Chelmsford,0.6049391841039591,0.4338035156477055,0.09269645354297318,0.20220730425173628,0.4685497,51.73559
96,Whitby,0.010730100738485487,0.01,0.0936598560275344,0.4158319692505355,-0.613347,54.48634000000001
97,Harwich,0.5931431450617146,0.3550286263550215,0.09431469543874876,0.2065058025538456,1.260297,51.93473
98,Bishop Auckland,0.01,0.3268229027149594,0.09884394422500407,0.431572825958608,-1.6787880000000002,54.663819999999994
99,Felixstowe,0.5883981064400378,0.36028960034424257,0.10148261563260028,0.2035953781435489,1.3512549999999999,51.961729999999996
100,Brentwood,0.5726577668430435,0.01,0.10231607877849644,0.21401391305915526,0.30717490000000003,51.62047000000001
101,Southend,0.5153630126269201,0.4089221169137149,0.10236670597904933,0.2278334544741877,0.7077123000000001,51.54593
102,Abingdon,0.7197539641151349,0.01,0.10289000609492203,0.1622434737547241,-1.2879528999999998,51.67078
103,Tywyn,0.5140298144643344,0.01,0.10416002884829446,0.2333499620279331,-4.087249,52.58701
104,Stockton,0.01,0.01,0.10770301862603687,0.4449940467833276,-1.3289821000000002,54.57046
105,Darlington,0.01,0.01,0.1095858247865526,0.4510467303554078,-1.559458,54.52361
106,Worthing,0.5541998328347523,0.01,0.1107199655050326,0.21520186037944689,-0.372882,50.81787
107,Dorking,0.9118614707812324,0.4614327201717496,0.11106875606053457,0.0830127485357,-0.332378,51.2322
108,Middlesbrough,0.01,0.01,0.11292836284923925,0.4425306862377379,-1.234956,54.57423000000001
109,Stanhope,0.01,0.35084691890831937,0.11324138294475693,0.439640446267058,-2.011302,54.74946
110,Chichester,0.4228705981644376,0.6879484083663164,0.1164169540999769,0.2471483169389704,-0.774936,50.83761
111,New Romney,0.4909189983893832,0.36235482836182,0.12260501511202206,0.22440467647628165,0.939473,50.98512
112,Aberystwyth,0.5419860174097636,0.01,0.12284706570066978,0.21187543610016568,-4.08292,52.4153
113,South Shields,0.01,0.33335288251498124,0.122872550724876,0.439827044969474,-1.427406,54.99941999999999
114,Cockermouth,0.01,0.3616408170224096,0.12659427851991994,0.4881301983734676,-3.367985,54.66326
115,Maldon,0.4870689023130936,0.4326489128489897,0.12844154278569106,0.221033875060254,0.6714479999999999,51.7318
116,Midhurst,0.3779596370192257,0.3336069586615881,0.12988984642588625,0.2597562909447979,-0.737274,50.9869
117,Petersfield,0.34494915901195083,0.7487442930059792,0.1346683456058343,0.2620329096359176,-0.93899,51.00759
118,Keswick,0.01,0.35115006555534384,0.13551186562226916,0.45555709369746794,-3.134706,54.60128
119,Macclesfield,0.044883320027980816,0.43895259941375214,0.13555643584397487,0.3710284541111883,-2.119287,53.25866
120,Newcastle,0.01,0.3640707313097576,0.13677434572273758,0.4425241728192798,-1.61778,54.97825
121,Medway,0.464095297108947,0.3952847373865346,0.13851407004331606,0.22331822396229084,0.5417860999999999,51.404740000000004
122,Gillingham,0.4627416197119127,0.39544958582127104,0.13906011240052052,0.22344741869104456,0.551438,51.38632
123,Bognor Regis,0.3927579318316011,0.6671357364002888,0.1417980954046866,0.2420902538382267,-0.673061,50.783
124,Shrewsbury,0.5530304685477536,0.3089807739408808,0.14373015737431805,0.1902709996833744,-2.7553267999999997,52.7073
125,Malton,0.10801875190877076,0.2980518963923084,0.14393232332867026,0.3458438563993641,-0.7978970000000001,54.13684
126,Penrith,0.01,0.3708338789562084,0.1491463535725165,0.4686802719457163,-2.752708,54.6641
127,High Wycombe,0.6011648611951341,0.01,0.1491505820294476,0.17471781531812314,-0.748229,51.628609999999995
128,Alston,0.01,0.3571907152734232,0.1536788022721252,0.4410650239326459,-2.438685,54.812169999999995
129,Driffield,0.1959524887830532,0.01,0.1553674422616717,0.3124479852928799,-0.443377,54.006
130,Grimsby,0.01,0.01,0.15671883424031188,0.3822356136923953,-0.08078400000000001,53.56746999999999
131,York,0.2402163061196905,0.3858870490954387,0.16366036056442265,0.2859579124244129,-1.0872979,53.95997
132,Blyth,0.01,0.3725580314375495,0.16426377279674564,0.4520445717479598,-1.510277,55.12696
133,Skegness,0.4423729731295922,0.01,0.16480821519727354,0.2204100184088314,0.337881,53.1464
134,Ashington,0.01,0.3782046948189423,0.16778539172459345,0.4602070302921985,-1.5659829,55.18298000000001
135,Reading,0.581422879186935,0.01,0.1699441904118249,0.1685946293594377,-0.9781303,51.45426
136,Manchester,0.01,0.4257062667343444,0.17138483711649652,0.3719498523068932,-2.2426305,53.48076
137,Wigan,0.01,0.5340941362790679,0.17317038876759805,0.3970674548574359,-2.6325074,53.54506
138,Crewe,0.05444917043880166,0.4440227436791269,0.17428167296212638,0.3433550147881585,-2.4438209,53.1004
139,Portsmouth,0.3391863024381861,0.6479140391033573,0.17555992406412133,0.2399590060579651,-1.0879769,50.81977
140,Monaghan,0.7800878367233867,0.01,0.17746101544379828,0.09445253020469076,-6.9683132,54.2492
141,Louth_Lincs,0.39544275946777935,0.01,0.17916039799960218,0.2278232906783523,-0.007711,53.36596
142,Andover,0.34221722913653874,0.8542542606706529,0.18049761893339245,0.23269224991573456,-1.4919233,51.2112
143,Clitheroe,0.01,0.6541239464895438,0.18176307038197456,0.4023260739858627,-2.3930830000000003,53.8711
144,Warrington,0.01,0.522549815091924,0.1819080950264476,0.3958190257943204,-2.5969501,53.39004
145,Llanidloes,0.6190841913374305,0.01,0.18201140651470896,0.14787408530019774,-3.5401949999999998,52.44779000000001
146,Horncastle,0.3354324587638053,0.01,0.18375787350985315,0.2459182113387698,-0.11245,53.20731
147,Preston,0.01,0.5352632468779072,0.18406883651821515,0.4151854945745775,-2.70309,53.7632
148,Stafford,0.4747670261799802,0.2766831869104369,0.18565233649758425,0.19185619395357364,-2.12066,52.80669
149,Wolverhampton,0.5120945268089666,0.2665289121017906,0.1856603362809673,0.17895805073424606,-2.12882,52.586969999999994
150,Market Weighton,0.18395780116665766,0.07839223421164948,0.18743777386606594,0.2953711620406584,-0.6677465,53.86484
151,Bridlington,0.10989260186079182,0.01,0.19095836425033588,0.3202355286076381,-0.198802,54.08535
152,Burnley,0.01,0.6876564033304979,0.1927243735734588,0.3796033337230609,-2.2405035,53.78929
153,Rochdale,0.01,0.6917727308544213,0.19319041809683246,0.3711464829797285,-2.1561,53.60971
154,Isle of Wight,0.2934008779820334,0.6763353884785879,0.19386297131410926,0.2440687583768481,-1.304734,50.69385
155,Bradford,0.08972874762295872,0.4307125008213976,0.19409027944480825,0.3188193253372104,-1.759398,53.79598000000001
156,Southampton,0.2434376896984191,0.7667048547366214,0.19447552615601305,0.2597830603788997,-1.4043508999999998,50.9097
157,Chesterfield,0.04631072266903419,0.01,0.19537138761229725,0.3396943304627387,-1.421629,53.23505
158,Hawes,0.01,0.622179477417661,0.19582017546008748,0.3631905212734148,-2.1968695,54.30383000000001
159,Beverley,0.17539338532036372,0.01,0.1965622125101773,0.29383306479623195,-0.435093,53.84196
160,Hexham,0.01,0.3784059549873218,0.19738184745908272,0.4576415307560649,-2.1121439,54.97266
161,Wakefield,0.01,0.3355319446113053,0.19835073550939256,0.3818906888182321,-1.505924,53.6833
162,Helmsley,0.01,0.29758418577721657,0.19925448246644,0.3608894951570845,-1.0562636,54.24651
163,St Neots,0.5140748687801198,0.3938617876966459,0.19946670529133087,0.1676971375567543,-0.26510300000000003,52.23008
164,Peterborough,0.3724486750291815,0.3946814784036224,0.19994006390236915,0.2168869032073256,-0.2405299,52.5695
165,Walsall,0.4577856449754127,0.2744488908691984,0.20024165573591104,0.18868766638987736,-1.9829189999999999,52.586209999999994
166,Skipton,0.08765215324989388,0.3818262399830989,0.20054484752612936,0.3162405126600528,-2.0162787,53.96285
167,Ashbourne,0.14664463600178235,0.01,0.20460816607163085,0.2988418835903925,-1.7321790000000001,53.016630000000006
168,Nuneaton,0.3725735983593141,0.2915377044924209,0.2059680149641332,0.21462502917777007,-1.465382,52.52049
169,Telford,0.4631450606305439,0.2842303721080052,0.21237629858445206,0.17906677471927487,-2.4672611,52.67759
170,Blackburn,0.01,0.4256903366008755,0.21280657264784167,0.3917480676820771,-2.487529,53.748580000000004
171,Selby,0.01,0.31813557510768725,0.2163183632703902,0.3508821645166529,-1.067189,53.783519999999996
172,Gainsborough,0.01458429266166046,0.01,0.2168798337812621,0.3373119939797248,-0.774465,53.400569999999995
173,Harrogate,0.07227634402608159,0.4072792744886214,0.2173501067615668,0.3107046795790147,-1.5418120000000002,53.99211999999999
174,Oxford,0.5576813026909725,0.01,0.2176092997431785,0.14703972355333758,-1.2577263,51.75202
175,Lincoln,0.025929788546044025,0.01,0.21950821975308005,0.33170000400594746,-0.540579,53.23069
176,Buxton,0.01,0.41499638110985815,0.21985335326474967,0.42176247254450905,-1.91483,53.259080000000004
177,Huntingdon,0.42853515441285,0.4194436381921536,0.22022248612656847,0.1842074365551885,-0.182552,52.33146
178,Corby,0.24171333815786736,0.4245644649357376,0.22100132218022034,0.2489377176142304,-0.6842333,52.4923
179,Barnsley,0.01,0.3712656045376606,0.2212625722489875,0.3981436719995641,-1.479726,53.55263000000001
180,Dudley,0.417552140978204,0.2750858591523974,0.2216584472438297,0.1893263392788911,-2.081112,52.51225
181,Bromsgrove,0.4772880199405695,0.2731365513024733,0.2255077144425242,0.16606699354159252,-2.061906,52.33559
182,Otley,0.03269612760777473,0.41223705441970654,0.2262987787364901,0.3188589784561742,-1.691786,53.90583
183,Castleford,0.01,0.34132942273842604,0.22694436125550405,0.3817389476409701,-1.345968,53.72346999999999
184,Carlisle,0.01,0.3980503223434061,0.2284314067037972,0.4308043141565975,-2.932931,54.892469999999996
185,Biggleswade,0.4835505698348701,0.41241996648792995,0.2317235461311705,0.15788256115706162,-0.26421999999999995,52.08694000000001
186,Leeds,0.01,0.3271055203506981,0.2317748590274419,0.3681524577698837,-1.5490774,53.80076
187,Hull,0.06845287095457457,0.01,0.2318455999690723,0.3091113972177632,-0.3274198,53.767619999999994
188,Kidderminster,0.4197638982986249,0.2667288447590477,0.23400531291726204,0.18094686222075693,-2.2496839,52.3886
189,Wetherby,0.06830132461965936,0.42011758714233416,0.234373417235503,0.3012381058226466,-1.384816,53.92706
190,Retford,0.01,0.01,0.2370213455352996,0.3500836623593249,-0.9455030000000001,53.32136
191,Kettering,0.2493828114587741,0.4201746701205978,0.2381205157721336,0.2356021017178152,-0.7302489999999999,52.39632
192,Worcester,0.42844299785783296,0.27824471927928285,0.23913900247941824,0.17452434531711394,-2.221575,52.19364
193,Scarborough,0.01,0.01,0.2401227472702965,0.3802765778331207,-0.399752,54.28311
194,Towcester,0.4378736853212933,0.4314022850828239,0.2437061930954334,0.16605504034508178,-0.9896879999999999,52.13511
195,Mansfield,0.03332484010533756,0.01,0.24390047354902225,0.3138387790737189,-1.198674,53.1472
196,Worksop,0.01,0.01,0.2475763740135435,0.3364485723658982,-1.122745,53.3093
197,Ludlow,0.4361595733979669,0.2893828694740809,0.2494640943267088,0.16519219133947147,-2.7139129,52.36775
198,Leicester,0.3358870977685602,0.33819986267845664,0.25049195220881376,0.19885747461162268,-1.1397591999999999,52.63688000000001
199,Thirsk,0.01,0.4033295021994489,0.2537943770719652,0.3819505263768128,-1.341377,54.23385
200,Luton,0.4195713934948117,0.44928793725727295,0.255120969722118,0.16503257679923827,-0.4200255,51.87867
201,Keighley,0.01,0.6240343423334479,0.2559456331062929,0.3541137505601454,-1.9123580000000002,53.8678
202,Newark-on-Trent,0.01,0.01,0.2564792186579438,0.3151063905120731,-0.80657,53.07004000000001
203,Reeth,0.01,0.5149556928939562,0.2582069433034475,0.3644071705805375,-1.9428115000000001,54.38946
204,Birmingham,0.35883203204447617,0.28495068912524696,0.25900143607600645,0.18631205805340234,-1.8904009999999998,52.48624
205,Rugby,0.30090856533079696,0.5665763895888613,0.25976415828027216,0.2018275218524191,-1.265032,52.37088
206,Melton Mowbray,0.3421926540552002,0.01,0.2618159884354103,0.19466691295824493,-0.887126,52.7664
207,Witney,0.4325879949101759,0.01,0.2641663247933566,0.16160129364038686,-1.4850543999999999,51.785940000000004
208,Bedford,0.4276197326330088,0.4172595031068976,0.2682974129323745,0.15445092011807512,-0.46677820000000003,52.13864
209,Spalding,0.4396963371871978,0.01,0.268742429453713,0.1562504845891706,-0.1537024,52.7901
210,Welwyn Garden City,0.5039888458143121,0.4543936872673952,0.2690434498741558,0.1267313858336506,-0.208661,51.80317
211,Burton upon Trent,0.31771587304254506,0.2362382848328725,0.26947852380757514,0.19485623154968748,-1.6371358999999999,52.81403
212,Aysgarth,0.01,0.6309423309255761,0.2746351841763029,0.3544423561001501,-1.9967433999999997,54.29159
213,Milton Keynes,0.3497064851742996,0.4104561982489939,0.2753391651140131,0.177374287984587,-0.7594171,52.040620000000004
214,Derby,0.24637441191830964,0.01,0.2769162652666757,0.21869856402698576,-1.4746186000000001,52.92253
215,Aylesbury,0.4139723707966337,0.01,0.27855027816397804,0.15909849470391427,-0.8084,51.81561
216,Llandrindod Wells,0.3715148219383353,0.01,0.2789234109174883,0.17370401247154788,-3.377742,52.2417
217,Coventry,0.2544985242239665,0.2737279100963953,0.27966613366329657,0.21000443875411387,-1.519693,52.40682
218,Jersey,0.16382261785705304,0.7747441198606001,0.281156493307563,0.2331987218828601,-2.13125,49.21444
219,Banbury,0.3855308099947821,0.4279496182978824,0.28138414428612096,0.16080343566730193,-1.339775,52.0629
220,Loughborough,0.2928827533504925,0.01,0.2815298546263127,0.1995538377784068,-1.206166,52.7721
221,Bicester,0.35909621416886145,0.4287688348937437,0.2824413728015039,0.16936815148333906,-1.1535898999999998,51.8996
222,Coleraine,0.6799505240413409,0.01,0.2830197571400997,0.06333900387148722,-6.6646103000000005,55.132580000000004
223,Ringwood,0.09056020454155786,0.8043166110234058,0.2856865420721566,0.2555206363944036,-1.7888169999999999,50.84495
224,Guernsey,0.2067286619497684,0.7832232178660998,0.2860345326493201,0.21501984254275933,-2.5852779999999997,49.46569
225,Boston,0.24344792931564285,0.01,0.28656468972237825,0.21367879410069265,-0.026576999999999996,52.97894
226,Northallerton,0.01,0.3131099498760247,0.2877165442469206,0.3680803807106841,-1.429959,54.337959999999995
227,Evesham,0.31692332666939776,0.28821636648637483,0.2896686056750098,0.1817032060981758,-1.9467700000000001,52.09215
228,Swindon,0.4956128389249412,0.32230533495428765,0.2897628888363104,0.1186767923621166,-1.7797176,51.55577
229,Carlow,0.802475735822314,0.01,0.293351134531477,0.014044594069426672,-6.934135899999999,52.83651
230,Leamington Spa,0.22156381938414715,0.5397542170050191,0.29503966023840383,0.2078703995087989,-1.5200789,52.28519
231,Alderney,0.19548351431418529,0.7882692772868253,0.2970039499068073,0.21200391506864927,-2.1973557,49.715
232,Cheltenham,0.4387993467183553,0.32650406299002355,0.30310618467141404,0.13011263734962172,-2.0782533,51.899390000000004
233,Colne,0.01,0.6177175703019073,0.3033532636953313,0.3582618676295058,-2.176991,53.85564
234,Halifax,0.01,0.6065324831067098,0.3047761965939399,0.3586609755561158,-1.8575400000000002,53.727019999999996
235,Grantham,0.17810278803787605,0.01,0.3054287503527591,0.22470200329248288,-0.643582,52.912519999999994
236,Bournemouth,0.09591757227324288,0.8060258290046198,0.3057819979304315,0.24103686944871466,-1.880769,50.719159999999995
237,Sark,0.1600298636372181,0.7962120607988715,0.30699602220012223,0.2180168023697117,-2.3666256000000003,49.43007
238,Scunthorpe,0.01,0.01,0.30894579797581656,0.3658297441173693,-0.654413,53.58865
239,Huddersfield,0.01,0.5641645863461119,0.3101102235885323,0.3830359768264257,-1.7850351000000002,53.64579000000001
240,Rotherham,0.01,0.07855072955744287,0.3112997913775949,0.38824570952840415,-1.3635008999999998,53.4326
241,Gloucester,0.40837334809846015,0.3677655740523159,0.3125668427828539,0.13419848327548325,-2.238156,51.86424
242,Salisbury,0.04505329767390368,0.8086033814932244,0.3129403183842233,0.2542916760106351,-1.794472,51.06878
243,Stratford-upon-Avon,0.2764686469401456,0.30191429000295944,0.3162238866151148,0.17900342993537066,-1.7082979999999999,52.19173
244,Blandford Forum,0.18747408572143773,0.9468545619587844,0.3177860157445891,0.19939307802174155,-2.165353,50.85691
245,Poole,0.08875393606321444,0.8056834259572613,0.31972024908399604,0.23481605378918705,-1.987248,50.71505
246,Doncaster,0.01,0.07011681434121646,0.3206169105186186,0.3838489373412097,-1.128462,53.522819999999996
247,Totnes,0.3534971914706861,0.01,0.32101381405703844,0.1536396774279393,-3.685797,50.43374
248,Northampton,0.1583567101827897,0.43809934163982334,0.3228663353233185,0.21406859714379115,-0.9026559999999999,52.24048
249,Derry,0.5571119799733083,0.01,0.3232191257705119,0.08109451101182134,-7.308574799999999,54.99661
250,Cookstown,0.6215150764664488,0.01,0.3259505946653518,0.05687454341601617,-6.7443895000000005,54.641819999999996
251,Cirencester,0.4315742728049824,0.3387314360607587,0.3260974478317408,0.11805350831891002,-1.968243,51.71849
252,Alnwick,0.01,0.01,0.3266481757763553,0.5477064328795447,-1.7062990000000002,55.41274
253,Tregaron,0.2137980936813336,0.01,0.3277884877563023,0.1982223089479324,-3.934385,52.22
254,Jedburgh,0.01,0.01,0.3345167627119443,0.6070296461301401,-2.5549369,55.47772
255,Ballymena,0.6496105382061244,0.01,0.3360203791401024,0.04074817822646565,-6.2802213,54.86529
256,Aberaeron,0.225995525718768,0.01,0.3366524763099848,0.18840773254823973,-4.2581619,52.24279
257,Dungannon,0.5752115273787507,0.01,0.3379215848023993,0.06556022271770083,-6.7669352,54.508269999999996
258,Fortuneswell,0.16446566581873104,0.8052842718094195,0.3408192206263672,0.19514568500291748,-2.4422189999999997,50.55919
259,Dorchester,0.3268066052141645,0.9740897327350304,0.347559495257084,0.13163677726878115,-2.4411810000000003,50.71116
260,Shaftesbury,0.2907058107286291,1.0,0.3497818350809012,0.14247138362939898,-2.198083,51.0046
261,Nottingham,0.01,0.01,0.35000902892898045,0.2581517711473058,-1.1581086,52.95478000000001
262,Heathrow,0.4253649689202466,0.4942334813286983,0.3506110697698663,0.1025237293144912,-0.4542955,51.47002
263,Marlborough,0.342993392122134,0.5825653602471674,0.35103985815919875,0.12971045165385034,-1.7270619999999999,51.42007
264,Wellingborough,0.02621444990487388,0.4702317009466387,0.3521325142867069,0.241437909928054,-0.693964,52.30242
265,Trowbridge,0.39020007544900137,0.382501895733294,0.35279752485107946,0.11513127386415654,-2.208853,51.31966
266,Exeter,0.3677814574984034,0.01,0.3531232303173903,0.12853717741909593,-3.533899,50.71841
267,Torquay,0.2495896517266981,0.01,0.35343327906479405,0.16965180727838122,-3.525315,50.46192
268,Craigavon,0.5366409372187456,0.01,0.35646211133624456,0.0674288580548613,-6.4175653,54.442930000000004
269,Kingsbridge,0.23248334719200234,0.01,0.3592027228406651,0.1720168939388858,-3.777493,50.28395
270,Plymouth,0.2504784505017585,0.01,0.35988636147205816,0.16529898277177096,-4.1426565,50.37546
271,Kelso,0.01,0.01,0.3618786503823023,0.6210341399989673,-2.432207,55.600030000000004
272,Paignton,0.2337796827325821,0.01,0.3624285783485787,0.16954372747759552,-3.564235,50.43508
273,Armagh,0.5518918231124275,0.01,0.3628457099106961,0.05809992499843417,-6.652792,54.35028000000001
274,Weymouth,0.2626574512281833,0.9806941005690188,0.3650771923440938,0.1429860868396308,-2.457621,50.61443
275,Hereford,0.37619023116289535,0.4007137363549636,0.36577625912915457,0.11162397696462006,-2.715974,52.0564
276,Langholm,0.01,0.32797219546918555,0.3668299448833246,0.5740957982780079,-2.998913,55.153059999999996
277,Dartmouth,0.21481591163341726,0.01,0.3669676554401333,0.17332888251398634,-3.578807,50.35252
278,Penzance,0.2372611525887975,0.01,0.3677789477577964,0.16497538755365693,-5.537592,50.1188
279,Tavistock,0.2129604929924009,0.01,0.3729528648021076,0.17022871005608506,-4.141654,50.551120000000004
280,Sidmouth,0.2485718337746169,0.2965820571131317,0.37515280523245215,0.1519269346776075,-3.2375599999999998,50.67865
281,Cardigan,0.1525180804415672,0.01,0.3791196692468778,0.1874908436422366,-4.660864,52.0837
282,Hawick,0.01,0.01,0.3805124315338705,0.6666674360194459,-2.780914,55.42706
283,Banbridge,0.5267453711333095,0.01,0.3807019121174293,0.05570592162301741,-6.2704803,54.34873
284,Bridport,0.23223145260828856,0.6119866099642416,0.38179891098448815,0.14871381524908378,-2.758301,50.733579999999996
285,Builth Wells,0.12826247516095152,0.01,0.3818350242923317,0.19426823448779704,-3.4045919999999996,52.15002
286,Scilly Isles,0.2231140974318843,0.01,0.3820409615731358,0.16098760078479968,-6.327496599999999,49.92773
287,Tiverton,0.28002793788726466,0.01,0.3838915400348796,0.13993716281706886,-3.491207,50.90205
288,Okehampton,0.1965873450509521,0.01,0.3856778916643196,0.1679812228079586,-4.004263,50.73831
289,Fishguard,0.1199663372859301,0.01,0.3858282875919213,0.19466605404592088,-4.975989,51.99393
290,Haverfordwest,0.08193435099191901,0.01,0.3860901090737874,0.20779481522427595,-4.971319,51.80048
291,Street,0.2838964652745593,0.34587714396602104,0.38616119286327705,0.1319416911438454,-2.7429189999999997,51.12468
292,Pembroke,0.08335765778608209,0.01,0.386363358817629,0.2071263667080258,-4.9086370000000015,51.67404000000001
293,Lyme Regis,0.23300147182354355,0.2946467355411045,0.38637158716625175,0.1503711581545095,-2.936639,50.725159999999995
294,Glastonbury,0.2665157389982545,0.3453732586728435,0.3880553130031487,0.13683749139135662,-2.718454,51.14743
295,Milford Haven,0.0796611559681562,0.01,0.3896609838107507,0.20635277300809746,-5.0426971,51.71431
296,Helston,0.2057497545431346,0.01,0.3909057501051567,0.16150452285186875,-5.274996,50.10159
297,Saltash,0.19107023929056952,0.01,0.3910480319667557,0.1665459803143461,-4.21643,50.409209999999995
298,Merthyr Tydfil,0.166833065320957,0.3570337844943097,0.39191795126835455,0.16908241998351353,-3.381646,51.74873
299,Redruth,0.1905541625824656,0.01,0.3927203295416769,0.1656793377793042,-5.226666000000002,50.23302
300,Axminster,0.2435912839567809,0.3022222251722469,0.3960537249947827,0.14049202017845347,-2.9949369999999997,50.78273
301,Liskeard,0.1907384756925017,0.01,0.3977678500085354,0.16245333466591858,-4.4647190000000005,50.45552
302,Omagh,0.4485577019329936,0.01,0.39859399906676696,0.07182677545848813,-7.309959700000001,54.59771
303,London,0.4421354140099913,0.11058907263012477,0.3990615292641976,0.07210921446107114,-0.12775830000000002,51.50735
304,Camelford,0.16349290218243334,0.01,0.3994481473668397,0.17092314067013992,-4.682364,50.62206
305,Newquay,0.16349290218243334,0.01,0.3994481473668397,0.17092314067013992,-5.0737190000000005,50.4155
306,Wadebridge,0.16349290218243334,0.01,0.3994481473668397,0.17092314067013992,-4.836456,50.51665
307,St Austell,0.1784263599421626,0.01,0.4013874091415159,0.1644898157864184,-4.7834252,50.340379999999996
308,Truro,0.15968581249848773,0.01,0.4022817849237431,0.17047922615062142,-5.0510410000000014,50.2632
309,Bristol,0.1383013958875275,0.32419699089261,0.4038331714869601,0.17208753947754507,-2.58791,51.45451
310,Launceston,0.1503841442120477,0.01,0.4043159012728185,0.17245644232075666,-4.360451599999998,50.636829999999996
311,Ross-on-Wye,0.19173376648669205,0.31810641727410577,0.4049220562880159,0.1528223507755076,-2.582446,51.91445
312,Strabane,0.4232965662409641,0.01,0.40623984917644734,0.07586717060719804,-7.4633103,54.82739
313,Belfast,0.5108350538903946,0.01,0.4074619875121411,0.04450627752464653,-5.93012,54.59728000000001
314,Bridgend,0.1687990718279995,0.33567370383473405,0.4076571822266882,0.15885957392575353,-3.576945,51.50429000000001
315,Taunton,0.270034071476476,0.3175382899248259,0.40784826276692376,0.12363185755999236,-3.106849,51.01534
316,Lampeter,0.06687596990205487,0.01,0.4087386386574594,0.19887314976153797,-4.0785089999999995,52.1129
317,Falmouth,0.1622641481155339,0.01,0.4095787301953016,0.16500781149389268,-5.066269999999999,50.152570000000004
318,Tenby,0.02807806023967192,0.01,0.4134990811834857,0.20945180024956664,-4.703579,51.67274000000001
319,Tyrone,0.38008128570807775,0.01,0.4136020498238879,0.08635992986281424,-7.1312320000000025,54.491209999999995
320,Selkirk,0.01,0.01,0.41360422119366297,0.7580524148090786,-2.838524,55.55066
321,Antrim,0.439905225378568,0.01,0.4138522144785384,0.06529446092941124,-6.2072498,54.719530000000006
322,Bude,0.12277813617568725,0.01,0.4138702711324602,0.17612077702355386,-4.543678,50.82664000000001
323,Bath,0.17095143936851953,0.3102990873076567,0.4148659013157933,0.1539755121466721,-2.3590167,51.38106
324,Tain,0.01,0.3807356895960394,0.4153580022764719,0.6679169387229664,-4.05523,57.8115
325,Wells,0.1978775368211957,0.34625605356924594,0.4170790985300297,0.14263579376344188,-2.6445979,51.20935
326,Cinderford,0.14033088802136298,0.3097584584030553,0.4177031959165291,0.16290927395797478,-2.5009579,51.8253
327,Newport,0.19527462612280874,0.3479927225840269,0.4208491678732316,0.14115824983786626,-2.997664,51.58415
328,Galashiels,0.01,0.01,0.42178182833307815,0.7543777731583918,-2.814449,55.62373
329,Bodmin,0.12767881697917405,0.01,0.4221559896301664,0.1692187007389413,-4.7188629,50.4715
330,Wincanton,0.17648083266956874,0.8912328415631595,0.4224918662496354,0.13849676684951162,-2.416007,51.05569000000001
331,Stranraer,0.01,0.01,0.4291521430465213,0.9501689847234424,-5.0240550000000015,54.903369999999995
332,Newton Stewart,0.01,0.01,0.4329648398068929,0.9450991831542692,-4.483164,54.9603
333,Minehead,0.1165196821282766,0.01,0.4350054702652947,0.16507115627779687,-3.481152,51.20428
334,Bridgwater,0.22256934979555906,0.3200030039680256,0.43552899894640695,0.12284738430395845,-3.003632,51.12789
335,Brecon,0.01,0.01,0.43608681241344666,0.20819478206321,-3.391463,51.94895
336,Cardiff,0.10419732676071186,0.3305253786464716,0.4365623423942603,0.16341295446004694,-3.17909,51.48158
337,Bideford,0.13788771535167285,0.01,0.4380843583241993,0.15567444072379089,-4.206666,51.01668
338,Castle Douglas,0.01,0.30026035337777146,0.4389586203653493,0.9372037747668059,-3.9314139999999997,54.940419999999996
339,Newry,0.5021047562450655,0.01,0.4440460254665036,0.024644788941585456,-6.34023,54.1751
340,Kilkeel,0.4154345881362464,0.01,0.4457857497870821,0.0538470206255304,-6.007004,54.06312
341,Berwick,0.01,0.01,0.4468739488924193,0.6332897452238225,-2.005395,55.77024
342,Carmarthen,0.023797900239973045,0.01,0.4469603465529565,0.18999035008146672,-4.312131,51.857620000000004
343,Llanelli,0.01,0.01,0.4475222741943075,0.20104569690938445,-4.160248,51.68089000000001
344,Llandeilo,0.01,0.01,0.4477820385890178,0.1979454528754562,-3.9914300000000003,51.88469
345,Barnstaple,0.08160053947040942,0.01,0.4483288809245604,0.16893067880625148,-4.058338,51.07816
346,Kilmarnock,0.01,0.01,0.4497201575374965,0.991180187223698,-4.498792,55.61472
347,Magherafelt,0.4622460222382623,0.01,0.4518215863496094,0.033705884504939665,-6.607980499999999,54.75536999999999
348,Down,0.4680191184292527,0.01,0.4537887330835066,0.030456189726613618,-5.7156921999999994,54.32875
349,Dalbeattie,0.01,0.3011822624411735,0.4560011303194048,0.9403469644169408,-3.8225269999999996,54.934219999999996
350,Yeovil,0.15283755649895864,0.3100285120942427,0.456453803776267,0.13426390376417074,-2.633308,50.94206
351,Lockerbie,0.01,0.2374612070432809,0.4590660758986988,0.8676895667904705,-3.349008,55.12224000000001
352,Swansea,0.01,0.01,0.4594537225449187,0.1988037210153379,-3.9436459999999998,51.62144
353,Girvan,0.01,0.01,0.4607286594509406,0.9811805152181564,-4.8542179,55.240159999999996
354,Weston-super-Mare,0.09039841858941702,0.3516057811592226,0.462800717629776,0.1514840937984942,-2.977255,51.347409999999996
355,Cumnock,0.01,0.01,0.4647156372064435,1.0,-4.265828900000002,55.45355
356,Fort William,0.01,0.01,0.4668912354387797,0.9129991244407812,-5.1052179,56.81981999999999
357,Portree,0.01,0.01,0.4679621778685332,0.9044749922320586,-6.1960231,57.41246999999999
358,Donegal,0.4481788360956964,0.01,0.46833668201348105,0.02827856068084928,-8.1096143,54.653830000000006
359,Irvine,0.01,0.01,0.4684674213304843,0.9956103138394792,-4.6696364,55.61156999999999
360,Ayr,0.01,0.01,0.4721584071008137,0.995338611240948,-4.629179,55.45856
361,Lochgilphead,0.01,0.01,0.4757602524277316,0.9738147694305702,-5.4323449,56.03829
362,Rothesay,0.01,0.01,0.476031216519178,0.978700835338408,-5.055793,55.83596
363,Balivanich,0.01,0.01,0.4762025261661955,0.898327971456379,-7.3743509000000005,57.472269999999995
364,Glasgow,0.01,0.01,0.4766280003595551,0.9805410549928452,-4.251806,55.86424
365,Campbeltown,0.01,0.01,0.4788341120513666,0.9879400836329912,-5.605373999999999,55.424119999999995
366,Islay,0.01,0.01,0.4821937925070171,0.9919480548414654,-6.177067,55.73625
367,Dunvegan,0.01,0.01,0.4828496604618096,0.9100270014952014,-6.5813982000000015,57.4366
368,Invergordon,0.01,0.5490574623619779,0.4890491497358302,0.6014938130491018,-4.1728819999999995,57.688109999999995
369,Mull,0.01,0.01,0.4897211315400081,0.9574588599223972,-6.0008870000000005,56.4392
370,Greenock,0.01,0.01,0.4914866837326521,0.9738163441031644,-4.7719830000000005,55.956480000000006
371,Dunoon,0.01,0.01,0.4914866837326521,0.9692079931801272,-4.926214,55.95097
372,Dumbarton,0.01,0.01,0.4917543336281256,0.972834750468744,-4.564554,55.94529
373,Lairg,0.01,0.5512385631360972,0.4934283454423432,0.6063073724415781,-4.402414,58.022059999999996
374,Inchnadamph,0.01,0.5515057721605936,0.4942350664552158,0.6066431355842838,-4.974295,58.15221
375,Western Isles,0.01,0.01,0.496701285389597,0.8964232618016053,-7.0194034,57.75989000000001
376,Peebles,0.01,0.01,0.497631774479668,0.9188745141939566,-3.1936419999999996,55.65306999999999
377,Broadford,0.01,0.01,0.497829711977089,0.9104178781787052,-5.9096592,57.24139
378,Helensburgh,0.01,0.01,0.4991135629274524,0.972834750468744,-4.734014,56.00232
379,Kilkenny,0.33694177834264954,0.01,0.5019892564884271,0.04608001963052413,-7.2447879,52.65415
380,Livingston,0.01,0.01,0.5030167715226727,0.9266673541347136,-3.518068,55.90071
381,Altnaharra,0.01,0.549428643954026,0.5056223009705387,0.5971203746467125,-4.442655,58.28023
382,Alness,0.01,0.549428643954026,0.5056223009705387,0.5971203746467125,-4.256825,57.69595
383,Inverness,0.01,0.549694051356285,0.5086405049583519,0.6098986280207978,-4.224721,57.47776999999999
384,Falkirk,0.01,0.01,0.5094410547097576,0.9251057083774008,-3.7839131,56.00188000000001
385,Oban,0.01,0.01,0.5111874074222822,0.9603910434449052,-5.471047,56.41516
386,Dumfries,0.01,0.2896366611540187,0.5158158535224876,0.9086357066821732,-3.60512,55.070859999999996
387,Dunbar,0.01,0.01,0.5171192468008294,0.7718053189429643,-2.516737,56.00209
388,Braemar,0.01,0.35416669234768544,0.5195184961200325,0.676759727403939,-3.3979439,57.00646999999999
389,Shetland Islands,0.01,0.3625857678860078,0.5203704730503294,0.6356027961126904,-1.2659409,60.52965
390,Ballachulish,0.01,0.01,0.5231188557728935,0.9500551788404958,-5.133719999999999,56.67393000000001
391,Banff,0.01,0.3532431238953804,0.5236253563436615,0.6561043175292786,-2.524038,57.666509999999995
392,Turriff,0.01,0.3532431238953804,0.5236253563436615,0.6614371609977152,-2.4623,57.53893000000001
393,Aviemore,0.01,0.3536822930213404,0.5243111663448304,0.6659267672919423,-3.823812,57.19449
394,Stirling,0.01,0.01,0.5252835971563525,0.9118429568764824,-3.9369029,56.116519999999994
395,Brora,0.01,0.3622164353273088,0.5259236941096178,0.6385127910668251,-3.852548000000001,58.012159999999994
396,Thurso,0.01,0.3626782195534613,0.5280868355364005,0.638524601111282,-3.5220800000000003,58.59356999999999
397,Forfar,0.01,0.3749395863911525,0.5282839730554832,0.7196402094255978,-2.889062,56.64356
398,John o' Groats,0.01,0.36290958577765264,0.5306285952824419,0.6280294082707474,-3.0688997000000002,58.63734
399,Airdrie,0.01,0.01,0.5311814945968316,0.924191825664532,-3.9625660000000003,55.86626999999999
400,Fraserburgh,0.01,0.3532431238953804,0.5321400972113631,0.6507714024848149,-2.007631,57.69335
401,Kirkcaldy,0.01,0.01,0.5337635961076477,0.8051554529681888,-3.158137,56.11682
402,Dalkeith,0.01,0.01,0.5345617459240385,0.8061892255262999,-3.066606,55.893119999999996
403,Elgin,0.01,0.3539022805787683,0.5353180683015979,0.6601614614683089,-3.318485,57.64945
404,Golspie,0.01,0.35947009928171225,0.539053624293633,0.638442646560355,-3.976086,57.97341
405,Orkney Islands,0.01,0.36290958577765264,0.5393763584118302,0.6280294082707474,-2.9605206,58.980940000000004
406,Kirkwall,0.01,0.36290958577765264,0.5393763584118302,0.6280294082707474,-2.9622491,58.984669999999994
407,Wick,0.01,0.36290958577765264,0.5393763584118302,0.6280294082707474,-3.093716,58.43894
408,Blairgowrie,0.01,0.01,0.5396283515883968,0.7653567483654896,-3.3378318,56.58941
409,Dalwhinnie,0.01,0.2917307625385085,0.5403163329593409,0.8938093768712125,-4.242783,56.9366
410,Grantown-on-Spey,0.01,0.35545006372527505,0.54135161921173,0.6607438040240655,-3.609628,57.33041
411,Kyle of Lochalsh,0.01,0.01,0.5416911528750317,0.9075510435688576,-5.7143293,57.28261
412,Peterhead,0.01,0.3535064926198441,0.541931032093904,0.6566579580982039,-1.784066,57.50812
413,Perth,0.01,0.01,0.5435642450128679,0.9116164903270212,-3.4308381000000003,56.39499
414,Dunfermline,0.01,0.01,0.5444503924464725,0.9260222394032688,-3.452151,56.07174000000001
415,Invergarry,0.01,0.01,0.5445499326082822,0.9198190314463855,-4.800261,57.07095
416,Pitlochry,0.01,0.01,0.5451927723444217,0.8899473491818127,-3.729711,56.70436
417,Ullapool,0.01,0.3068018540778913,0.5455175635497743,0.828659159261701,-5.161313,57.895419999999994
418,Edinburgh,0.01,0.01,0.5460329781648839,0.8156693987278001,-3.1882669999999997,55.95325
419,Stornoway,0.01,0.2975592949436713,0.5529855899031112,0.8460117649459936,-6.3848692000000025,58.20943000000001
420,Aberdeen,0.01,0.3535064926198441,0.5547127431355161,0.6619948098241533,-2.094278,57.149719999999995
421,Banchory,0.01,0.3540344153465597,0.5572897019284427,0.6738023491199234,-2.4909599,57.05386
422,St Andrews,0.01,0.01,0.5577805457803039,0.7711918408154582,-2.7967214,56.33978000000001
423,Arbroath,0.01,0.3739292556047757,0.5582567614568363,0.7188792131064233,-2.591543,56.55911
424,Cupar,0.01,0.01,0.5582574471525551,0.7810303236081724,-3.010137,56.32023
425,Dundee,0.01,0.01,0.5636913571568161,0.7413179396940478,-2.9707209999999997,56.462019999999995
426,Achnasheen,0.01,0.28229301185818273,0.5643461965680301,0.8173472123769508,-5.078765799999998,57.57859000000001
427,Aberfeldy,0.01,0.01,0.5749814514453442,0.8955010046935763,-3.866969,56.62175
428,Motherwell,0.01,0.01,0.5779169148164522,0.9437458236355564,-3.9810968,55.78321
429,Sligo,0.18028997027696025,0.01,0.5811743123274193,0.05123635661635315,-8.476088800000001,54.27661
430,Bantry,0.046239045348465915,0.01,0.5950113090798781,0.08942202387434603,-9.4539805,51.68035
431,Tralee,0.02542804730205785,0.01,0.6202947387446944,0.08086024267541635,-9.6999325,52.27131
432,Montrose,0.01,0.3753105783387545,0.6219401799039723,0.6935242644503143,-2.4661150000000003,56.70692
433,Dingle,0.017912168259516695,0.01,0.6239438970761921,0.08120123086809387,-10.264013499999999,52.14094
434,Killarney,0.01,0.01,0.6340641944688762,0.08549371678393437,-9.5044265,52.05994000000001
435,Cork,0.01,0.01,0.6417348439070437,0.08959509470765717,-8.4756035,51.898509999999995
436,Mallow,0.01,0.01,0.6417348439070437,0.08959509470765717,-8.6539164,52.13898
437,Charleville,0.01,0.01,0.6541303939764931,0.10005972458465827,-8.681017599999999,52.36206
438,Abbeyfeale,0.01,0.01,0.6659378456846666,0.08292714360739557,-9.2970823,52.386179999999996
439,Ennistymon,0.01,0.01,0.6691119311658298,0.0960803122109612,-9.2934951,52.940369999999994
440,Adare,0.01,0.01,0.669326782490975,0.09918857275991473,-8.7925892,52.56363
441,Limerick,0.01,0.01,0.669326782490975,0.09918857275991473,-8.6267343,52.66384
442,Tipperary,0.01,0.01,0.677787467679531,0.10144772690044387,-8.161851400000002,52.47379
443,Enniskillen,0.01,0.01,0.6885626044834291,0.04358380568853657,-7.631533599999999,54.343819999999994
444,Fermanagh,0.01,0.01,0.6885626044834291,0.04358380568853657,-7.6318728,54.343830000000004
445,Waterford,0.010107532011256179,0.01,0.6893709254529785,0.04295178937003475,-7.110070200000001,52.25932
446,Clare,0.01,0.01,0.7079973925168822,0.0902012005043812,-8.9811351,52.90453
447,Athlone,0.01,0.01,0.7206001369759529,0.11688345500537108,-7.9406898,53.42393000000001
448,Ballycastle,0.01,0.01,0.7214278859908609,0.05403075628686607,-9.3724643,54.279669999999996
449,Roscommon,0.01,0.01,0.7316602946335279,0.051954908351510544,-8.1890955,53.62759000000001
450,Laois,0.01,0.01,0.7377589866369221,0.03386750317392915,-7.3323006999999985,52.99429
451,Doon,0.01,0.01,0.7412267784508638,0.018723948411258386,-7.60964,54.185930000000006
452,Rosslare,0.01,0.01,0.7525071587167127,0.0116986897841609,-6.3414908,52.25131
453,Nenagh,0.01,0.01,0.7546779570790187,0.07283742895987494,-8.19834,52.8635
454,Loughrea,0.01,0.01,0.757454681891283,0.07287450534186632,-8.5660931,53.19891
455,Wexford,0.01,0.01,0.7653937812032626,0.0116986897841609,-6.4633381,52.33692
456,Offaly,0.01,0.01,0.7915865576734946,0.11002790313831523,-7.7122229,53.23569000000001
457,Galway,0.01,0.01,0.8095427571725167,0.07705969879321826,-9.0567905,53.270669999999996
458,Leitrim,0.01,0.01,0.8344330546253649,0.01,-8.0020132,54.12469
459,Mayo,0.01,0.01,0.8627508021273804,0.1088202008345688,-9.4289369,54.01526
460,Wicklow,0.01,0.01,0.8940996675532414,0.06659950662989182,-6.044589,52.980819999999994
461,Cavan,0.01,0.01,0.8941320095346327,0.01,-7.3633319,53.98972
462,Dublin,0.01,0.01,0.9140319278305016,0.06405719772650949,-6.2603097000000005,53.34981
463,Kildare,0.01,0.01,0.9274898491332224,0.0657148269360433,-6.8194707999999995,53.21204
464,Drogheda,0.01,0.01,0.9303303436473116,0.06972415808903071,-6.3560985,53.717859999999995
465,Meath,0.01,0.01,0.9425417844163302,0.062145831501223874,-6.656416900000001,53.60555
466,Louth,0.01,0.01,0.9638586929145804,0.0658883272255165,-6.4889423,53.925230000000006
467,Claremorris,0.01,0.01,0.9700315543381977,0.07768505854120811,-9.0017356,53.72388
468,Longford,0.01,0.01,0.9752596413442745,0.01,-7.7932573000000005,53.72763000000001
469,Mullingar,0.01,0.01,0.993023617476863,0.08602044476670392,-7.3401868000000015,53.525819999999996
470,Westmeath,0.01,0.01,1.0,0.08657666207260171,-7.4653217000000005,53.534530000000004
