,placename,said,this_is,was_like,went,longitude,latitude
0,Welshpool,0.9615794175581516,0.01,0.09343125,0.2324754833138808,-3.146407,52.66035
1,Uckfield,0.973128640869692,0.01,0.09343125,0.17084739986837752,0.095913,50.966409999999996
2,Liverpool,0.7650261227364195,0.2849796099032709,0.09343125,0.4269487133382797,-2.9915726,53.40837
3,Llangefni,0.7564020620876423,0.32276242548040024,0.09343125,0.4356431191140886,-4.311401999999998,53.25578
4,Holyhead,0.7563394234692913,0.3202551836701719,0.09343125,0.4316764571473815,-4.633038,53.30944
5,Caernarfon,0.7586223882584822,0.3246409959519445,0.09343125,0.4216430940444903,-4.273911,53.13955
6,Dolgellau,0.8226335829350507,0.3610212012060249,0.09343125,0.3757372604127178,-3.8844,52.74215
7,Llangollen,0.8219025963403225,0.3365871737202864,0.09343125,0.3611524905052438,-3.1716599999999997,52.96921
8,Mold,0.8182525285020908,0.33746565420554103,0.09343125,0.37741295768216404,-3.1419029999999997,53.1672
9,Norwich,0.992280246394782,0.01,0.09343125,0.15672294744257878,1.297355,52.63089
10,Pwllheli,0.7948433213549642,0.3601983813656885,0.09343125,0.3908508288795256,-4.417633900000001,52.888819999999996
11,Horsham,0.997360055900406,0.01,0.09343125,0.1492086540536372,-0.325858,51.06288
12,Swaffham,0.9849235535192256,0.01,0.09343125,0.1771617518097028,0.687481,52.64747
13,Kendal,0.8002235529718984,0.7762769210958679,0.09343125,0.42070489619876206,-2.74629,54.32801
14,Dereham,0.9975893254064048,0.01,0.09343125,0.1573108790937893,0.9378270000000001,52.681619999999995
15,Oxenholme,0.7985432568311063,0.7737431290631916,0.09343125,0.4248656705065879,-2.7243327999999996,54.30134
16,Prestatyn,0.7541945068972415,0.3259055451182628,0.09343125,0.43655908008454825,-3.4076129999999996,53.33651
17,Oswestry,0.8509377244423788,0.3171468163770496,0.09343125,0.3367514857100812,-3.056412,52.85715
18,Banham,0.9853626319896026,0.01,0.09343125,0.157924163615529,1.0402849,52.45125
19,Chester,0.8127713453254859,0.3423390897692416,0.09343125,0.3813895341792458,-2.893075,53.19339
20,Llandudno,0.7621964383559968,0.3260176249858834,0.09343125,0.4391698592044623,-3.827609,53.324059999999996
21,Guildford,1.0,0.01,0.09343125,0.1499079825354131,-0.570409,51.23622
22,Whitchurch,0.8588016076839945,0.3070151566685957,0.09343125,0.3385019668657812,-2.682045,52.96872
23,Ruthin,0.8066771550877464,0.33956032452336904,0.09343125,0.3852930972419264,-3.3103108,53.114869999999996
24,Slough,0.9653128008402088,0.01,0.09343125,0.18711445312618954,-0.5950406,51.51054
25,Porthmadog,0.7932432999483693,0.3378664677422857,0.09343125,0.3855203524417258,-4.1333839999999995,52.92784
26,Birkenhead,0.7718075133502349,0.29476881915325465,0.09343125,0.4309818026584963,-3.023009,53.389990000000004
27,Southport,0.7427097466298289,0.2947993993201816,0.09343125,0.4589225780696678,-3.010113,53.64571
28,Wrexham,0.8281159823955072,0.3308328871157555,0.09343125,0.3635794967228582,-2.9924939999999998,53.04304000000001
29,Newcastle-under-Lyme,0.9204453058436964,0.01,0.09343125,0.2380268413248107,-2.2273002,53.01321
30,Bangor,0.7681094022998703,0.3185338758555217,0.09343125,0.4337111312344603,-4.129263,53.22739
31,Eastbourne,0.966425700564295,0.01,0.09343125,0.18585169604684307,0.29047199999999995,50.768029999999996
32,Canterbury,0.903462334425758,0.4248942092163218,0.09343125,0.2449844338332217,1.0789089,51.280229999999996
33,Rhyl,0.7480717339889914,0.33175892094585924,0.09343125,0.4358357442756511,-3.4916339999999995,53.319140000000004
34,Market Drayton,0.9715754463913772,0.01,0.09343125,0.22358335347517394,-2.483485,52.90355
35,Colwyn Bay,0.7501108338659639,0.3324568125073547,0.09343125,0.4443591952205732,-3.72764,53.29318000000001
36,Sedbergh,0.7505997799742508,0.8489008350139783,0.09557224126425518,0.4142459337501166,-2.5281740000000004,54.32363
37,Downham Market,0.9618786233856104,0.01,0.0957765504262882,0.18075215734869604,0.385472,52.606609999999996
38,Faversham,0.9049091040670698,0.42293589325521,0.09639828434178524,0.24035094888075226,0.889358,51.31599
39,Blackpool,0.7420870092978816,0.2893126536179277,0.0967688796118624,0.4316996146576134,-3.0356748,53.81751
40,Aldershot,0.9629817928388849,0.01,0.0968361192904422,0.17874347349481318,-0.7557509,51.24837
41,Ely,0.9781841246982844,0.01,0.09776991162178272,0.16040230048264645,0.262363,52.39954
42,Nantwich,0.904678618277218,0.01,0.09792086418216922,0.24589607490116105,-2.524102,53.06718000000001
43,Margate,0.8970221114322764,0.4203112615328714,0.09897784292002963,0.24781134971530075,1.3868339,51.38965
44,Thetford,0.9814498468394556,0.01,0.09961542840844316,0.15533739182273615,0.751657,52.412859999999995
45,Folkestone,0.8929621559361026,0.4298378132250641,0.09967873109505672,0.2519175941060666,1.169456,51.0814
46,Stoke-on-Trent,0.8952791766731353,0.01,0.1025016579398406,0.2537105661062289,-2.179404,53.002669999999995
47,Ramsgate,0.9057386096537658,0.41876442660859503,0.10420223125911536,0.2341131512775333,1.4198950000000001,51.33555
48,Bexhill,0.9439767495178948,0.01,0.10684125913705908,0.19403578678065925,0.4662071,50.849909999999994
49,Corwen,0.7838955504079714,0.3511283986773817,0.10750775043490818,0.3747499856416355,-3.369242,52.98005
50,Barrow-in-Furness,0.7314974339451438,0.5975876657528018,0.10772159126170136,0.4319399003830479,-3.2188939999999997,54.10896999999999
51,Isle of Man,0.7030446,0.662513342672058,0.10817051195089457,0.4952629436141537,-4.5126330999999995,54.27697
52,Machynlleth,0.9033966550977801,0.01,0.11140319677531348,0.23817343473820576,-3.853485,52.59027
53,Cambridge,0.9716058534876634,0.01,0.11263692573144395,0.15790058119685238,0.12181700000000001,52.20534
54,Bury St Edmunds,0.9904631183207012,0.01,0.11345613087555913,0.13538107099448193,0.7104931999999999,52.24292
55,Hastings,0.9336948939795772,0.01,0.1176586625893245,0.1986148126341427,0.573453,50.85426
56,Ashford,0.8863370577971992,0.4303580553517141,0.11977976881361554,0.2458850272816008,0.8750190000000001,51.14647
57,Hove,0.9161931774989918,0.01,0.12020599999647748,0.2172543421925092,-0.168749,50.82793
58,Crawley,0.9996722115020312,0.01,0.12146397253471525,0.11918327781314353,-0.18722750000000002,51.109140000000004
59,Tunbridge Wells,0.9524177594470276,0.01,0.12233964243202924,0.17361270402598625,0.26369499999999996,51.13238
60,Clacton,0.8979665558429364,0.40142054120542375,0.12339247696782,0.2303050509787448,1.153035,51.78953
61,Ambleside,0.7030446,0.4307490547883753,0.12390563278909265,0.4590382239846795,-2.961333,54.42874000000001
62,Hunstanton,0.9139077801420981,0.01,0.12517924969014324,0.21651677195071714,0.49103199999999997,52.93891
63,Cromer,0.942173608708105,0.01,0.12782770562779544,0.1817904211331331,1.301866,52.93145
64,Sheringham,0.9368170946262752,0.01,0.12782770562779544,0.18802807710020386,1.2109589,52.944419999999994
65,Lewes,0.9730726918125244,0.01,0.12943410195503768,0.14471050244078032,0.00878,50.873870000000004
66,Holt,0.9355393884403164,0.01,0.12943876418236602,0.1884147437848111,1.086747,52.90936
67,March,0.9214907018140258,0.4832936992244776,0.13300671495421856,0.19511703713607745,0.088622,52.551719999999996
68,Great Yarmouth,0.9627798897195428,0.4240707730315357,0.13323350641247927,0.147765452521474,1.728047,52.59823000000001
69,Sevenoaks,0.9750150971233059,0.01,0.13403167973109106,0.1393062335697642,0.190898,51.27241
70,Ipswich,0.9157474094674314,0.3816551332816426,0.13498494981215892,0.20197073952977795,1.14822,52.05674000000001
71,Woking,0.9747049447411836,0.01,0.13582653364745012,0.1384404826138441,-0.5600349,51.31677
72,Brighton,0.9426619466744665,0.01,0.1421270676589683,0.1714477955006303,-0.137163,50.82253
73,King's Lynn,0.9248519022375356,0.01,0.1423450526878311,0.1920388587270777,0.4022963,52.75168000000001
74,Workington,0.7030446,0.4976238499131097,0.1466224908540051,0.5016856472088579,-3.5427519999999997,54.64357
75,Bishop's Stortford,0.9528842043040636,0.3590682427005142,0.14784730977568586,0.15027050025675093,0.15365020000000001,51.87216
76,Whitehaven,0.7030446,0.4720655153289132,0.15126969544984226,0.4562016768445222,-3.589233,54.5497
77,Dover,0.875639233181683,0.41304873264883707,0.15275083326952998,0.23606390594679905,1.3134027,51.12788
78,Mildenhall,0.9343723640848404,0.01,0.1534284103079153,0.17337610084040514,0.5156095,52.34757000000001
79,Basingstoke,0.8924282073253125,0.4567544287430433,0.15572398743933802,0.21382865949388166,-1.0923964,51.26654
80,Newbury,0.911828542898027,0.01,0.15804411896802326,0.1964730616190188,-1.3231138999999998,51.40141
81,Stevenage,0.9262281274154636,0.4960618434331486,0.15848081426111107,0.17199684802915774,-0.19661199999999998,51.90376
82,Royston,0.9208466795146776,0.3965521312195437,0.16070583635229818,0.17822869691415194,-0.024066,52.048140000000004
83,Morecambe,0.7493275470656233,0.4206219939577384,0.16104431405633576,0.3773718123811097,-2.864968,54.074169999999995
84,Wisbech,0.9179397611096888,0.01,0.1656032471480897,0.1841896666656989,0.158797,52.66631999999999
85,Braintree,0.9236483893665166,0.3758560905878418,0.1661371239797104,0.17156294568912325,0.5509269,51.88009
86,Sheffield,0.7030446,0.10282322738625103,0.16693602253368434,0.482017201851836,-1.470085,53.38113000000001
87,Chatteris,0.923910498536506,0.4656517875743253,0.16913369289121188,0.16786850839927145,0.054012,52.4561
88,Durham,0.7030446,0.3250304782330372,0.1696244700213085,0.43720848182408095,-1.5848520000000001,54.77525
89,Colchester,0.9070071937108396,0.40102442136871896,0.16978381459088593,0.18807297575918566,0.891874,51.89593
90,Sunderland,0.7030446,0.325849552595564,0.17249132540803042,0.44093280434120463,-1.383801,54.90687
91,Lancaster,0.7631037861091865,0.39544958582127104,0.1734105094270755,0.3532531592473993,-2.8007399,54.046569999999996
92,Newtown,0.9262001528868796,0.01,0.1753149774881764,0.16793203221174266,-3.313106,52.51211
93,Lowestoft,0.9063783749596334,0.3896003347603762,0.17568339705216698,0.18494359588260886,1.7534490000000005,52.48114
94,Hartlepool,0.7030446,0.01,0.17647949826974388,0.44739353724170255,-1.212926,54.69174
95,Chelmsford,0.8826845573912648,0.4338035156477055,0.17746695801788626,0.2106555140475086,0.4685497,51.73559
96,Whitby,0.7062309613568373,0.01,0.1783403486040618,0.4220180049287963,-0.613347,54.48634000000001
97,Harwich,0.8791816598990595,0.3550286263550215,0.17893400555053715,0.21490849348781774,1.260297,51.93473
98,Bishop Auckland,0.7030446,0.3268229027149594,0.18304008096113167,0.4375921741495758,-1.6787880000000002,54.663819999999994
99,Felixstowe,0.877772595057144,0.36028960034424257,0.1854322180007769,0.21202888895860533,1.3512549999999999,51.961729999999996
100,Brentwood,0.8730984162159827,0.01,0.18618780964312304,0.22233709700709367,0.30717490000000003,51.62047000000001
101,Southend,0.8560844295598321,0.4089221169137149,0.18623370668104428,0.2360102966647024,0.7077123000000001,51.54593
102,Abingdon,0.9167794263153956,0.01,0.18670811421296585,0.17111487973426792,-1.2879528999999998,51.67078
103,Tywyn,0.8556885291661822,0.01,0.18785947715296225,0.2414683872720375,-4.087249,52.58701
104,Stockton,0.7030446,0.01,0.19107144096703296,0.4508712712247965,-1.3289821000000002,54.57046
105,Darlington,0.7030446,0.01,0.19277833419446397,0.4568598600252438,-1.559458,54.52361
106,Worthing,0.867617233039377,0.01,0.19380651072794053,0.2235124645829959,-0.372882,50.81787
107,Dorking,0.9738267878004292,0.4614327201717496,0.19412271334585374,0.09272316669533616,-0.332378,51.2322
108,Middlesbrough,0.7030446,0.01,0.19580857474778127,0.44843399638643705,-1.234956,54.57423000000001
109,Stanhope,0.7030446,0.35084691890831937,0.1960923489844996,0.4455743625541218,-2.011302,54.74946
110,Chichester,0.8286183076261598,0.6879484083663164,0.19897122255722344,0.25512062477971154,-0.774936,50.83761
111,New Romney,0.8488256475343187,0.36235482836182,0.20458112529383693,0.2326178276428296,0.939473,50.98512
112,Aberystwyth,0.8639902745943233,0.01,0.20480056079342407,0.2202212654070917,-4.08292,52.4153
113,South Shields,0.7030446,0.33335288251498124,0.2048236647199624,0.44575898527331065,-1.427406,54.99941999999999
114,Cockermouth,0.7030446,0.3616408170224096,0.20819766683495572,0.4935506334003957,-3.367985,54.66326
115,Maldon,0.8476823407139457,0.4326489128489897,0.20987233889129545,0.2292827212609809,0.6714479999999999,51.7318
116,Midhurst,0.815281755194899,0.3336069586615881,0.21118532571200765,0.26759508689696376,-0.737274,50.9869
117,Petersfield,0.8054791154940575,0.7487442930059792,0.2155173637404492,0.2698475973799862,-0.93899,51.00759
118,Keswick,0.7030446,0.35115006555534384,0.21628207262734853,0.4613224609649005,-3.134706,54.60128
119,Macclesfield,0.7163729442522371,0.43895259941375214,0.21632247859752748,0.37768893571694695,-2.119287,53.25866
120,Newcastle,0.7030446,0.3640707313097576,0.21742659763393005,0.4484275519416935,-1.61778,54.97825
121,Medway,0.8408602045911062,0.3952847373865346,0.2190037773365815,0.23154288009600665,0.5417860999999999,51.404740000000004
122,Gillingham,0.8404582227781989,0.39544958582127104,0.2194988022737994,0.2316707067197641,0.551438,51.38632
123,Bognor Regis,0.8196761887502259,0.6671357364002888,0.22198097210340748,0.2501161239370119,-0.673061,50.783
124,Shrewsbury,0.8672699839997856,0.3089807739408808,0.2237325191081388,0.19884560873764728,-2.7553267999999997,52.7073
125,Malton,0.7351213516805698,0.2980518963923084,0.2239157964446684,0.3527710297989001,-0.7978970000000001,54.13684
126,Penrith,0.7030446,0.3708338789562084,0.2286426733252943,0.4743066715795526,-2.752708,54.6641
127,High Wycombe,0.8815637518221455,0.01,0.2286465067122088,0.1834571245071682,-0.748229,51.628609999999995
128,Alston,0.7030446,0.3571907152734232,0.2327516496773377,0.4469838546830116,-2.438685,54.812169999999995
129,Driffield,0.7612337496875671,0.01,0.2342825179218609,0.3197288036015806,-0.443377,54.006
130,Grimsby,0.7030446,0.01,0.23550764765869675,0.3887774173059119,-0.08078400000000001,53.56746999999999
131,York,0.7743781292702951,0.3858870490954387,0.24180061850143794,0.29351924682995284,-1.0872979,53.95997
132,Blyth,0.7030446,0.3725580314375495,0.2423476531746297,0.4578471347963262,-1.510277,55.12696
133,Skegness,0.8344096431848873,0.01,0.2428412276411233,0.22866547092709144,0.337881,53.1464
134,Ashington,0.7030446,0.3782046948189423,0.24554024284402504,0.4659231571490598,-1.5659829,55.18298000000001
135,Reading,0.875701263658108,0.01,0.2474973422714101,0.17739877990372852,-0.9781303,51.45426
136,Manchester,0.7030446,0.4257062667343444,0.24880338755365586,0.3786005767848864,-2.2426305,53.48076
137,Wigan,0.7030446,0.5340941362790679,0.2504221128820554,0.4034521969855721,-2.6325074,53.54506
138,Crewe,0.7192135751873225,0.4440227436791269,0.2514295684051837,0.35030854372615955,-2.4438209,53.1004
139,Portsmouth,0.8037678041150526,0.6479140391033573,0.2525883909089054,0.2480074449624944,-1.0879769,50.81977
140,Monaghan,0.934695895589328,0.01,0.2543118609446149,0.10404180702513878,-6.9683132,54.2492
141,Louth_Lincs,0.8204734628148582,0.01,0.25585246806400186,0.2360002404981797,-0.007711,53.36596
142,Andover,0.8046678541651325,0.8542542606706529,0.2570647507744219,0.2408176399890969,-1.4919233,51.2112
143,Clitheroe,0.7030446,0.6541239464895438,0.2582119695123487,0.4086551300719109,-2.3930830000000003,53.8711
144,Warrington,0.7030446,0.522549815091924,0.2583434443230078,0.402216988137052,-2.5969501,53.39004
145,Llanidloes,0.8868849936722832,0.01,0.2584371032897816,0.15689765563139305,-3.5401949999999998,52.44779000000001
146,Horncastle,0.8026530799651893,0.01,0.2600203956904857,0.2539035453581621,-0.11245,53.20731
147,Preston,0.7030446,0.5352632468779072,0.26030230503627266,0.4213783760834899,-2.70309,53.7632
148,Stafford,0.8440292321660865,0.2766831869104369,0.2617378566331943,0.20041401662482616,-2.12066,52.80669
149,Wolverhampton,0.8551138350463674,0.2665289121017906,0.2617451089868162,0.1876524580351568,-2.12882,52.586969999999994
150,Market Weighton,0.7576718624285653,0.07839223421164948,0.2633564783565421,0.30283281502765197,-0.6677465,53.86484
151,Bridlington,0.7356778015426122,0.01,0.2665481355804717,0.3274338808821581,-0.198802,54.08535
152,Burnley,0.7030446,0.6876564033304979,0.2681491444450235,0.3861730118126672,-2.2405035,53.78929
153,Rochdale,0.7030446,0.6917727308544213,0.2685716458460229,0.37780571472114427,-2.1561,53.60971
154,Isle of Wight,0.7901715750815059,0.6763353884785879,0.269181361575518,0.2520736771413916,-1.304734,50.69385
155,Bradford,0.7296900361418748,0.4307125008213976,0.2693874320234305,0.3260326744679385,-1.759398,53.79598000000001
156,Southampton,0.7753347365194699,0.7667048547366214,0.26973668465284906,0.2676215728566786,-1.4043508999999998,50.9097
157,Chesterfield,0.7167968191744721,0.01,0.2705488446534458,0.34668662414419016,-1.421629,53.23505
158,Hawes,0.7030446,0.622179477417661,0.2709557016916322,0.3699340025122003,-2.1968695,54.30383000000001
159,Beverley,0.7551286128951628,0.01,0.2716284092925858,0.3013110054332335,-0.435093,53.84196
160,Hexham,0.7030446,0.3784059549873218,0.2723714647236713,0.4633848249189541,-2.1121439,54.97266
161,Wakefield,0.7030446,0.3355319446113053,0.27324982835233064,0.3884361450068052,-1.505924,53.6833
162,Helmsley,0.7030446,0.29758418577721657,0.27406913710149744,0.3676573430659084,-1.0562636,54.24651
163,St Neots,0.855701908288548,0.3938617876966459,0.2742615316825802,0.1765107920725398,-0.26510300000000003,52.23008
164,Peterborough,0.8136452452727606,0.3946814784036224,0.2746906638068909,0.22517966368354966,-0.2405299,52.5695
165,Walsall,0.8389865193179317,0.2744488908691984,0.2749640775384352,0.1972790421203951,-1.9829189999999999,52.586209999999994
166,Skipton,0.7290733802291836,0.3818262399830989,0.2752389417407037,0.3234811700760494,-2.0162787,53.96285
167,Ashbourne,0.7465915165417637,0.01,0.2789226193553508,0.3062667834409497,-1.7321790000000001,53.016630000000006
168,Nuneaton,0.8136823419302295,0.2915377044924209,0.2801554158660155,0.22294174172379266,-1.465382,52.52049
169,Telford,0.8405780267375674,0.2842303721080052,0.2859649655373336,0.1877600306897206,-2.4672611,52.67759
170,Blackburn,0.7030446,0.4256903366008755,0.286355038557138,0.39818913935431904,-2.487529,53.748580000000004
171,Selby,0.7030446,0.31813557510768725,0.28953871819208354,0.3577559848531471,-1.067189,53.783519999999996
172,Gainsborough,0.7073754844610605,0.01,0.29004772981128657,0.3443295153657163,-0.774465,53.400569999999995
173,Harrogate,0.7245074506508027,0.4072792744886214,0.29047406459920017,0.3180039585887063,-1.5418120000000002,53.99211999999999
174,Oxford,0.8686510743131188,0.01,0.29070904085654864,0.156072129341564,-1.2577263,51.75202
175,Lincoln,0.7107445907296059,0.01,0.2924305423962751,0.3387769534475265,-0.540579,53.23069
176,Buxton,0.7030446,0.41499638110985815,0.2927434296525325,0.4278857072767484,-1.91483,53.259080000000004
177,Huntingdon,0.8303004281927296,0.4194436381921536,0.2930780739696555,0.19284625558993607,-0.182552,52.33146
178,Corby,0.7748226810180048,0.4245644649357376,0.29378414239726963,0.2568910766323088,-0.6842333,52.4923
179,Barnsley,0.7030446,0.3712656045376606,0.2940209835455493,0.4045170175477981,-1.479726,53.55263000000001
180,Dudley,0.827038963045039,0.2750858591523974,0.2943798714447797,0.19791095179562407,-2.081112,52.51225
181,Bromsgrove,0.8447778548766598,0.2731365513024733,0.2978694967975161,0.1748979104348237,-2.061906,52.33559
182,Otley,0.7127538916522178,0.41223705441970654,0.29858665096566644,0.3260719076809921,-1.691786,53.90583
183,Castleford,0.7030446,0.34132942273842604,0.2991719159029507,0.38828601068970503,-1.345968,53.72346999999999
184,Carlisle,0.7030446,0.3980503223434061,0.30052002483620305,0.4368318004879224,-2.932931,54.892469999999996
185,Biggleswade,0.8466375528855418,0.41241996648792995,0.3035045755617026,0.16680014693334014,-0.26421999999999995,52.08694000000001
186,Leeds,0.7030446,0.3271055203506981,0.3035510942299342,0.37484339468137856,-1.5490774,53.80076
187,Hull,0.7233720496754641,0.01,0.3036152257569619,0.31642754825915365,-0.3274198,53.767619999999994
188,Kidderminster,0.8276957563248275,0.2667288447590477,0.3055731540247611,0.18962020904220755,-2.2496839,52.3886
189,Wetherby,0.7233270471729608,0.42011758714233416,0.3059068658964184,0.30863763092579977,-1.384816,53.92706
190,Retford,0.7030446,0.01,0.3083073949452546,0.35696593841844404,-0.9455030000000001,53.32136
191,Kettering,0.7771001725298649,0.4201746701205978,0.3093038683328984,0.24369667797371644,-0.7302489999999999,52.39632
192,Worcester,0.830273061806072,0.27824471927928285,0.3102271965540131,0.1832657032528653,-2.221575,52.19364
193,Scarborough,0.7030446,0.01,0.3111190288393986,0.3868391266176884,-0.399752,54.28311
194,Towcester,0.8330735553740588,0.4314022850828239,0.3143676688417857,0.17488608381644835,-0.9896879999999999,52.13511
195,Mansfield,0.7129405912234166,0.01,0.31454379742974514,0.32110486959949336,-1.198674,53.1472
196,Worksop,0.7030446,0.01,0.3178762539189906,0.34347523693780097,-1.122745,53.3093
197,Ludlow,0.8325645405822226,0.2893828694740809,0.3195876021636465,0.17403237193312596,-2.7139129,52.36775
198,Leicester,0.8027880874727019,0.33819986267845664,0.32051942599900396,0.2073411573613724,-1.1397591999999999,52.63688000000001
199,Thirsk,0.7030446,0.4033295021994489,0.32351330117916016,0.3884953489167561,-1.341377,54.23385
200,Luton,0.8276385909838092,0.44928793725727295,0.3247159486197684,0.17387444762787427,-0.4200255,51.87867
201,Keighley,0.7030446,0.6240343423334479,0.3254635626731306,0.3609533500808637,-1.9123580000000002,53.8678
202,Newark-on-Trent,0.7051697536964385,0.01,0.3259472946597088,0.3223590576918733,-0.80657,53.07004000000001
203,Reeth,0.7030446,0.5149556928939562,0.3275135958319273,0.3711377681358183,-1.9428115000000001,54.38946
204,Birmingham,0.8096017096085802,0.28495068912524696,0.3282338581516301,0.194928590240887,-1.8904009999999998,52.48624
205,Rugby,0.792401023381233,0.5665763895888613,0.3289253182669485,0.21027975334631333,-1.265032,52.37088
206,Melton Mowbray,0.8046605564620236,0.01,0.3307854433659044,0.20319497157681188,-0.887126,52.7664
207,Witney,0.8315039410637493,0.01,0.3329161848600073,0.17047949997340786,-1.4850543999999999,51.785940000000004
208,Bedford,0.8300285887519282,0.4172595031068976,0.3366613002703366,0.16340484518850318,-0.46677820000000003,52.13864
209,Spalding,0.8336148016879592,0.01,0.3370647383418158,0.16518535320762326,-0.1537024,52.7901
210,Welwyn Garden City,0.8527068093043274,0.4543936872673952,0.3373376340481011,0.13597884635799287,-0.208661,51.80317
211,Burton upon Trent,0.7973920441656982,0.2362382848328725,0.33773205848007865,0.2033822853828167,-1.6371358999999999,52.81403
212,Aysgarth,0.7030446,0.6309423309255761,0.3424069256247307,0.3612784758590746,-1.9967433999999997,54.29159
213,Milton Keynes,0.8068918291875282,0.4104561982489939,0.34304513274345444,0.18608546650946,-0.7594171,52.040620000000004
214,Derby,0.7762068120409664,0.01,0.3444748824574786,0.2269721399571933,-1.4746186000000001,52.92253
215,Aylesbury,0.8259759309588627,0.01,0.34595622748726984,0.16800320437621707,-0.8084,51.81561
216,Llandrindod Wells,0.8133679325546271,0.01,0.34629449798120376,0.18245405730556066,-3.377742,52.2417
217,Coventry,0.7786193110603377,0.2737279100963953,0.3469678272124677,0.21837008095001595,-1.519693,52.40682
218,Jersey,0.7516926110147883,0.7747441198606001,0.34831894069222075,0.24131874868145603,-2.13125,49.21444
219,Banbury,0.8175300558943245,0.4279496182978824,0.34852532195528835,0.16969009090137174,-1.339775,52.0629
220,Loughborough,0.7900177151742969,0.01,0.348657418396258,0.20803014640432912,-1.206166,52.7721
221,Bicester,0.8096801599169999,0.4287688348937437,0.3494837722889434,0.17816411083056924,-1.1535898999999998,51.8996
222,Coleraine,0.9049595798469059,0.01,0.3500081174558038,0.07325775675677018,-6.6646103000000005,55.132580000000004
223,Ringwood,0.7299369417637201,0.8043166110234058,0.35242574133817745,0.2634042857257178,-1.7888169999999999,50.84495
224,Guernsey,0.7644337925007583,0.7832232178660998,0.35274121872072833,0.22333237422054966,-2.5852779999999997,49.46569
225,Boston,0.7753377772290985,0.01,0.35322184255575434,0.22200552678413926,-0.026576999999999996,52.97894
226,Northallerton,0.7030446,0.3131099498760247,0.35426607787225056,0.3747720808807559,-1.429959,54.337959999999995
227,Evesham,0.7971566932404417,0.28821636648637483,0.3560357557610365,0.1903685436312633,-1.9467700000000001,52.09215
228,Swindon,0.8502195088280915,0.32230533495428765,0.3561212299287229,0.1280095468429338,-1.7797176,51.55577
229,Carlow,0.9413441031214096,0.01,0.3593742213432829,0.02448534912142036,-6.934135899999999,52.83651
230,Leamington Spa,0.7688391726107472,0.5397542170050191,0.3609049859827545,0.21625864007060847,-1.5200789,52.28519
231,Alderney,0.7610944851865746,0.7882692772868253,0.3626857496120769,0.2203483838501082,-2.1973557,49.715
232,Cheltenham,0.8333484355244879,0.32650406299002355,0.36821784495483295,0.13932429217866066,-2.0782533,51.899390000000004
233,Colne,0.7030446,0.6177175703019073,0.3684418390766968,0.3650575407474805,-2.176991,53.85564
234,Halifax,0.7030446,0.6065324831067098,0.3697318255759224,0.3654524223286838,-1.8575400000000002,53.727019999999996
235,Grantham,0.7559331846629027,0.01,0.3703234104213629,0.2329120059226572,-0.643582,52.912519999999994
236,Bournemouth,0.7315278410414298,0.8060258290046198,0.37064365363629387,0.2490738943404249,-1.880769,50.719159999999995
237,Sark,0.7505663321683356,0.7962120607988715,0.3717442501009371,0.2262975978013537,-2.3666256000000003,49.43007
238,Scunthorpe,0.7030446,0.01,0.3735118558886885,0.3725452773586332,-0.654413,53.58865
239,Huddersfield,0.7030446,0.5641645863461119,0.3745674877608762,0.3895693050105417,-1.7850351000000002,53.64579000000001
240,Rotherham,0.7030446,0.07855072955744287,0.37564591274444703,0.3947238693522673,-1.3635008999999998,53.4326
241,Gloucester,0.8243132709339175,0.3677655740523159,0.3767945819530984,0.1433668711208072,-2.238156,51.86424
242,Salisbury,0.7164234200320732,0.8086033814932244,0.3771331632621873,0.26218833939335395,-1.794472,51.06878
243,Stratford-upon-Avon,0.7851434576395697,0.30191429000295944,0.3801099436088064,0.18769735669413865,-1.7082979999999999,52.19173
244,Blandford Forum,0.7587160421150438,0.9468545619587844,0.3815261210610525,0.20787108900989185,-2.165353,50.85691
245,Poole,0.7294005605852263,0.8056834259572613,0.38327963656176695,0.2429189538839075,-1.987248,50.71505
246,Doncaster,0.7030446,0.07011681434121646,0.3840925217977259,0.3903736566962137,-1.128462,53.522819999999996
247,Totnes,0.8080174998920542,0.01,0.3844523421424218,0.1626021931366097,-3.685797,50.43374
248,Northampton,0.7500694802150144,0.43809934163982334,0.38613178003114174,0.22239120201570894,-0.9026559999999999,52.24048
249,Derry,0.8684820108577658,0.01,0.3864516088258657,0.09082524230935188,-7.308574799999999,54.99661
250,Cookstown,0.8876068581381249,0.01,0.38892787316752464,0.06686175157600313,-6.7443895000000005,54.641819999999996
251,Cirencester,0.8312029108105127,0.3387314360607587,0.38906100565901147,0.1273928630536371,-1.968243,51.71849
252,Alnwick,0.7030446,0.01,0.3895602784033508,0.5524959865626954,-1.7062990000000002,55.41274
253,Tregaron,0.7665330984283779,0.01,0.3905940496096213,0.20671271777177447,-3.934385,52.22
254,Jedburgh,0.7030446,0.01,0.396693693425814,0.6111909978330378,-2.5549369,55.47772
255,Ballymena,0.8959499572172149,0.01,0.3980568250915687,0.05090615620810005,-6.2802213,54.86529
256,Aberaeron,0.770155191738027,0.01,0.3986298646327475,0.19700207263257485,-4.2581619,52.24279
257,Dungannon,0.8738567691973679,0.01,0.3997803987323301,0.0754554540504362,-6.7669352,54.508269999999996
258,Fortuneswell,0.7518835675794676,0.8052842718094195,0.40240730481922,0.2036686736744928,-2.4422189999999997,50.55919
259,Dorchester,0.8000915861740143,0.9740897327350304,0.4085178271658455,0.14083229224862895,-2.4411810000000003,50.71116
260,Shaftesbury,0.7893712603072444,1.0,0.4105325310019987,0.15155216576188316,-2.198083,51.0046
261,Nottingham,0.7037898796669568,0.01,0.4107384978448596,0.26600755812977683,-1.1581086,52.95478000000001
262,Heathrow,0.8293590244916994,0.4942334813286983,0.4112842892574305,0.11202753633338998,-0.4542955,51.47002
263,Marlborough,0.8048983399549852,0.5825653602471674,0.41167301541156215,0.13892636542027093,-1.7270619999999999,51.42007
264,Wellingborough,0.7108291224572818,0.4702317009466387,0.41266358331125697,0.24947068800962904,-0.693964,52.30242
265,Trowbridge,0.8189166194849884,0.382501895733294,0.413266461107337,0.12450157354219756,-2.208853,51.31966
266,Exeter,0.8122592898240214,0.01,0.4135617355047986,0.13776551554955996,-3.533899,50.71841
267,Torquay,0.7771615948643623,0.01,0.4138428160101715,0.17844476285824296,-3.525315,50.46192
268,Craigavon,0.8624030241681675,0.01,0.4165886606964601,0.0773043015110665,-6.4175653,54.442930000000004
269,Kingsbridge,0.77208178535874,0.01,0.41907321344225823,0.18078480448085785,-3.777493,50.28395
270,Plymouth,0.7774255284601299,0.01,0.41969297886177204,0.17413803249968893,-4.1426565,50.37546
271,Kelso,0.7030446,0.01,0.4214991257287708,0.625047191394131,-2.432207,55.600030000000004
272,Paignton,0.772466739197727,0.01,0.4219976732377481,0.17833782756634609,-3.564235,50.43508
273,Armagh,0.8669318570890802,0.01,0.4223758316766023,0.06807415700466175,-6.652792,54.35028000000001
274,Weymouth,0.7810421484924457,0.9806941005690188,0.4243988239168947,0.15206141853276425,-2.457621,50.61443
275,Hereford,0.8147563205710701,0.4007137363549636,0.4250325760183937,0.12103141709303275,-2.715974,52.0564
276,Langholm,0.7030446,0.32797219546918555,0.4259878145954445,0.578605902304059,-2.998913,55.153059999999996
277,Dartmouth,0.7668353449654661,0.01,0.4261126586827924,0.18208289977918216,-3.578807,50.35252
278,Penzance,0.7735005804714674,0.01,0.4268481509451008,0.17381786398666524,-5.537592,50.1188
279,Tavistock,0.7662843683807556,0.01,0.4315386624525657,0.17901555653552031,-4.141654,50.551120000000004
280,Sidmouth,0.7768593483272749,0.2965820571131317,0.4335330596985776,0.16090758744137768,-3.2375599999999998,50.67865
281,Cardigan,0.7483356675847578,0.01,0.43712929464955547,0.196094893103304,-4.660864,52.0837
282,Hawick,0.7030446,0.01,0.4383919294151215,0.6701972545390668,-2.780914,55.42706
283,Banbridge,0.8594644823830404,0.01,0.43856370659090776,0.0657055048801089,-6.2704803,54.34873
284,Bridport,0.7720069839018754,0.6119866099642416,0.4395582114825687,0.15772849327677993,-2.758301,50.733579999999996
285,Builth Wells,0.7411328346164104,0.01,0.4395909506789188,0.2028005149040532,-3.4045919999999996,52.15002
286,Scilly Isles,0.7692995360485242,0.01,0.4397776469821557,0.16987230580604107,-6.327496599999999,49.92773
287,Tiverton,0.7862004083064879,0.01,0.4414553235849958,0.14904478103016078,-3.491207,50.90205
288,Okehampton,0.7614222736845435,0.01,0.4430747741487577,0.17679186900865818,-4.004263,50.73831
289,Fishguard,0.7386692516752783,0.01,0.44321111839684857,0.20319412175992266,-4.975989,51.99393
290,Haverfordwest,0.7273754479725457,0.01,0.4434484775703871,0.2161838561843548,-4.971319,51.80048
291,Street,0.7873491884041929,0.34587714396602104,0.4435129199125699,0.14113397724431148,-2.7429189999999997,51.12468
292,Pembroke,0.7277981066109291,0.01,0.4436961972490994,0.2155224861902985,-4.9086370000000015,51.67404000000001
293,Lyme Regis,0.7722356452659491,0.2946467355411045,0.4437036568128249,0.1593682857826555,-2.936639,50.725159999999995
294,Glastonbury,0.7821878878805223,0.3453732586728435,0.4452300700401233,0.1459779335130177,-2.718454,51.14743
295,Milford Haven,0.7267004104349862,0.01,0.4466857210170825,0.21475708444538366,-5.0426971,51.71431
296,Helston,0.7641431006602584,0.01,0.4478141872406443,0.17038375393721936,-5.274996,50.10159
297,Saltash,0.7597839393366268,0.01,0.4479431755300617,0.17537182498672693,-4.21643,50.409209999999995
298,Merthyr Tydfil,0.7525865796456109,0.3570337844943097,0.4487318171839131,0.17788140507874653,-3.381646,51.74873
299,Redruth,0.7596306875713411,0.01,0.4494592282521861,0.174514359745477,-5.226666000000002,50.23302
300,Axminster,0.7753803471638995,0.3022222251722469,0.4524811804013639,0.14959376274061414,-2.9949369999999997,50.78273
301,Liskeard,0.7596854203446571,0.01,0.4540351525724255,0.17132251832754053,-4.4647190000000005,50.45552
302,Omagh,0.8362462318005929,0.01,0.4547841134914601,0.08165564725630596,-7.309959700000001,54.59771
303,London,0.8343390987215026,0.11058907263012477,0.4552079617581321,0.08193509537671992,-0.12775830000000002,51.50735
304,Camelford,0.7515947001647454,0.01,0.4555584576481716,0.1797026334904763,-4.682364,50.62206
305,Newquay,0.7515947001647454,0.01,0.4555584576481716,0.1797026334904763,-5.0737190000000005,50.4155
306,Wadebridge,0.7515947001647454,0.01,0.4555584576481716,0.1797026334904763,-4.836456,50.51665
307,St Austell,0.7560292710871689,0.01,0.4573165317711626,0.17333743417194444,-4.7834252,50.340379999999996
308,Truro,0.7504641643248134,0.01,0.4581273449060867,0.17926341979488394,-5.0510410000000014,50.2632
309,Bristol,0.7441139463363391,0.32419699089261,0.45953378348346896,0.1808547019199984,-2.58791,51.45451
310,Launceston,0.7477019836981463,0.01,0.4599714112220226,0.18121969827392986,-4.360451599999998,50.636829999999996
311,Ross-on-Wye,0.7599809773205622,0.31810641727410577,0.4605209324164562,0.1617935215484174,-2.582446,51.91445
312,Strabane,0.828744801146712,0.01,0.4617156022680804,0.08565325672139652,-7.4633103,54.82739
313,Belfast,0.8547398277620437,0.01,0.4628235546913974,0.054624459188924834,-5.93012,54.59728000000001
314,Bridgend,0.7531703958943123,0.33567370383473405,0.4630005121197709,0.16776681364485824,-3.576945,51.50429000000001
315,Taunton,0.7832326757089255,0.3175382899248259,0.4631737397662816,0.13291214047699795,-3.106849,51.01534
316,Lampeter,0.7229037803926527,0.01,0.4639809267243946,0.2073566665196012,-4.0785089999999995,52.1129
317,Falmouth,0.7512298150093076,0.01,0.4647425274597418,0.17384994457423433,-5.066269999999999,50.152570000000004
318,Tenby,0.7113825316096959,0.01,0.4682965951546612,0.21782329459985986,-4.703579,51.67274000000001
319,Tyrone,0.8159117902299565,0.01,0.4683899433062798,0.09603490311273057,-7.1312320000000025,54.491209999999995
320,Selkirk,0.7030446,0.01,0.4683919118022626,0.7606145139235062,-2.838524,55.55066
321,Antrim,0.8336768321643828,0.01,0.4686167347645405,0.07519250654128845,-6.2072498,54.719530000000006
322,Bude,0.7395042305393057,0.01,0.4686331043627156,0.1848452295776785,-4.543678,50.82664000000001
323,Bath,0.7538095530582545,0.3102990873076567,0.4695357115734821,0.16293447154030516,-2.3590167,51.38106
324,Tain,0.7030446,0.3807356895960394,0.4699818349262782,0.6714335256586984,-4.05523,57.8115
325,Wells,0.7618054030977529,0.34625605356924594,0.4715421270054958,0.15171483487809978,-2.6445979,51.20935
326,Cinderford,0.7447166149847391,0.3097584584030553,0.4721079141930529,0.1717736294595823,-2.5009579,51.8253
327,Newport,0.7610324547101491,0.3479927225840269,0.4749599540573757,0.15025293737437315,-2.997664,51.58415
328,Galashiels,0.7030446,0.01,0.4758054748846332,0.7569787848170865,-2.814449,55.62373
329,Bodmin,0.7409595141675774,0.01,0.4761446778240329,0.1780162426918403,-4.7188629,50.4715
330,Wincanton,0.7554515362577249,0.8912328415631595,0.4764491730710992,0.14761963810689407,-2.416007,51.05569000000001
331,Stranraer,0.7030446,0.01,0.4824871718815061,0.9506966692630932,-5.0240550000000015,54.903369999999995
332,Newton Stewart,0.7030446,0.01,0.4859436436176853,0.9456805542562406,-4.483164,54.9603
333,Minehead,0.7376457488142752,0.01,0.4877936154215704,0.17391261856981627,-3.481152,51.20428
334,Bridgwater,0.7691377702962802,0.3200030039680256,0.4882682301635955,0.13213597438481933,-3.003632,51.12789
335,Brecon,0.7030446,0.01,0.4887739264211428,0.2165795875824473,-3.391463,51.94895
336,Cardiff,0.7339865588471579,0.3305253786464716,0.4892050270414366,0.1722719762470514,-3.17909,51.48158
337,Bideford,0.7439911016673422,0.01,0.4905848391205215,0.16461540934723512,-4.206666,51.01668
338,Castle Douglas,0.7030446,0.30026035337777146,0.4913774177663393,0.9378687541379884,-3.9314139999999997,54.940419999999996
339,Newry,0.8521473187326559,0.01,0.4959895002496363,0.03497329344198431,-6.34023,54.1751
340,Kilkeel,0.8264101442938343,0.01,0.4975666799522878,0.06386628867755675,-6.007004,54.06312
341,Berwick,0.7030446,0.01,0.4985532072549646,0.6371730161325698,-2.005395,55.77024
342,Carmarthen,0.7101115149849213,0.01,0.4986315326740806,0.198567931069086,-4.312131,51.857620000000004
343,Llanelli,0.7030446,0.01,0.4991409587134906,0.20950620752287646,-4.160248,51.68089000000001
344,Llandeilo,0.7030446,0.01,0.4993764529960976,0.2064387934611406,-3.9914300000000003,51.88469
345,Barnstaple,0.7272763208386512,0.01,0.4998722031686776,0.17773127076164627,-4.058338,51.07816
346,Kilmarnock,0.7030446,0.01,0.5011334910685712,0.9912735844546964,-4.498792,55.61472
347,Magherafelt,0.8403110524321721,0.01,0.5030385807599824,0.043938436715092295,-6.607980499999999,54.75536999999999
348,Down,0.8420254045208061,0.01,0.5048219345155982,0.040723154514627435,-5.7156921999999994,54.32875
349,Dalbeattie,0.7030446,0.3011822624411735,0.5068276247122498,0.9409786590441868,-3.8225269999999996,54.934219999999996
350,Yeovil,0.7484305377251709,0.3100285120942427,0.5072380043221957,0.14343159884053816,-2.633308,50.94206
351,Lockerbie,0.7030446,0.2374612070432809,0.5096062085948885,0.8690906654767342,-3.349008,55.12224000000001
352,Swansea,0.7030446,0.01,0.5099576369303938,0.2072879729877204,-3.9436459999999998,51.62144
353,Girvan,0.7030446,0.01,0.5111134548876148,0.981379803775864,-4.8542179,55.240159999999996
354,Weston-super-Mare,0.7298888985515878,0.3516057811592226,0.512991918080729,0.16046943601689692,-2.977255,51.347409999999996
355,Cumnock,0.7030446,0.01,0.514727924327699,1.0,-4.265828900000002,55.45355
356,Fort William,0.7030446,0.01,0.5167002536976901,0.9139204184724979,-5.1052179,56.81981999999999
357,Portree,0.7030446,0.01,0.5176711366375538,0.9054865523913171,-6.1960231,57.41246999999999
358,Donegal,0.836133725544332,0.01,0.5180106503921089,0.038568585428090635,-8.1096143,54.653830000000006
359,Irvine,0.7030446,0.01,0.5181291745713005,0.9956567983332824,-4.6696364,55.61156999999999
360,Ayr,0.7030446,0.01,0.5214753069273758,0.995387972923984,-4.629179,55.45856
361,Lochgilphead,0.7030446,0.01,0.5247406273430931,0.9740920574059806,-5.4323449,56.03829
362,Rothesay,0.7030446,0.01,0.5249862749207705,0.9789263824166088,-5.055793,55.83596
363,Balivanich,0.7030446,0.01,0.5251415788933301,0.8994046253692011,-7.3743509000000005,57.472269999999995
364,Glasgow,0.7030446,0.01,0.5255273005009614,0.9807471151018196,-4.251806,55.86424
365,Campbeltown,0.7030446,0.01,0.5275272924197674,0.9880677918761612,-5.605373999999999,55.424119999999995
366,Islay,0.7030446,0.01,0.5305730737308458,0.9920333207536828,-6.177067,55.73625
367,Dunvegan,0.7030446,0.01,0.5311676631227871,0.9109797687634079,-6.5813982000000015,57.4366
368,Invergordon,0.7030446,0.5490574623619779,0.5367879263645744,0.6057137863456946,-4.1728819999999995,57.688109999999995
369,Mull,0.7030446,0.01,0.5373971240688107,0.9579093484744262,-6.0008870000000005,56.4392
370,Greenock,0.7030446,0.01,0.5389977185131557,0.9740936154036108,-4.7719830000000005,55.956480000000006
371,Dunoon,0.7030446,0.01,0.5389977185131557,0.969534064520506,-4.926214,55.95097
372,Dumbarton,0.7030446,0.01,0.5392403615443327,0.9731224163353502,-4.564554,55.94529
373,Lairg,0.7030446,0.5512385631360972,0.5407579683422332,0.6104763726472554,-4.402414,58.022059999999996
374,Inchnadamph,0.7030446,0.5515057721605936,0.5414893164024719,0.6108085802328768,-4.974295,58.15221
375,Western Isles,0.7030446,0.01,0.5437251134190403,0.8975200855992224,-7.0194034,57.75989000000001
376,Peebles,0.7030446,0.01,0.5445686657503145,0.91973359090339,-3.1936419999999996,55.65306999999999
377,Broadford,0.7030446,0.01,0.5447481096999296,0.9113665062660894,-5.9096592,57.24139
378,Helensburgh,0.7030446,0.01,0.5459120088511868,0.9731224163353502,-4.734014,56.00232
379,Kilkenny,0.8031012805644528,0.01,0.5485190227681427,0.05618153618424709,-7.2447879,52.65415
380,Livingston,0.7030446,0.01,0.5494505357883449,0.9274439087214512,-3.518068,55.90071
381,Altnaharra,0.7030446,0.549428643954026,0.5518126273629851,0.6013866603817987,-4.442655,58.28023
382,Alness,0.7030446,0.549428643954026,0.5518126273629851,0.6013866603817987,-4.256825,57.69595
383,Inverness,0.7030446,0.549694051356285,0.5545488367794619,0.6140295986973441,-4.224721,57.47776999999999
384,Falkirk,0.7030446,0.01,0.5552745901669066,0.9258987999806524,-3.7839131,56.00188000000001
385,Oban,0.7030446,0.01,0.5568577789625591,0.9608104816981664,-5.471047,56.41516
386,Dumfries,0.7030446,0.2896366611540187,0.5610537835580647,0.9096032070389766,-3.60512,55.070859999999996
387,Dunbar,0.7030446,0.01,0.5622353991731694,0.7742217819541242,-2.516737,56.00209
388,Braemar,0.7030446,0.35416669234768544,0.5644104836294177,0.6801826738057896,-3.3979439,57.00646999999999
389,Shetland Islands,0.7030446,0.3625857678860078,0.5651828592901458,0.639461573015311,-1.2659409,60.52965
390,Ballachulish,0.7030446,0.01,0.5676744571794623,0.950584068525268,-5.133719999999999,56.67393000000001
391,Banff,0.7030446,0.3532431238953804,0.5681336347687778,0.6597459939808886,-2.524038,57.666509999999995
392,Turriff,0.7030446,0.3532431238953804,0.5681336347687778,0.6650223654100731,-2.4623,57.53893000000001
393,Aviemore,0.7030446,0.3536822930213404,0.568755368684275,0.6694644291082397,-3.823812,57.19449
394,Stirling,0.7030446,0.01,0.569636944069538,0.9127764941214979,-3.9369029,56.116519999999994
395,Brora,0.7030446,0.3622164353273088,0.5702172359643386,0.6423407526360788,-3.852548000000001,58.012159999999994
396,Thurso,0.7030446,0.3626782195534613,0.5721782723836901,0.6423524376183061,-3.5220800000000003,58.59356999999999
397,Forfar,0.7030446,0.3749395863911525,0.5723569910979431,0.7226090738206896,-2.889062,56.64356
398,John o' Groats,0.7030446,0.36290958577765264,0.5744825523394592,0.6319683834124524,-3.0688997000000002,58.63734
399,Airdrie,0.7030446,0.01,0.5749837935797814,0.924994594810494,-3.9625660000000003,55.86626999999999
400,Fraserburgh,0.7030446,0.3532431238953804,0.575852832753784,0.65446955173363,-2.007631,57.69335
401,Kirkcaldy,0.7030446,0.01,0.577324646118815,0.8072187554020912,-3.158137,56.11682
402,Dalkeith,0.7030446,0.01,0.5780482238001732,0.8082415808463737,-3.066606,55.893119999999996
403,Elgin,0.7030446,0.3539022805787683,0.5787338820325942,0.6637601748753195,-3.318485,57.64945
404,Golspie,0.7030446,0.35947009928171225,0.5821204203588485,0.6422713509234571,-3.976086,57.97341
405,Orkney Islands,0.7030446,0.36290958577765264,0.5824130010249648,0.6319683834124524,-2.9605206,58.980940000000004
406,Kirkwall,0.7030446,0.36290958577765264,0.5824130010249648,0.6319683834124524,-2.9622491,58.984669999999994
407,Wick,0.7030446,0.36290958577765264,0.5824130010249648,0.6319683834124524,-3.093716,58.43894
408,Blairgowrie,0.7030446,0.01,0.5826414501640534,0.7678414983858083,-3.3378318,56.58941
409,Dalwhinnie,0.7030446,0.2917307625385085,0.5832651525755335,0.8949338803510224,-4.242783,56.9366
410,Grantown-on-Spey,0.7030446,0.35545006372527505,0.584203710739254,0.6643363507262288,-3.609628,57.33041
411,Kyle of Lochalsh,0.7030446,0.01,0.5845115213479763,0.908530029944006,-5.7143293,57.28261
412,Peterhead,0.7030446,0.3535064926198441,0.5847289883515805,0.6602937717840822,-1.784066,57.50812
413,Perth,0.7030446,0.01,0.5862096081460094,0.9125524257350331,-3.4308381000000003,56.39499
414,Dunfermline,0.7030446,0.01,0.5870129617172081,0.9268056254195528,-3.452151,56.07174000000001
415,Invergarry,0.7030446,0.01,0.5871032017172746,0.9206681062092648,-4.800261,57.07095
416,Pitlochry,0.7030446,0.01,0.5876859801333169,0.8911127495265989,-3.729711,56.70436
417,Ullapool,0.7030446,0.3068018540778913,0.5879804256903645,0.8304735696678823,-5.161313,57.895419999999994
418,Edinburgh,0.7030446,0.01,0.5884476844737161,0.8176213639433599,-3.1882669999999997,55.95325
419,Stornoway,0.7030446,0.2975592949436713,0.5947507050064761,0.8476424202813333,-6.3848692000000025,58.20943000000001
420,Aberdeen,0.7030446,0.3535064926198441,0.5963164881534359,0.6655741090254166,-2.094278,57.149719999999995
421,Banchory,0.7030446,0.3540344153465597,0.5986526784651409,0.677256612619965,-2.4909599,57.05386
422,St Andrews,0.7030446,0.01,0.5990976621623678,0.7736148002409797,-2.7967214,56.33978000000001
423,Arbroath,0.7030446,0.3739292556047757,0.5995293844129723,0.7218561360568171,-2.591543,56.55911
424,Cupar,0.7030446,0.01,0.5995300060432828,0.7833490986169301,-3.010137,56.32023
425,Dundee,0.7030446,0.01,0.6044562190434581,0.7440572481980164,-2.9707209999999997,56.462019999999995
426,Achnasheen,0.7030446,0.28229301185818273,0.6050498759899332,0.8192814104184294,-5.078765799999998,57.57859000000001
427,Aberfeldy,0.7030446,0.01,0.6146914657099913,0.8966075947143938,-3.866969,56.62175
428,Motherwell,0.7030446,0.01,0.6173526650690075,0.9443415261110841,-3.9810968,55.78321
429,Sligo,0.7565826802395829,0.01,0.6203057198587781,0.06128327024269141,-8.476088800000001,54.27661
430,Bantry,0.7167755342070719,0.01,0.6328499087084087,0.0990645711409691,-9.4539805,51.68035
431,Tralee,0.7105955959578015,0.01,0.6557710759353542,0.09059345475280987,-9.6999325,52.27131
432,Montrose,0.7030446,0.3753105783387545,0.6572627814703192,0.6967696831224031,-2.4661150000000003,56.70692
433,Dingle,0.7083637150903721,0.01,0.6590792888424921,0.0909308320578408,-10.264013499999999,52.14094
434,Killarney,0.7030446,0.01,0.668254034199406,0.09517786277992524,-9.5044265,52.05994000000001
435,Cork,0.7030446,0.01,0.6752080052722538,0.09923580924415233,-8.4756035,51.898509999999995
436,Mallow,0.7030446,0.01,0.6752080052722538,0.09923580924415233,-8.6539164,52.13898
437,Charleville,0.7030446,0.01,0.6864454236042768,0.10958962413236352,-8.681017599999999,52.36206
438,Abbeyfeale,0.7030446,0.01,0.6971496903400412,0.09263846827870792,-9.2970823,52.386179999999996
439,Ennistymon,0.7030446,0.01,0.7000272170470924,0.10565235166640947,-9.2934951,52.940369999999994
440,Adare,0.7030446,0.01,0.7002219945443651,0.10872769735244506,-8.7925892,52.56363
441,Limerick,0.7030446,0.01,0.7002219945443651,0.10872769735244506,-8.6267343,52.66384
442,Tipperary,0.7030446,0.01,0.7078921873398978,0.11096292822538616,-8.161851400000002,52.47379
443,Enniskillen,0.7059390532324866,0.01,0.7176605896432867,0.05371175584987392,-7.631533599999999,54.343819999999994
444,Fermanagh,0.7059390532324866,0.01,0.7176605896432867,0.05371175584987392,-7.6318728,54.343830000000004
445,Waterford,0.7060460862114154,0.01,0.7183933881742499,0.05308643225553655,-7.110070200000001,52.25932
446,Clare,0.7030446,0.01,0.7352795611372892,0.09983549669566408,-8.9811351,52.90453
447,Athlone,0.7030446,0.01,0.7467048154281184,0.1262351999962608,-7.9406898,53.42393000000001
448,Ballycastle,0.7030446,0.01,0.7474552268178773,0.06404807867378143,-9.3724643,54.279669999999996
449,Roscommon,0.7030446,0.01,0.7567316087305491,0.061994212888620386,-8.1890955,53.62759000000001
450,Laois,0.7030446,0.01,0.7622604923167011,0.044098343926418884,-7.3323006999999985,52.99429
451,Doon,0.7030446,0.01,0.7654042840067266,0.02911515153403633,-7.60964,54.185930000000006
452,Rosslare,0.7030446,0.01,0.7756307242438618,0.022164286742665323,-6.3414908,52.25131
453,Nenagh,0.7030446,0.01,0.7775987022016797,0.08265559846265291,-8.19834,52.8635
454,Loughrea,0.7030446,0.01,0.780115994143828,0.08269228222503873,-8.5660931,53.19891
455,Wexford,0.7030446,0.01,0.7873133334832153,0.022164286742665323,-6.4633381,52.33692
456,Offaly,0.7030446,0.01,0.8110588861068629,0.1194522448585901,-7.7122229,53.23569000000001
457,Galway,0.7030446,0.01,0.827337415441442,0.08683315665404145,-9.0567905,53.270669999999996
458,Leitrim,0.7030446,0.01,0.8499021812903987,0.017815915356538203,-8.0020132,54.12469
459,Mayo,0.7030446,0.01,0.8755741662461166,0.11825733149423515,-9.4289369,54.01526
460,Wicklow,0.7030446,0.01,0.9039940679891576,0.0764837324864247,-6.044589,52.980819999999994
461,Cavan,0.7030446,0.01,0.9040233882188,0.013053045782681003,-7.3633319,53.98972
462,Dublin,0.7030446,0.01,0.922064032273388,0.07396834531232857,-6.2603097000000005,53.34981
463,Kildare,0.7030446,0.01,0.9342645631663941,0.0756084210905006,-6.8194707999999995,53.21204
464,Drogheda,0.7030446,0.01,0.9368396667274138,0.07957529551143007,-6.3560985,53.717859999999995
465,Meath,0.7030446,0.01,0.9479101773210821,0.07207721946145829,-6.656416900000001,53.60555
466,Louth,0.7030446,0.01,0.967235420412205,0.07578008410212844,-6.4889423,53.925230000000006
467,Claremorris,0.7030446,0.01,0.9728315436769368,0.08745189416748715,-9.0017356,53.72388
468,Longford,0.7030446,0.01,0.9775711639789272,0.01058948,-7.7932573000000005,53.72763000000001
469,Mullingar,0.7030446,0.01,0.9936754296164778,0.0956990129872558,-7.3401868000000015,53.525819999999996
470,Westmeath,0.7030446,0.01,1.0,0.09624934024111713,-7.4653217000000005,53.534530000000004
