index,placename,longitude,latitude,himsel,himself,himsen,hissel,hisself
0,Dingle,-10.264013499999999,52.14094,0.01,0.38920444845641994,0.01,0.01,0.01
1,Tralee,-9.6999325,52.27131,0.01,0.49730472025875305,0.01,0.01,0.01
2,Killarney,-9.5044265,52.059940000000005,0.01,0.6200706681084361,0.01,0.01,0.01
3,Bantry,-9.4539805,51.68035,0.01,0.40453893807199226,0.01,0.01,0.01
4,Mayo,-9.4289369,54.01526,0.01,0.4840264980686211,0.01,0.01,0.01
5,Ballycastle,-9.3724643,54.279669999999996,0.01,0.1608863266408279,0.01,0.01,0.01
6,Abbeyfeale,-9.2970823,52.386179999999996,0.01,0.1608863266408279,0.01,0.01,0.01
7,Ennistymon,-9.2934951,52.940369999999994,0.01,0.1608863266408279,0.01,0.01,0.01
8,Galway,-9.0567905,53.270669999999996,0.01,0.70792063427643,0.01,0.01,0.01
9,Claremorris,-9.0017356,53.72388,0.01,0.5942484031543649,0.01,0.01,0.01
10,Clare,-8.9811351,52.90453,0.01,0.5885027188277989,0.01,0.01,0.01
11,Adare,-8.7925892,52.56363,0.01,0.3710943900676289,0.01,0.01,0.01
12,Charleville,-8.681017599999999,52.36206,0.01,0.1608863266408279,0.01,0.01,0.01
13,Mallow,-8.6539164,52.13898,0.01,0.45557673583379005,0.01,0.01,0.01
14,Limerick,-8.6267343,52.66384,0.01,0.6888711848539836,0.01,0.01,0.01
15,Loughrea,-8.5660931,53.19891,0.01,0.1608863266408279,0.01,0.01,0.01
16,Sligo,-8.476088800000001,54.27661,0.01,0.6067110229435454,0.01,0.01,0.01
17,Cork,-8.4756035,51.898509999999995,0.01,0.7604324812261803,0.01,0.01,0.01
18,Nenagh,-8.19834,52.8635,0.01,0.5232591661690345,0.01,0.01,0.01
19,Roscommon,-8.1890955,53.627590000000005,0.01,0.5366906103270075,0.01,0.01,0.01
20,Tipperary,-8.161851400000002,52.47379,0.01,0.6002015335679707,0.01,0.01,0.01
21,Donegal,-8.1096143,54.653830000000006,0.026190443948121686,0.6216077264945241,0.01,0.01,0.16188033764267878
22,Leitrim,-8.0020132,54.12469,0.01,0.5010034942290602,0.01,0.01,0.01
23,Athlone,-7.9406898,53.423930000000006,0.01,0.5116880477311826,0.01,0.01,0.01
24,Longford,-7.7932573000000005,53.727630000000005,0.01,0.529434138975465,0.01,0.01,0.01
25,Offaly,-7.7122229,53.235690000000005,0.01,0.5911957503418249,0.01,0.01,0.01
26,Fermanagh,-7.6318728,54.343830000000004,0.01,0.44324058598646576,0.01,0.01,0.1784997381822352
27,Enniskillen,-7.631533599999999,54.343819999999994,0.01,0.508229794262448,0.01,0.01,0.18032422435878745
28,Doon,-7.60964,54.185930000000006,0.01,0.3719340576009026,0.01,0.01,0.1750991789624282
29,Westmeath,-7.4653217000000005,53.534530000000004,0.01,0.5146677810910029,0.01,0.01,0.01
30,Strabane,-7.4633103,54.82739,0.03135830211208992,0.5141621877766788,0.01,0.01,0.1938223016713575
31,Balivanich,-7.3743509000000005,57.472269999999995,0.34617127840172157,0.14016473624464681,0.01,0.01,0.01
32,Cavan,-7.3633319,53.98972,0.01,0.5580220498927176,0.01,0.01,0.01
33,Mullingar,-7.340186800000001,53.525819999999996,0.01,0.5085649324242316,0.01,0.01,0.01
34,Laois,-7.332300699999999,52.9943,0.01,0.5775289536927178,0.01,0.01,0.16967231328158663
35,Omagh,-7.309959700000001,54.59771,0.01,0.5368542831134234,0.01,0.01,0.19154870431481216
36,Derry,-7.308574799999999,54.99661,0.09009193680426936,0.640236739426441,0.01,0.01,0.22273945137709855
37,Derry,-7.308574799999999,54.99661,0.09009193680426936,0.640236739426441,0.01,0.01,0.22273945137709855
38,Kilkenny,-7.2447879,52.65415,0.01,0.6185565234333118,0.01,0.01,0.1174106889857247
39,Tyrone,-7.131232000000001,54.491209999999995,0.01,0.4498991071321815,0.01,0.01,0.28580262318830274
40,Waterford,-7.110070200000001,52.25932,0.01,0.6496169485699594,0.01,0.01,0.15547031435446948
41,Western Isles,-7.0194034,57.759890000000006,0.35851117214103334,0.3628790338123093,0.01,0.01,0.01
42,Monaghan,-6.9683132,54.2492,0.01,0.541515072524927,0.01,0.01,0.20964837256478353
43,Carlow,-6.934135899999999,52.83651,0.01,0.5902796997158961,0.01,0.01,0.17720774239411302
44,Kildare,-6.8194707999999995,53.21204,0.01,0.6467646110397014,0.01,0.01,0.41956394643034645
45,Dungannon,-6.7669352,54.508269999999996,0.01,0.4577881044630716,0.01,0.01,0.2911076316424929
46,Cookstown,-6.7443895000000005,54.641819999999996,0.01,0.5133230515942406,0.01,0.01,0.30394349230158607
47,Coleraine,-6.6646103000000005,55.132580000000004,0.13656958007627593,0.5898481106578952,0.01,0.01,0.24117770006742204
48,Meath,-6.656416900000001,53.60555,0.01,0.6216637862625888,0.01,0.01,0.01
49,Armagh,-6.652792,54.350280000000005,0.01,0.5377888960730153,0.01,0.01,0.2758283021399227
50,Armagh,-6.652792,54.350280000000005,0.01,0.5377888960730153,0.01,0.01,0.2758283021399227
51,Magherafelt,-6.607980499999999,54.75536999999999,0.08543946270861619,0.5154056318927748,0.01,0.01,0.35206143282456065
52,Dunvegan,-6.581398200000001,57.4366,0.3460298867197324,0.09792901116589496,0.01,0.01,0.01
53,Louth,-6.4889423,53.925230000000006,0.01,0.6239414042933817,0.01,0.01,0.01
54,Wexford,-6.4633381,52.33692,0.01,0.634501017038786,0.01,0.01,0.12251268224652709
55,Craigavon,-6.4175653,54.442930000000004,0.01,0.5836236808070163,0.01,0.01,0.01
56,Stornoway,-6.384869200000001,58.209430000000005,0.4094050947965655,0.4423826111686336,0.01,0.01,0.01
57,Drogheda,-6.3560985,53.717859999999995,0.01,0.5430747705225943,0.01,0.01,0.01
58,Rosslare,-6.3414908,52.25131,0.01,0.1569461020576957,0.01,0.01,0.13386130432868093
59,Newry,-6.34023,54.1751,0.01,0.5833112529728762,0.01,0.01,0.01
60,Scilly Isles,-6.327496599999999,49.92773,0.01,0.4218366919205212,0.01,0.01,0.5118496034990214
61,Ballymena,-6.2802213,54.86529,0.11541894793030492,0.5528087699950331,0.01,0.01,0.01
62,Banbridge,-6.2704803,54.34873,0.01,0.5313687896506096,0.01,0.01,0.01
63,Dublin,-6.2603097000000005,53.34981,0.01,0.8596552854027175,0.01,0.01,0.10944372814629559
64,Antrim,-6.2072498,54.719530000000006,0.02476837790054649,0.5941019589394597,0.01,0.01,0.01
65,Antrim,-6.2072498,54.719530000000006,0.02476837790054649,0.5941019589394597,0.01,0.01,0.01
66,Portree,-6.1960231,57.41246999999999,0.3659274241020389,0.4436877498514739,0.01,0.01,0.01
67,Islay,-6.177067,55.73625,0.28050720272461466,0.3915835219390352,0.01,0.01,0.01
68,Wicklow,-6.044589,52.980819999999994,0.01,0.6038374868759405,0.01,0.01,0.6203958471823157
69,Kilkeel,-6.007004,54.06312,0.01,0.43062794321857856,0.01,0.01,0.01
70,Mull,-6.0008870000000005,56.4392,0.151640213666499,0.41770754422106793,0.01,0.01,0.01
71,Belfast,-5.93012,54.597280000000005,0.016019297306057237,0.7939746746497198,0.01,0.01,0.01
72,Broadford,-5.9096592,57.24139,0.14378867349913627,0.1347253012166347,0.01,0.01,0.01
73,Down,-5.7156921999999994,54.32875,0.01,0.6022873926618606,0.01,0.01,0.01
74,Kyle of Lochalsh,-5.7143293,57.28261,0.3536151599588451,0.09654917307363674,0.01,0.01,0.01
75,Campbeltown,-5.605373999999999,55.424119999999995,0.582934003114003,0.3569007724927405,0.01,0.01,0.01
76,Penzance,-5.537592,50.1188,0.01,0.5796625081983444,0.01,0.01,0.5245977369310891
77,Oban,-5.471047,56.41516,0.2741272312870896,0.48745159011103895,0.01,0.01,0.01
78,Lochgilphead,-5.4323449,56.03829,0.23620510898266592,0.3536587139967595,0.01,0.01,0.01
79,Helston,-5.274996,50.10159,0.01,0.48938261830678037,0.01,0.01,0.513641755475637
80,Redruth,-5.226666000000001,50.23302,0.01,0.5250422983805686,0.01,0.01,0.5171120787046591
81,Ullapool,-5.161313,57.895419999999994,0.36467783343809873,0.36260840591099924,0.01,0.01,0.01
82,Ballachulish,-5.133719999999999,56.673930000000006,0.12778668135614027,0.13763687503349858,0.01,0.01,0.01
83,Fort William,-5.1052179,56.81981999999999,0.15370542344228727,0.4983612222109727,0.01,0.01,0.01
84,Achnasheen,-5.078765799999999,57.578590000000005,0.34571565689155725,0.09798673226618719,0.01,0.01,0.01
85,Newquay,-5.0737190000000005,50.4155,0.01,0.571104914682956,0.01,0.01,0.5135280820308202
86,Falmouth,-5.066269999999999,50.152570000000004,0.01,0.5955546495236933,0.01,0.01,0.5145644639141376
87,Rothesay,-5.055793,55.83596,0.17328682459886854,0.4841099094658585,0.01,0.01,0.1071067208445916
88,Truro,-5.051041000000001,50.2632,0.01,0.7016390600816712,0.01,0.01,0.531292117491274
89,Milford Haven,-5.0426971,51.71431,0.01,0.48820263084211885,0.01,0.01,0.01
90,Stranraer,-5.024055000000001,54.903369999999995,0.34940376771618165,0.43518168575155114,0.01,0.01,0.01
91,Fishguard,-4.975989,51.99393,0.01,0.4179068574461291,0.01,0.01,0.01
92,Inchnadamph,-4.974295,58.15221,0.5771011419207795,0.055887999665413274,0.01,0.01,0.01
93,Haverfordwest,-4.971319,51.800470000000004,0.01,0.5183688403500585,0.01,0.01,0.01
94,Dunoon,-4.926214,55.95097,0.2416342060627924,0.44341658486742924,0.01,0.01,0.10667964512841883
95,Pembroke,-4.908637000000001,51.674040000000005,0.01,0.5951699169615569,0.01,0.01,0.01
96,Girvan,-4.8542179,55.240159999999996,0.731990790213637,0.3444004733403456,0.01,0.01,0.11906201478790215
97,Wadebridge,-4.836456,50.51665,0.01,0.5215139639198056,0.01,0.01,0.24467918618912293
98,Invergarry,-4.800261,57.07095,0.16263759454434648,0.13129606026872456,0.01,0.01,0.01
99,St Austell,-4.7834252,50.340379999999996,0.01,0.5438201424853762,0.01,0.01,0.3411106651152793
100,Greenock,-4.7719830000000005,55.956480000000006,0.24675699447825822,0.5782191481809281,0.01,0.01,0.21788264004074892
101,Helensburgh,-4.734014,56.00232,0.24457436584937228,0.4572160137059351,0.01,0.01,0.2159554150150462
102,Bodmin,-4.7188629,50.4715,0.01,0.5008414093401532,0.01,0.01,0.1684384586863633
103,Tenby,-4.703579,51.672740000000005,0.01,0.5183688403500585,0.01,0.01,0.01
104,Camelford,-4.682364,50.62206,0.01,0.4157519762861927,0.01,0.01,0.17330275477995621
105,Irvine,-4.6696364,55.61156999999999,0.7279587971037422,0.5164739522743966,0.01,0.01,0.10712941682803731
106,Cardigan,-4.660864,52.0837,0.01,0.46913256805554077,0.01,0.01,0.01
107,Holyhead,-4.633038,53.30944,0.06764112541989391,0.4813855574690799,0.01,0.01,0.01
108,Ayr,-4.629179,55.45856,0.7676748833170164,0.5325536178059987,0.01,0.01,0.12166451191803694
109,Dumbarton,-4.564554,55.94529,0.29202618667374375,0.5520019043756234,0.01,0.01,0.21878577373236288
110,Bude,-4.543678,50.826640000000005,0.04879281328331796,0.5063104878888179,0.01,0.01,0.15079158517626678
111,Isle of Man,-4.5126330999999995,54.27697,0.15998632582640396,0.612119881088582,0.01,0.01,0.565061899019594
112,Kilmarnock,-4.498792,55.61472,0.651623025473915,0.5135903430747811,0.01,0.01,0.1150746206197324
113,Newton Stewart,-4.483164,54.9603,0.601854663726985,0.3117690586680351,0.01,0.01,0.5812498677186282
114,Liskeard,-4.4647190000000005,50.45552,0.01,0.5220195389613053,0.01,0.01,0.18415058218932295
115,Altnaharra,-4.442655,58.28023,0.609676982810512,0.04996095405115795,0.01,0.01,0.01
116,Pwllheli,-4.417633900000001,52.888819999999996,0.01,0.46913256805554077,0.01,0.01,0.01
117,Lairg,-4.402414,58.022059999999996,0.6168806880380447,0.0486503812792504,0.01,0.01,0.01
118,Launceston,-4.360451599999999,50.636829999999996,0.01,0.5031789941426615,0.01,0.01,0.01
119,Carmarthen,-4.312131,51.857620000000004,0.01,0.585770008383118,0.01,0.01,0.01
120,Llangefni,-4.311401999999999,53.255790000000005,0.06548513225323398,0.5574956093919574,0.01,0.01,0.01
121,Caernarfon,-4.273911,53.13955,0.07184766679031825,0.5392994015201835,0.01,0.01,0.01
122,Cumnock,-4.265828900000001,55.45355,0.6213607201380323,0.44384476656437155,0.01,0.01,0.10379902664798961
123,Aberaeron,-4.2581619,52.24279,0.01,0.44314421075062116,0.01,0.01,0.16047494331170264
124,Alness,-4.256825,57.69595,0.48291380542080387,0.4256761961348982,0.01,0.01,0.01
125,Glasgow,-4.251806,55.86424,0.25256914944956466,0.8012614153739303,0.01,0.36632481134394657,0.36056969129013666
126,Dalwhinnie,-4.242783,56.9366,0.3742892586179297,0.09278758010614803,0.01,0.01,0.01
127,Inverness,-4.224721,57.47776999999999,0.5251502303438776,0.5726971671982998,0.01,0.01,0.01
128,Saltash,-4.21643,50.409209999999995,0.01,0.5073225411388235,0.01,0.01,0.01
129,Bideford,-4.206666,51.01668,0.050899826613440516,0.5304742220408737,0.01,0.01,0.1573031903998261
130,Invergordon,-4.1728819999999995,57.688109999999995,0.4821826925090115,0.4295735114653506,0.01,0.01,0.01
131,Llanelli,-4.160248,51.680890000000005,0.01,0.6231339024759327,0.01,0.01,0.01
132,Plymouth,-4.1426565,50.37546,0.01,0.7353860903111623,0.01,0.01,0.01
133,Tavistock,-4.141654,50.551120000000004,0.01,0.5445069378023698,0.01,0.01,0.01
134,Porthmadog,-4.1333839999999995,52.92784,0.01,0.5242332793290458,0.01,0.01,0.01
135,Bangor,-4.129263,53.22739,0.06606571714230944,0.6269005494381302,0.01,0.01,0.01
136,Tywyn,-4.087249,52.58701,0.01,0.385561571705918,0.01,0.01,0.17665177314007913
137,Aberystwyth,-4.08292,52.4153,0.01,0.6054274240370894,0.01,0.01,0.1809248783228911
138,Lampeter,-4.0785089999999995,52.1129,0.01,0.4673965560455293,0.01,0.01,0.1640942257751827
139,Barnstaple,-4.058338,51.07816,0.051336396602069005,0.5997677270656632,0.01,0.01,0.1586523865974899
140,Tain,-4.05523,57.8115,0.5948909787710474,0.3145102775171068,0.01,0.01,0.01
141,Okehampton,-4.004263,50.73831,0.026767138671114618,0.4590522550453936,0.01,0.01,0.08272240847725919
142,Llandeilo,-3.9914300000000003,51.88469,0.01,0.5413136032318737,0.01,0.01,0.01
143,Motherwell,-3.9810968,55.78321,0.22184292550437507,0.6473383546302314,0.1672499082488826,0.01,0.37825857983735106
144,Golspie,-3.976086,57.97341,0.6788258283934844,0.03738018454948854,0.01,0.01,0.01
145,Airdrie,-3.9625660000000003,55.86626999999999,0.2755518514619716,0.5983731779352865,0.18256085991911802,0.01,0.2064431972785627
146,Swansea,-3.9436459999999998,51.62144,0.01,0.7477746189641702,0.01,0.01,0.01
147,Stirling,-3.9369029,56.116519999999994,0.6038409450892877,0.5695391848338617,0.01,0.49655156636148357,0.01
148,Tregaron,-3.934385,52.22,0.01,0.46100176540833826,0.01,0.01,0.1819198701713984
149,Tregaron,-3.934385,52.22,0.01,0.46100176540833826,0.01,0.01,0.1819198701713984
150,Castle Douglas,-3.9314139999999997,54.940419999999996,0.12903585912841825,0.4192762854525912,0.01,0.8488719427860574,0.6836201273732838
151,Dolgellau,-3.8844,52.74215,0.01,0.40066342454177994,0.01,0.01,0.17335532837708476
152,Aberfeldy,-3.866969,56.62175,0.4628638200934608,0.429095815414006,0.01,0.01,0.01
153,Machynlleth,-3.853485,52.59027,0.01,0.4514778334895349,0.01,0.01,0.17689397953558797
154,Brora,-3.8525480000000005,58.012159999999994,0.7042911497875484,0.2544263080672942,0.01,0.01,0.01
155,Llandudno,-3.827609,53.324059999999996,0.06829558471818785,0.5805510372301129,0.01,0.01,0.01
156,Llandudno,-3.827609,53.324059999999996,0.06829558471818785,0.5805510372301129,0.01,0.01,0.01
157,Aviemore,-3.823812,57.19449,0.3080712918584199,0.4293979090016583,0.01,0.01,0.01
158,Dalbeattie,-3.8225269999999996,54.934219999999996,0.09387693571189192,0.35222596874394924,0.01,0.864606885907934,0.6962919350753165
159,Falkirk,-3.7839131,56.00188000000001,0.5548438013528618,0.5721458378936264,0.01,0.4562601464545677,0.24495928079649115
160,Kingsbridge,-3.777493,50.28395,0.01,0.518156870411269,0.01,0.01,0.01
161,Pitlochry,-3.729711,56.70436,0.4600409848823072,0.3485550932630043,0.01,0.01,0.01
162,Colwyn Bay,-3.72764,53.29318000000001,0.06695833425064485,0.5589471384803596,0.01,0.01,0.01
163,Totnes,-3.685797,50.43374,0.01,0.5283541282612481,0.01,0.01,0.01
164,Grantown-on-Spey,-3.609628,57.33041,0.5627639677886218,0.30089756967814935,0.01,0.01,0.01
165,Dumfries,-3.60512,55.070859999999996,0.09457972800820161,0.564340971783466,0.01,0.8710796244926955,0.701504589601038
166,Whitehaven,-3.589233,54.5497,0.15200863169232956,0.5105320135806047,0.01,1.0,0.8053277669072245
167,Dartmouth,-3.578807,50.35252,0.01,0.4799458653905455,0.01,0.01,0.01
168,Bridgend,-3.576945,51.504290000000005,0.01,0.6714344505100565,0.01,0.01,0.01
169,Paignton,-3.564235,50.43508,0.01,0.6240258330021528,0.01,0.01,0.01
170,Workington,-3.5427519999999997,54.64357,0.11185578196865555,0.5227291248683223,0.01,0.7358515442661001,0.5926016647081028
171,Llanidloes,-3.5401949999999998,52.447790000000005,0.01,0.4228583611502703,0.01,0.01,0.17828606481322506
172,Exeter,-3.533899,50.71841,0.01,0.757961709805944,0.01,0.01,0.01
173,Torquay,-3.525315,50.46192,0.01,0.6306439565506469,0.01,0.01,0.01
174,Thurso,-3.5220800000000003,58.59356999999999,0.7685233092109857,0.3553960411433028,0.01,0.01,0.01
175,Livingston,-3.518068,55.90071,0.20223615470901848,0.613240518550872,0.01,0.01,1.0
176,Rhyl,-3.4916339999999995,53.319140000000004,0.03512204329846024,0.5608552870388722,0.01,0.01,0.01
177,Tiverton,-3.491207,50.90205,0.01,0.5358906469153049,0.01,0.01,0.21933282775356136
178,Tiverton,-3.491207,50.90205,0.01,0.5358906469153049,0.01,0.01,0.21933282775356136
179,Minehead,-3.481152,51.20428,0.01,0.47319817444326406,0.01,0.01,0.3059336461045256
180,Dunfermline,-3.452151,56.071740000000005,0.398961346108448,0.57662736829283,0.01,0.01,0.5479860745448211
181,Perth,-3.4308381000000003,56.39499,0.23251057682818715,0.5060040558157833,0.01,0.01,0.2053032733897334
182,Prestatyn,-3.4076129999999996,53.33651,0.03133272606585848,0.5215551240160607,0.01,0.01,0.01
183,Builth Wells,-3.4045919999999996,52.15002,0.01,0.4853798379329491,0.01,0.01,0.5307585902553659
184,Braemar,-3.3979439,57.00646999999999,0.21361355714804656,0.12202119083749617,0.01,0.01,0.01
185,Brecon,-3.391463,51.94895,0.01,0.5177079966097747,0.01,0.01,0.837021464495767
186,Merthyr Tydfil,-3.381646,51.74873,0.01,0.6876326111404362,0.01,0.01,0.6884041742565862
187,Llandrindod Wells,-3.377742,52.2417,0.01,0.4535353151006415,0.01,0.01,0.49889071738620194
188,Corwen,-3.369242,52.98005,0.01,0.410452136224152,0.01,0.01,0.01
189,Cockermouth,-3.367985,54.66326,0.09517481775600829,0.45541958198278015,0.01,0.7304669702323972,0.5882653396233078
190,Lockerbie,-3.349008,55.122240000000005,0.09394885710262756,0.5336567099962596,0.01,0.8652693439772221,0.696825387438014
191,Blairgowrie,-3.3378318,56.58941,0.20484093987495275,0.44182459412258546,0.01,0.01,0.506439961691987
192,Elgin,-3.318485,57.64945,0.6562283254720944,0.519794623842185,0.01,0.01,0.01
193,Newtown,-3.313106,52.51211,0.01,0.41930970058701017,0.01,0.01,0.76853415754442
194,Ruthin,-3.3103108,53.114869999999996,0.01,0.5206559904792024,0.01,0.01,0.01
195,Ruthin,-3.3103108,53.114869999999996,0.01,0.5206559904792024,0.01,0.01,0.01
196,Sidmouth,-3.2375599999999998,50.67865,0.01,0.5208599772411218,0.01,0.01,0.01
197,Barrow-in-Furness,-3.2188939999999997,54.10896999999999,0.03992399821256042,0.6135342766495623,0.07273963863428298,0.01,0.01
198,Peebles,-3.1936419999999996,55.65306999999999,0.21010464642198826,0.46419843767560837,0.01,0.01,0.35417299924539397
199,Edinburgh,-3.1882669999999997,55.95325,0.14880075178070024,0.7951269267484262,0.01,0.01,0.45986073646282816
200,Cardiff,-3.17909,51.48158,0.01,0.8163319231922601,0.01,0.01,0.01
201,Llangollen,-3.1716599999999997,52.96921,0.01,0.46041933037041116,0.01,0.01,0.01
202,Kirkcaldy,-3.158137,56.11682,0.20775412852815014,0.6465714569958537,0.01,0.01,0.35312915740728895
203,Welshpool,-3.146407,52.66035,0.01,0.5087819183393265,0.01,0.01,0.354248888216935
204,Mold,-3.1419029999999997,53.1672,0.01,0.6150467104283198,0.01,0.01,0.01
205,Mold,-3.1419029999999997,53.1672,0.01,0.6150467104283198,0.01,0.01,0.01
206,Taunton,-3.106849,51.01534,0.01,0.632634706589879,0.01,0.01,0.3554247099296405
207,Wick,-3.093716,58.43894,0.9265280754365808,0.31325902753558654,0.01,0.01,0.01
208,John o' Groats,-3.0688997000000002,58.63734,0.8842787084903374,0.01,0.01,0.01,0.01
209,Dalkeith,-3.066606,55.893119999999996,0.14768982829698285,0.60133798873241,0.01,0.01,0.43817039458887136
210,Oswestry,-3.056412,52.85715,0.01,0.5728236456335138,0.01,0.01,0.2556306482199732
211,Blackpool,-3.0356748,53.81751,0.02101624321364458,0.716388527005248,0.057435898649552244,0.01,0.01
212,Birkenhead,-3.023009,53.389990000000004,0.01,0.7140999033384373,0.01,0.01,0.01
213,Cupar,-3.010137,56.32023,0.21544614769250237,0.45310245595765686,0.01,0.01,0.3329123783316935
214,Southport,-3.010113,53.64571,0.01,0.6662881757062102,0.01,0.01,0.01
215,Bridgwater,-3.003632,51.12789,0.01,0.6782398885158466,0.01,0.01,0.30323005493858196
216,Langholm,-2.998913,55.153059999999996,0.15591742274581624,0.35662278936334113,0.01,0.7180000316743012,0.38548354275974633
217,Newport,-2.997664,51.58415,0.03279632224226317,0.7065566499743265,0.01,0.01,0.01
218,Axminster,-2.9949369999999997,50.78273,0.01,0.5241625823939672,0.01,0.01,0.46858613008539307
219,Wrexham,-2.9924939999999998,53.043040000000005,0.01,0.6634412687902959,0.01,0.01,0.01
220,Liverpool,-2.9915726,53.40837,0.01,0.8439786906037423,0.01,0.01,0.01
221,Weston-super-Mare,-2.977255,51.347409999999996,0.01,0.6559092715911307,0.01,0.01,0.01
222,Dundee,-2.9707209999999997,56.462019999999995,0.12829411451825026,0.6858927536583993,0.01,0.01,0.3964860744437689
223,Kirkwall,-2.9622491,58.984669999999994,0.9318597577124188,0.32598018510619686,0.01,0.01,0.01
224,Ambleside,-2.961333,54.428740000000005,0.15233051556344218,0.5641716121102796,0.01,0.01,0.01
225,Orkney Islands,-2.9605206,58.980940000000004,0.9329336117806295,0.33317217110415526,0.01,0.01,0.01
226,Lyme Regis,-2.936639,50.725159999999995,0.01,0.5011810244322805,0.01,0.01,0.35693925048700614
227,Carlisle,-2.932931,54.892469999999996,0.06923238166545792,0.6665007172914265,0.01,0.7970381110373177,0.6418769045427357
228,Chester,-2.893075,53.19339,0.01,0.7231119796791072,0.01,0.01,0.01
229,Forfar,-2.889062,56.64356,0.14003085761776174,0.5158904665819707,0.01,0.01,0.4327578633659335
230,Morecambe,-2.864968,54.074169999999995,0.07855906456212014,0.5626212015518622,0.08587852201354593,0.01,0.01
231,Selkirk,-2.838524,55.55066,0.4690559684530141,0.45808882332526774,0.01,0.01,0.6212538530256214
232,Galashiels,-2.814449,55.62373,0.47742696524970113,0.4415311113152611,0.01,0.01,0.6323410546260002
233,Lancaster,-2.8007399,54.046569999999996,0.05321710261757887,0.6539335477985279,0.09695902849696941,0.01,0.01
234,St Andrews,-2.7967214,56.339780000000005,0.2129345070157306,0.5375960225655841,0.01,0.01,0.350966774113212
235,Hawick,-2.780914,55.42706,0.32182701792091295,0.4409670568114383,0.01,0.01,0.5967534868857725
236,Bridport,-2.758301,50.733579999999996,0.01,0.5142682477222446,0.01,0.01,0.2920643885301804
237,Shrewsbury,-2.7553267999999997,52.7073,0.01,0.7001578573622548,0.01,0.01,0.262494775684345
238,Penrith,-2.752708,54.6641,0.09902367369241585,0.6333662830221701,0.01,0.9120083465418594,0.24482187500986333
239,Kendal,-2.74629,54.32801,0.08102568600953132,0.6166233817125778,0.01,0.01,0.01
240,Street,-2.7429189999999997,51.12468,0.01,0.469583762663473,0.01,0.01,0.01
241,Glastonbury,-2.718454,51.14743,0.01,0.5153364201554977,0.01,0.01,0.01
242,Hereford,-2.715974,52.0564,0.01,0.663138066650124,0.01,0.01,0.01
243,Ludlow,-2.7139129,52.36775,0.01,0.5612797260608615,0.01,0.01,0.01
244,Preston,-2.70309,53.7632,0.027150657692232055,0.7547232070275998,0.01,0.01,0.01
245,Whitchurch,-2.682045,52.96872,0.01,0.5135378536295034,0.01,0.01,0.01
246,Wells,-2.6445979,51.20935,0.01,0.552245589457167,0.01,0.01,0.01
247,Yeovil,-2.633308,50.94206,0.01,0.6204280315862262,0.01,0.01,0.01
248,Wigan,-2.6325074,53.54506,0.01,0.7716523849104068,0.01,0.01,0.15954068018809006
249,Warrington,-2.5969501,53.39004,0.01,0.7870087238416058,0.01,0.01,0.01
250,Arbroath,-2.591543,56.55911,0.11389501975737472,0.5433924622613312,0.01,0.01,0.4693152778755028
251,Bristol,-2.58791,51.45451,0.01,0.8247024805037104,0.01,0.01,0.19294513425356166
252,Guernsey,-2.5852779999999997,49.46569,0.01,0.1608863266408279,0.01,0.01,0.01
253,Ross-on-Wye,-2.582446,51.91445,0.01,0.5960786954819887,0.01,0.01,0.01
254,Jedburgh,-2.5549369,55.47772,0.3508325515590891,0.37852353737253536,0.01,0.01,0.5421146010110175
255,Sedbergh,-2.5281740000000004,54.32363,0.08574661159454326,0.4553178652269823,0.01,0.01,0.01
256,Sedbergh,-2.5281740000000004,54.32363,0.08574661159454326,0.4553178652269823,0.01,0.01,0.01
257,Nantwich,-2.524102,53.067190000000004,0.01,0.5802665689109424,0.01,0.01,0.01
258,Banff,-2.524038,57.666509999999995,0.6846065254254983,0.35681439904132467,0.01,0.01,0.06560434358874946
259,Dunbar,-2.516737,56.00209,0.1956413967101053,0.5552684938561285,0.01,0.01,0.3900769386703763
260,Cinderford,-2.5009579,51.8253,0.01,0.5750628175000948,0.01,0.01,0.01
261,Banchory,-2.4909599,57.05386,0.3004646398346875,0.4728492629209738,0.01,0.01,0.06516279893030005
262,Blackburn,-2.487529,53.748580000000004,0.023142254303074896,0.6935406303125606,0.01,0.01,0.01
263,Market Drayton,-2.483485,52.90355,0.01,0.4700318225202939,0.01,0.01,0.01
264,Telford,-2.4672611,52.67759,0.01,0.6638896072132139,0.01,0.01,0.23659806581164938
265,Montrose,-2.4661150000000003,56.70692,0.11047279618502022,0.5168315374087481,0.01,0.01,0.45521368274513996
266,Turriff,-2.4623,57.53893000000001,0.6714504435464893,0.37265835251873886,0.01,0.01,0.06434362484708765
267,Weymouth,-2.457621,50.61443,0.01,0.604931996203039,0.01,0.01,0.01
268,Crewe,-2.4438209,53.10041,0.01,0.6536559414678854,0.01,0.01,0.01
269,Fortuneswell,-2.4422189999999997,50.55919,0.01,0.44397234843516387,0.01,0.01,0.01
270,Dorchester,-2.4411810000000003,50.71116,0.01,0.6720914915624386,0.01,0.01,0.01
271,Alston,-2.438685,54.812169999999995,0.11283926980755367,0.36490735785529266,0.01,0.01,0.23248248547846143
272,Kelso,-2.432207,55.600030000000004,0.3285955087028587,0.43132485333820686,0.01,0.01,0.5077533955833244
273,Wincanton,-2.416007,51.055690000000006,0.01,0.48820263084211885,0.01,0.01,0.01
274,Clitheroe,-2.3930830000000003,53.8711,0.01,0.5877752886520123,0.01,0.01,0.01
275,Sark,-2.3666256000000003,49.43007,0.01,0.1608863266408279,0.01,0.01,0.01
276,Bath,-2.3590167,51.38106,0.01,0.7221213697155834,0.01,0.01,0.17317717254854825
277,Kidderminster,-2.2496839,52.3886,0.01,0.611494017608386,0.01,0.01,0.2013182028233322
278,Manchester,-2.2426305,53.48076,0.01139103637239056,0.8971489728069151,0.03113089713562918,0.01,0.07920761984571775
279,Burnley,-2.2405035,53.78929,0.01,0.6743808443555765,0.01,0.01,0.01
280,Gloucester,-2.238156,51.86424,0.01,0.7150594321512546,0.18547090712364508,0.01,0.20973393248544261
281,Newcastle-under-Lyme,-2.2273002,53.01321,0.01,0.6222730970898313,0.01,0.01,0.01
282,Worcester,-2.221575,52.19364,0.01,0.7177869144030496,0.19408659825773492,0.01,0.21947671538684924
283,Trowbridge,-2.208853,51.31966,0.01,0.7161998282121537,0.01,0.01,0.01
284,Shaftesbury,-2.198083,51.0046,0.01,0.517516779977135,0.01,0.01,0.01
285,Alderney,-2.1973557,49.715,0.01,0.1608863266408279,0.01,0.01,0.01
286,Stoke-on-Trent,-2.179404,53.002669999999995,0.01,0.7240946573377617,0.01,0.01,0.01
287,Colne,-2.176991,53.85564,0.01,0.5749739737167088,0.01,0.01,0.01
288,Blandford Forum,-2.165353,50.85691,0.01,0.4810845662421521,0.01,0.01,0.01
289,Rochdale,-2.1561,53.60971,0.01,0.7229287604929229,0.06026950718553043,0.01,0.0681538735482328
290,Jersey,-2.13125,49.21444,0.01,0.1608863266408279,0.01,0.01,0.01
291,Wolverhampton,-2.12882,52.586969999999994,0.01,0.7050661973361375,0.01,0.01,0.01
292,Stafford,-2.12066,52.80669,0.01,0.6966603589472421,0.01,0.01,0.2885247602504181
293,Macclesfield,-2.119287,53.25866,0.01,0.6808701466058222,0.1003900378208057,0.01,0.05676144464366113
294,Hexham,-2.1121439,54.97266,0.10697873003552424,0.6248235986255232,0.01,0.01,0.01
295,Aberdeen,-2.094278,57.149719999999995,0.5673676693738411,0.6434657392013435,0.01,0.01,0.06876153486890631
296,Dudley,-2.081112,52.51226,0.01,0.6935771435942051,0.01,0.01,0.01
297,Cheltenham,-2.0782533,51.899390000000004,0.01,0.700017352517293,0.15690117557852493,0.01,0.17742675159147722
298,Bromsgrove,-2.061906,52.33559,0.01,0.6409025569431261,0.01,0.01,0.2953813090989662
299,Skipton,-2.0162787,53.96285,0.01,0.5747067176363982,0.01,0.01,0.01
300,Fraserburgh,-2.007631,57.69335,0.6006973288001413,0.39779483392020837,0.01,0.01,0.06689812258199553
301,Berwick,-2.005395,55.77024,0.31355911410563125,0.47017621158491407,0.01,0.01,0.5285659782580587
302,Poole,-1.987248,50.71505,0.01,0.6692957424335977,0.01,0.01,0.01
303,Walsall,-1.9829189999999999,52.586209999999994,0.01,0.6980700111905804,0.01,0.01,0.01
304,Cirencester,-1.968243,51.71849,0.01,0.6799549719102516,0.01,0.01,0.17906822841739348
305,Evesham,-1.9467700000000001,52.09215,0.01,0.5769567053325522,0.16689559279656477,0.01,0.1887286234513172
306,Buxton,-1.91483,53.259080000000004,0.01,0.6257796451648456,0.01,0.01,0.06313203960031376
307,Keighley,-1.9123580000000002,53.8678,0.01,0.6241846697136576,0.3033512167096979,0.01,0.01
308,Birmingham,-1.8904009999999998,52.48624,0.01,0.8632957260893874,0.01,0.01,0.0783836873089088
309,Bournemouth,-1.880769,50.719159999999995,0.01,0.7283555964785167,0.01,0.01,0.01
310,Halifax,-1.8575400000000002,53.727019999999996,0.01,0.6091399560308133,0.4564291293796318,0.01,0.19355194110682594
311,Salisbury,-1.794472,51.06878,0.01,0.6369163644395874,0.01,0.01,0.40138364928186476
312,Ringwood,-1.7888169999999999,50.84495,0.01,0.603795196249263,0.01,0.01,0.01
313,Huddersfield,-1.7850351000000002,53.645790000000005,0.01,0.6963398446535646,0.5475758626296813,0.01,0.3096044570668688
314,Peterhead,-1.784066,57.50812,0.5983757746681999,0.4482785392977498,0.01,0.01,0.06849067274403337
315,Swindon,-1.7797176,51.55577,0.011763259531651341,0.691837739581904,0.01,0.01,0.2908297892429132
316,Bradford,-1.759398,53.79598000000001,0.01,0.7318604420795439,0.471140484805365,0.01,0.01
317,Ashbourne,-1.7321790000000001,53.016630000000006,0.01,0.6536207331204095,0.549678435262343,0.01,0.17759615490247344
318,Marlborough,-1.7270619999999999,51.42007,0.01136229362537786,0.5699980245038965,0.01,0.01,0.01
319,Stratford-upon-Avon,-1.7082979999999999,52.19173,0.021352158246883718,0.6361043718914906,0.01,0.01,0.01
320,Alnwick,-1.7062990000000002,55.41274,0.08095900594906377,0.5250788210381185,0.01,0.01,0.01
321,Otley,-1.691786,53.90583,0.01,0.5525302756275339,0.3276212376699019,0.01,0.01
322,Bishop Auckland,-1.6787880000000002,54.663819999999994,0.056370463942476044,0.5862081230201777,0.01,0.01,0.01
323,Burton upon Trent,-1.6371358999999999,52.81403,0.01,0.6553010932495962,0.231914555140183,0.01,0.01
324,Newcastle,-1.61778,54.97825,0.028898367172364995,0.8133850773053066,0.01,0.01,0.08930884798112754
325,Durham,-1.5848520000000001,54.77525,0.23481648845654593,0.6616953651660132,0.11667940226484406,0.01,0.01
326,Ashington,-1.5659829,55.18298000000001,0.07582684057560146,0.5640480256338741,0.01,0.01,0.01
327,Darlington,-1.559458,54.52361,0.01,0.652978368292357,0.01,0.01,0.01
328,Leeds,-1.5490774,53.80076,0.01,0.8132781316192126,0.31861012689106394,0.01,0.20016123097136995
329,Harrogate,-1.5418120000000002,53.99211999999999,0.01,0.7033766889573079,0.3020574630206947,0.01,0.01
330,Leamington Spa,-1.5200789,52.28519,0.012770930724914222,0.7001452493303169,0.01,0.01,0.15787151212645176
331,Coventry,-1.519693,52.40682,0.01350325075997195,0.7389650010200757,0.01,0.01,0.1669242863704451
332,Blyth,-1.510277,55.12696,0.10183534866697638,0.5734955990032932,0.01,0.01,0.01
333,Wakefield,-1.505924,53.6833,0.01,0.6576893203409009,0.9616402364519989,0.01,0.24165345436912597
334,Andover,-1.4919233,51.2112,0.01,0.6068307088076627,0.01,0.01,0.2191955673075994
335,Witney,-1.4850543999999999,51.785940000000004,0.01,0.6110394583181072,0.01,0.01,0.17034422315212014
336,Barnsley,-1.479726,53.55263000000001,0.01,0.6540341563011532,0.9577367424343143,0.01,0.1805043927592228
337,Derby,-1.4746186000000001,52.92253,0.01,0.7195037944427143,0.4297099749360417,0.01,0.1943695862091635
338,Sheffield,-1.470085,53.381130000000006,0.01,0.7750575918664201,0.9289446536832007,0.01,0.25211228324954743
339,Nuneaton,-1.465382,52.52049,0.01,0.6883140553952535,0.01,0.01,0.18782186944424234
340,Northallerton,-1.429959,54.337959999999995,0.01,0.5482237743472355,0.01,0.01,0.01
341,South Shields,-1.427406,54.99941999999999,0.0710797614804787,0.6603711530848393,0.02988553254678095,0.01,0.0675902036188428
342,Chesterfield,-1.421629,53.23505,0.01,0.6524088351885394,0.8365408268192237,0.01,0.15766263264449348
343,Southampton,-1.4043508999999998,50.9097,0.01,0.7964253261542289,0.01,0.01,0.01
344,Wetherby,-1.384816,53.92706,0.01,0.5285229188557585,0.29494107649339724,0.01,0.1852915645188876
345,Sunderland,-1.383801,54.90687,0.14661162666174443,0.6806003545740884,0.061642951363583276,0.01,0.01
346,Rotherham,-1.3635008999999998,53.4326,0.01,0.6546896135890922,1.0,0.01,0.2512929919132196
347,Castleford,-1.345968,53.72346999999999,0.01,0.6132011651256943,0.952480492487204,0.01,0.01
348,Thirsk,-1.341377,54.23385,0.01,0.5088726409659755,0.3105582038451174,0.01,0.01
349,Banbury,-1.339775,52.0629,0.01,0.624864237305691,0.01,0.01,0.01
350,Stockton,-1.3289821000000002,54.57046,0.0385672553654365,0.6501316323885625,0.01,0.01,0.01
351,Newbury,-1.3231138999999998,51.40141,0.01,0.6863298459191362,0.01,0.01,0.01
352,Isle of Wight,-1.304734,50.69385,0.01,0.6680699320702755,0.01,0.01,0.01
353,Isle of Wight,-1.304734,50.69385,0.01,0.6680699320702755,0.01,0.01,0.01
354,Abingdon,-1.2879528999999998,51.67078,0.01,0.6283291687484744,0.01,0.01,0.17507774870951776
355,Shetland Islands,-1.2659409,60.52965,1.0,0.200624782019527,0.01,0.01,0.01
356,Rugby,-1.265032,52.37088,0.01,0.6675692732245564,0.01,0.01,0.181906271750495
357,Oxford,-1.2577263,51.75202,0.01,0.7806218421189114,0.01,0.01,0.01
358,Middlesbrough,-1.234956,54.57423000000001,0.03832326116453856,0.7085377119070837,0.01,0.01,0.01
359,Hartlepool,-1.212926,54.69174,0.07151935352847234,0.6297355483640488,0.01,0.01,0.01
360,Loughborough,-1.206166,52.7721,0.01,0.6993178385356064,0.21272349947138305,0.01,0.01
361,Mansfield,-1.198674,53.1472,0.01,0.6407811184686193,0.41404800412418635,0.01,0.18728524779787523
362,Nottingham,-1.1581086,52.95478000000001,0.01,0.8036297719283075,0.24214153322528972,0.01,0.01
363,Bicester,-1.1535898999999998,51.8996,0.01,0.573444909453715,0.01,0.01,0.01
364,Leicester,-1.1397591999999999,52.636880000000005,0.01,0.7650345789853947,0.20172388967320914,0.01,0.01
365,Doncaster,-1.128462,53.522819999999996,0.01,0.6704274338404187,0.8991189061152516,0.01,0.22594228673388683
366,Worksop,-1.122745,53.3093,0.01,0.5729678880062509,0.2708986490589566,0.01,0.6126744286288832
367,Basingstoke,-1.0923964,51.26654,0.01,0.6612571005158954,0.01,0.01,0.09074902753347747
368,Portsmouth,-1.0879769,50.81977,0.01,0.7582727331987917,0.01,0.01,0.01
369,York,-1.0872979,53.95997,0.014693068111330811,0.75122902465681,0.01,0.01,0.01
370,Selby,-1.067189,53.783519999999996,0.012766002749677369,0.5636525411513684,0.34888575182481507,0.01,0.01
371,Helmsley,-1.0562636,54.24651,0.016666953530550543,0.3812590060040112,0.01,0.01,0.01
372,Towcester,-0.9896879999999999,52.13511,0.01,0.585163898079069,0.01,0.01,0.01
373,Reading,-0.9781303,51.45426,0.01,0.7453874414215499,0.01,0.01,0.1013892772024953
374,Retford,-0.9455030000000001,53.32136,0.01,0.5001429373681969,0.7541775366085376,0.01,0.4264189543205373
375,Petersfield,-0.93899,51.00759,0.01,0.5645915203736368,0.01,0.01,0.01
376,Northampton,-0.9026559999999999,52.24048,0.01,0.7401961553650663,0.01,0.01,0.01
377,Melton Mowbray,-0.887126,52.7664,0.01,0.5755048873427407,0.01,0.01,0.16733809149100726
378,Aylesbury,-0.8084,51.81561,0.01,0.6928928068141416,0.01,0.01,0.01
379,Newark-on-Trent,-0.80657,53.070040000000006,0.01,0.6445104117655803,0.5405510150039037,0.01,0.01
380,Malton,-0.7978970000000001,54.13684,0.013327654985491174,0.5269911101479778,0.072847073111477,0.01,0.16475361357875057
381,Chichester,-0.774936,50.83761,0.01,0.6287923490222104,0.01,0.01,0.07325954246567477
382,Gainsborough,-0.774465,53.400580000000005,0.01,0.5074933033151289,0.573812976323476,0.01,0.1622195709537545
383,Milton Keynes,-0.7594171,52.040620000000004,0.01,0.7327424375153763,0.01,0.01,0.01
384,Aldershot,-0.7557509,51.24837,0.01,0.6953300346214085,0.01,0.01,0.01
385,High Wycombe,-0.748229,51.628609999999995,0.01,0.6724988715959267,0.01,0.01,0.01
386,Midhurst,-0.737274,50.9869,0.01,0.55255930098388,0.01,0.01,0.14211921704207553
387,Kettering,-0.7302489999999999,52.39632,0.01,0.6439763817541808,0.01,0.01,0.01
388,Wellingborough,-0.693964,52.30242,0.01,0.6126848367249956,0.01,0.01,0.01
389,Corby,-0.6842333,52.4923,0.01,0.6315160243323648,0.01,0.01,0.01
390,Bognor Regis,-0.673061,50.783,0.01,0.613651015650788,0.01,0.01,0.07027663226085511
391,Scunthorpe,-0.654413,53.58865,0.01,0.608684658969087,0.9434431755465504,0.01,0.01
392,Grantham,-0.643582,52.912519999999994,0.01,0.6058384298552071,0.01,0.01,0.1774576567214336
393,Whitby,-0.613347,54.48633,0.04298792580404144,0.5336150275535209,0.07832196586216078,0.01,0.35427168898752787
394,Slough,-0.5950406,51.51054,0.01,0.704791458493442,0.01,0.01,0.01
395,Guildford,-0.570409,51.23622,0.01,0.6907966604660564,0.01,0.01,0.01
396,Woking,-0.5600349,51.31677,0.01,0.7446089275057332,0.01,0.01,0.01
397,Lincoln,-0.540579,53.23069,0.01,0.6990999795360961,0.632805239937562,0.01,0.01
398,Bedford,-0.46677820000000003,52.13864,0.05972148780965295,0.6859469671685003,0.01,0.01,0.01
399,Heathrow,-0.4542955,51.47002,0.01,0.7686869557392664,0.01,0.01,0.01
400,Driffield,-0.443377,54.006,0.01,0.4969743688723645,0.127357756966364,0.01,0.2160277610272883
401,Beverley,-0.435093,53.84196,0.01,0.6380422034869481,0.07307592930091773,0.01,0.08263561256047651
402,Luton,-0.4200255,51.87867,0.01,0.7146735553395994,0.01,0.01,0.01
403,Scarborough,-0.399752,54.28311,0.01,0.606351995441221,0.15074212573922205,0.01,0.6818479364297347
404,Worthing,-0.372882,50.81787,0.01,0.6977601146810783,0.01,0.01,0.051527644164168045
405,Dorking,-0.332378,51.2322,0.032003247568956256,0.6753107617087826,0.01,0.01,0.01
406,Hull,-0.3274198,53.767619999999994,0.01,0.7436086840849078,0.20000462068440072,0.01,0.0753896490883822
407,Horsham,-0.325858,51.06288,0.01,0.6128744954218873,0.01,0.01,0.13692537720165326
408,Biggleswade,-0.26421999999999995,52.086940000000006,0.05359840310473707,0.5568908659894447,0.01,0.01,0.01
409,Peterborough,-0.2405299,52.5695,0.01,0.7127460178244186,0.01,0.01,0.01
410,Welwyn Garden City,-0.208661,51.80317,0.01,0.7813713588176577,0.01,0.01,0.01
411,Bridlington,-0.198802,54.08535,0.01,0.5439794095724609,0.1304621543278116,0.01,0.221293525966205
412,Stevenage,-0.19661199999999998,51.90376,0.01,0.676076491764602,0.01,0.01,0.01
413,Crawley,-0.18722750000000002,51.109140000000004,0.01,0.6673278406342537,0.01,0.01,0.01
414,Huntingdon,-0.182552,52.33146,0.01,0.576032234452306,0.01,0.01,0.01
415,Hove,-0.168749,50.82793,0.01,0.6391893598337276,0.01,0.01,0.01
416,Spalding,-0.1537024,52.7901,0.01,0.592860904191107,0.01,0.01,0.10712369151016439
417,Brighton,-0.137163,50.82253,0.01,0.7948707120909136,0.01,0.01,0.01
418,London,-0.12775830000000002,51.50735,0.01,1.0,0.01,0.01,0.0785545589562044
419,Grimsby,-0.08078400000000001,53.56746999999999,0.01,0.6538299512549073,0.198620856265107,0.01,0.07486804607103072
420,Boston,-0.026576999999999996,52.97894,0.01,0.659457162763576,0.01,0.01,0.17531227292689844
421,Royston,-0.024066,52.048140000000004,0.01,0.5334157587775895,0.01,0.01,0.01
422,Louth_Lincs,-0.007711,53.36596,0.01,0.5403078363698426,0.4545244470642246,0.01,0.01
423,Lewes,0.00878,50.873870000000004,0.01,0.6196212258339696,0.01,0.01,0.01
424,Chatteris,0.054012,52.4561,0.01,0.469583762663473,0.01,0.01,0.01
425,Uckfield,0.095913,50.966409999999996,0.01,0.6325994454830896,0.01,0.01,0.01
426,Cambridge,0.12181700000000001,52.20534,0.01,0.7814994746885452,0.01,0.01,0.01
427,Bishop's Stortford,0.15365020000000001,51.87216,0.01,0.6519350182781303,0.01,0.01,0.01
428,Wisbech,0.158797,52.66631999999999,0.01,0.5288963736110588,0.01,0.01,0.01
429,Sevenoaks,0.190898,51.27241,0.01,0.6988814931151954,0.01,0.01,0.01
430,Tunbridge Wells,0.26369499999999996,51.13238,0.01,0.671496324486939,0.01,0.01,0.01
431,Eastbourne,0.29047199999999995,50.768029999999996,0.01,0.6476120743099899,0.01,0.01,0.10797648281445178
432,Brentwood,0.30717490000000003,51.620470000000005,0.01,0.7963047827905972,0.01,0.01,0.26312386483225936
433,Skegness,0.337881,53.1464,0.01,0.5405907274940405,0.01,0.01,0.11856714800917448
434,Downham Market,0.385472,52.606609999999996,0.01,0.47417690810842317,0.01,0.01,0.31003955668265215
435,King's Lynn,0.4022963,52.75168000000001,0.01,0.6021475849111151,0.01,0.01,0.2905841779441932
436,Bexhill,0.4662071,50.849909999999994,0.01,0.5518823014031767,0.01,0.01,0.2319229643508818
437,Chelmsford,0.4685497,51.73559,0.01,0.6461492622952622,0.01,0.01,0.23165019439244627
438,Mildenhall,0.5156095,52.347570000000005,0.01,0.5977338193291118,0.01,0.01,0.01
439,Medway,0.5417860999999999,51.404740000000004,0.01,0.6434752335836338,0.01,0.01,0.01
440,Braintree,0.5509269,51.88009,0.020169238723452887,0.6015996263141141,0.01,0.01,0.01
441,Gillingham,0.551438,51.38632,0.01,0.7635450849468471,0.01,0.01,0.01
442,Hastings,0.573453,50.85426,0.01,0.6263043371039279,0.01,0.01,0.22138728490890905
443,Maldon,0.6714479999999999,51.731809999999996,0.018580403616630076,0.6105448411352451,0.01,0.01,0.01
444,Southend,0.7077123000000001,51.54593,0.01,0.6906432435002156,0.01,0.01,0.21436774263638397
445,Bury St Edmunds,0.7104931999999999,52.24292,0.01,0.6999528449912744,0.01,0.01,0.01
446,Thetford,0.751657,52.412859999999995,0.01,0.5434629497437256,0.01,0.01,0.16172528147389031
447,Ashford,0.8750190000000001,51.14647,0.01,0.6209604755262931,0.01,0.01,0.01
448,Faversham,0.889358,51.31599,0.01,0.6060495059381212,0.01,0.01,0.01
449,Colchester,0.891874,51.89593,0.01,0.6944113045300071,0.01,0.01,0.21055119305081815
450,New Romney,0.939473,50.98512,0.01,0.4967164565407936,0.01,0.01,0.01
451,Canterbury,1.0789089,51.280229999999996,0.01,0.6867082528726077,0.01,0.01,0.01
452,Ipswich,1.14822,52.056740000000005,0.01,0.7024092822961773,0.01,0.01,0.1811377359632033
453,Clacton,1.153035,51.78953,0.01,0.551155902258384,0.01,0.01,0.20173135114465554
454,Folkestone,1.169456,51.0814,0.01,0.6107531066266348,0.01,0.01,0.01
455,Sheringham,1.2109589,52.944419999999994,0.01,0.45161840152769805,0.01,0.01,0.3165178005473508
456,Harwich,1.260297,51.93473,0.01,0.4916139974904871,0.01,0.01,0.17334243438319574
457,Norwich,1.297355,52.63089,0.01,0.7553215190496692,0.01,0.01,0.38536003868549135
458,Cromer,1.301866,52.93145,0.01,0.5281699187337485,0.01,0.01,0.36938924072102614
459,Cromer,1.301866,52.93145,0.01,0.5281699187337485,0.01,0.01,0.36938924072102614
460,Dover,1.3134027,51.12788,0.01,0.5833112529728762,0.01,0.01,0.01
461,Felixstowe,1.3512549999999999,51.961729999999996,0.01,0.5571476405741785,0.01,0.01,0.17730436627823867
462,Margate,1.3868339,51.38965,0.01,0.6111645171477046,0.01,0.01,0.01
463,Ramsgate,1.4198950000000001,51.33555,0.01,0.6075286858231633,0.01,0.01,0.01
464,Great Yarmouth,1.728047,52.59823000000001,0.01,0.6052330136707966,0.01,0.01,0.25144123709600497
465,Lowestoft,1.7534490000000003,52.48114,0.01,0.61845262619357,0.01,0.01,0.2529079822927154
466,Swaffham,0.687481,52.64747,0.01,0.47050505397132236,0.01,0.01,0.3336937905758097
467,Dereham,0.9378270000000001,52.681619999999995,0.01,0.6795108657397656,0.01,0.01,0.3292931577022337
468,Ely,0.262363,52.39954,0.01,0.5748850093647547,0.01,0.01,0.01
469,March,0.088622,52.551719999999996,0.01,0.5121554636619843,0.01,0.01,0.01
470,St Neots,-0.26510300000000003,52.23008,0.06732577816718867,0.540372904751602,0.01,0.01,0.01
471,Banham,1.0402849,52.45125,0.01,0.5594490424090387,0.01,0.01,0.2784181880701926
472,Holt,1.086747,52.90936,0.01,0.5294784169003769,0.01,0.01,0.3196868605668529
473,Hunstanton,0.49103199999999997,52.93891,0.01,0.41916838212628027,0.01,0.01,0.3611156052693637
474,Horncastle,-0.11245,53.20731,0.01,0.4774477457257017,0.39109765810596914,0.01,0.08845210191478654
475,Market Weighton,-0.6677465,53.86484,0.01,0.4811409301247954,0.06997557366167555,0.01,0.07912967305542956
476,Hawes,-2.1968695,54.303830000000005,0.09212391563633297,0.14412533429691607,0.01,0.01,0.01
477,Reeth,-1.9428115000000001,54.38946,0.02924494142324249,0.5232142919390448,0.01,0.01,0.01
478,Aysgarth,-1.9967433999999997,54.29159,0.01,0.37708855208079245,0.01,0.01,0.01
479,Stanhope,-2.011302,54.74946,0.10669715799721793,0.5972571325655868,0.01,0.01,0.01
480,Keswick,-3.134706,54.60128,0.1248758145953957,0.4476720128931776,0.01,0.8215047683346999,0.44105372165914386
481,Oxenholme,-2.7243327999999996,54.30134,0.08138263652150314,0.4124370519822237,0.01,0.01,0.01
