,placename,himsel,himself,himsen,hissel,hisself,longitude,latitude
0,Dingle,0.01,1.0,0.01,0.01,0.01,-10.2640135,52.14094
1,Tralee,0.01,1.0,0.01,0.01,0.01,-9.6999325,52.27131
2,Killarney,0.01,1.0,0.01,0.01,0.01,-9.5044265,52.05994000000001
3,Bantry,0.01,1.0,0.01,0.01,0.01,-9.4539805,51.68035
4,Mayo,0.01,1.0,0.01,0.01,0.01,-9.4289369,54.01526
5,Ballycastle,0.01,1.0,0.01,0.01,0.01,-9.3724643,54.27967
6,Abbeyfeale,0.01,1.0,0.01,0.01,0.01,-9.2970823,52.38618
7,Ennistymon,0.01,1.0,0.01,0.01,0.01,-9.2934951,52.94037
8,Galway,0.01,1.0,0.01,0.01,0.01,-9.0567905,53.27067
9,Claremorris,0.01,1.0,0.01,0.01,0.01,-9.0017356,53.72388
10,Clare,0.01,1.0,0.01,0.01,0.01,-8.9811351,52.90453
11,Adare,0.01,1.0,0.01,0.01,0.01,-8.7925892,52.56363
12,Charleville,0.01,1.0,0.01,0.01,0.01,-8.681017599999999,52.36206
13,Mallow,0.01,1.0,0.01,0.01,0.01,-8.6539164,52.13898
14,Limerick,0.01,1.0,0.01,0.01,0.01,-8.6267343,52.66384
15,Loughrea,0.01,1.0,0.01,0.01,0.01,-8.5660931,53.19891
16,Sligo,0.01,1.0,0.01,0.01,0.01,-8.476088800000001,54.27661
17,Cork,0.01,1.0,0.01,0.01,0.01,-8.4756035,51.89851
18,Nenagh,0.01,1.0,0.01,0.01,0.01,-8.19834,52.8635
19,Roscommon,0.01,1.0,0.01,0.01,0.01,-8.1890955,53.62759000000001
20,Tipperary,0.01,1.0,0.01,0.01,0.01,-8.161851400000002,52.47379
21,Donegal,0.02519593316925718,0.9496064463874038,0.01,0.01,0.16307557608406706,-8.1096143,54.653830000000006
22,Leitrim,0.01,1.0,0.01,0.01,0.01,-8.0020132,54.12469
23,Athlone,0.01,1.0,0.01,0.01,0.01,-7.9406898,53.42393000000001
24,Longford,0.01,1.0,0.01,0.01,0.01,-7.7932573,53.72763000000001
25,Offaly,0.01,1.0,0.01,0.01,0.01,-7.7122229,53.23569000000001
26,Fermanagh,0.01,0.9714197697521016,0.01,0.01,0.18497874939719727,-7.6318728,54.34383
27,Enniskillen,0.01,0.9714197697521016,0.01,0.01,0.18497874939719727,-7.631533599999999,54.34382
28,Doon,0.01,0.9716447564259686,0.01,0.01,0.18351401098838324,-7.60964,54.185930000000006
29,Westmeath,0.01,1.0,0.01,0.01,0.01,-7.4653217,53.53453
30,Strabane,0.030662020926908437,0.9386755553709568,0.01,0.01,0.19845370651940086,-7.4633103,54.82739
31,Balivanich,0.3563229186026914,0.643676489930982,0.01,0.01,0.01,-7.3743509,57.47227
32,Cavan,0.01,1.0,0.01,0.01,0.01,-7.3633319,53.98972
33,Mullingar,0.01,1.0,0.01,0.01,0.01,-7.3401868000000015,53.52582
34,Laois,0.01,0.9733927298152356,0.01,0.01,0.17220394628512886,-7.3323006999999985,52.9943
35,Omagh,0.01,0.9697756363661528,0.01,0.01,0.19561189177074734,-7.309959700000001,54.59771
36,Derry,0.0862487127526318,0.8792513828027102,0.01,0.01,0.2232909268168014,-7.308574799999999,54.99661
37,Derry,0.0862487127526318,0.8792513828027102,0.01,0.01,0.2232909268168014,-7.308574799999999,54.99661
38,Kilkenny,0.01,0.9816999300810628,0.01,0.01,0.1184427013789044,-7.2447879,52.65415
39,Tyrone,0.01,0.9543103985379292,0.01,0.01,0.2957202047201667,-7.1312320000000025,54.49121
40,Waterford,0.01,0.9758883512284257,0.01,0.01,0.15606856970496574,-7.110070200000001,52.25932
41,Western Isles,0.355937218075698,0.6440641592767166,0.01,0.01,0.01,-7.0194034,57.75989000000001
42,Monaghan,0.01,0.966947726942324,0.01,0.01,0.2139234517697993,-6.9683132,54.2492
43,Carlow,0.01,0.9722677964459084,0.01,0.01,0.17949345169049347,-6.9341358999999985,52.83651
44,Kildare,0.01,0.9349753899192138,0.01,0.01,0.42086312884092825,-6.8194708,53.21204
45,Dungannon,0.01,0.9535212145126796,0.01,0.01,0.30082956141499706,-6.7669352,54.50827
46,Cookstown,0.01,0.9518909264605114,0.01,0.01,0.311365923789066,-6.7443895000000005,54.64182
47,Coleraine,0.13157151665089006,0.8308377119201401,0.01,0.01,0.2433057027928333,-6.6646103000000005,55.13258
48,Meath,0.01,1.0,0.01,0.01,0.01,-6.656416900000001,53.60555
49,Armagh,0.01,0.9565014226080492,0.01,0.01,0.281530352560129,-6.652792,54.35028000000001
50,Armagh,0.01,0.9565014226080492,0.01,0.01,0.281530352560129,-6.652792,54.35028000000001
51,Magherafelt,0.08333868363164529,0.8611036115553137,0.01,0.01,0.3595951387943928,-6.607980499999999,54.75536999999999
52,Dunvegan,0.3586547901406545,0.6413435511896558,0.01,0.01,0.01,-6.5813982000000015,57.4366
53,Louth,0.01,1.0,0.01,0.01,0.01,-6.4889423,53.925230000000006
54,Wexford,0.01,0.9809522820571356,0.01,0.01,0.12328600268627228,-6.4633381,52.33692
55,Craigavon,0.01,1.0,0.01,0.01,0.01,-6.4175653,54.44293
56,Stornoway,0.40085629066936,0.5991429738392418,0.01,0.01,0.01,-6.3848692000000025,58.20943000000001
57,Drogheda,0.01,1.0,0.01,0.01,0.01,-6.3560985,53.71786
58,Rosslare,0.01,0.9775532526150356,0.01,0.01,0.14528651606832507,-6.3414908,52.25131
59,Newry,0.01,1.0,0.01,0.01,0.01,-6.34023,54.1751
60,Scilly Isles,0.01,0.9178971707060448,0.01,0.01,0.5313961935261261,-6.327496599999999,49.92773
61,Ballymena,0.11201725983344482,0.8879843270821677,0.01,0.01,0.01,-6.2802213,54.86529
62,Banbridge,0.01,1.0,0.01,0.01,0.01,-6.2704803,54.34873
63,Dublin,0.01,0.9802600153683158,0.01,0.01,0.10647213558196884,-6.2603097000000005,53.34981
64,Antrim,0.02394686673066266,0.9760544952337432,0.01,0.01,0.01,-6.2072498,54.719530000000006
65,Antrim,0.02394686673066266,0.9760544952337432,0.01,0.01,0.01,-6.2072498,54.719530000000006
66,Portree,0.3586547901406545,0.6413435511896558,0.01,0.01,0.01,-6.1960231,57.41246999999999
67,Islay,0.2778575569344717,0.7221414577751933,0.01,0.01,0.01,-6.177067,55.73625
68,Wicklow,0.01,0.9033041889057352,0.01,0.01,0.6258406586309098,-6.044589,52.98082
69,Kilkeel,0.01,1.0,0.01,0.01,0.01,-6.007004,54.06312
70,Mull,0.15014459242338252,0.8498542778620009,0.01,0.01,0.01,-6.0008870000000005,56.4392
71,Belfast,0.015030432949540741,0.984970890185741,0.01,0.01,0.01,-5.93012,54.59728000000001
72,Broadford,0.1490348045000097,0.8509653658975627,0.01,0.01,0.01,-5.9096592,57.24139
73,Down,0.01,1.0,0.01,0.01,0.01,-5.7156922,54.32875
74,Kyle of Lochalsh,0.3665168121397455,0.6334828629381125,0.01,0.01,0.01,-5.7143293,57.28261
75,Campbeltown,0.575586122145638,0.4244148615812691,0.01,0.01,0.01,-5.6053739999999985,55.42412
76,Penzance,0.01,0.9178971707060448,0.01,0.01,0.5313961935261261,-5.537592,50.1188
77,Oban,0.2675522472310002,0.7324493087717157,0.01,0.01,0.01,-5.471047,56.41516
78,Lochgilphead,0.23567862014550306,0.764321267124946,0.01,0.01,0.01,-5.4323449,56.03829
79,Helston,0.01,0.9184752133912082,0.01,0.01,0.5276414655879221,-5.274996,50.10159
80,Redruth,0.01,0.9183817573882168,0.01,0.01,0.5282635683206981,-5.226666000000002,50.23302
81,Ullapool,0.3620110093577105,0.6379895190823321,0.01,0.01,0.01,-5.161313,57.89542
82,Ballachulish,0.13244897953476004,0.8675520757616674,0.01,0.01,0.01,-5.1337199999999985,56.67393000000001
83,Fort William,0.15027496388953618,0.8497262085245676,0.01,0.01,0.01,-5.1052179,56.81981999999999
84,Achnasheen,0.3583290956344705,0.6416723778668447,0.01,0.01,0.01,-5.078765799999998,57.57859000000001
85,Newquay,0.01,0.9195205360913246,0.01,0.01,0.5208938833740966,-5.0737190000000005,50.4155
86,Falmouth,0.01,0.9196589894290884,0.01,0.01,0.5199871085456247,-5.0662699999999985,50.15257
87,Rothesay,0.16961777200721515,0.8134202820294476,0.01,0.01,0.10978165311978168,-5.055793,55.83596
88,Truro,0.01,0.9183817573882168,0.01,0.01,0.5282635683206981,-5.0510410000000014,50.2632
89,Milford Haven,0.01,1.0,0.01,0.01,0.01,-5.0426971,51.71431
90,Stranraer,0.3430742547531614,0.6569264743549783,0.01,0.01,0.01,-5.0240550000000015,54.90337
91,Fishguard,0.01,1.0,0.01,0.01,0.01,-4.975989,51.99393
92,Inchnadamph,0.5981566820936863,0.4018435061923251,0.01,0.01,0.01,-4.974295,58.15221
93,Haverfordwest,0.01,1.0,0.01,0.01,0.01,-4.971319,51.80047
94,Dunoon,0.23756189249939635,0.7454708451883989,0.01,0.01,0.10982650348065236,-4.926214,55.95097
95,Pembroke,0.01,1.0,0.01,0.01,0.01,-4.9086370000000015,51.67404000000001
96,Girvan,0.7207159819090395,0.2603165043301232,0.01,0.01,0.1227549448418971,-4.8542179,55.24016
97,Wadebridge,0.01,0.9613126760953388,0.01,0.01,0.2504036196436695,-4.836456,50.51665
98,Invergarry,0.16857142859318552,0.831429599939084,0.01,0.01,0.01,-4.800261,57.07095
99,St Austell,0.01,0.9462731822807452,0.01,0.01,0.3477342345940915,-4.7834252,50.34038
100,Greenock,0.23744548785937816,0.7286349193163197,0.01,0.01,0.21954538401743728,-4.7719830000000005,55.956480000000006
101,Helensburgh,0.2397954639013441,0.7259489245637009,0.01,0.01,0.22171820701967745,-4.734014,56.00232
102,Bodmin,0.01,0.9732715831446904,0.01,0.01,0.1729944282947799,-4.7188629,50.4715
103,Tenby,0.01,1.0,0.01,0.01,0.01,-4.703579,51.67274000000001
104,Camelford,0.01,0.9721293431081406,0.01,0.01,0.180376636394092,-4.682364,50.62206
105,Irvine,0.6980840338297818,0.2852934864627197,0.01,0.01,0.10757636849271557,-4.6696364,55.61156999999999
106,Cardigan,0.01,1.0,0.01,0.01,0.01,-4.660864,52.0837
107,Holyhead,0.06646823495701801,0.9335320138730208,0.01,0.01,0.01,-4.633038,53.30944
108,Ayr,0.7335192901899669,0.2476722532588477,0.01,0.01,0.12173216843071365,-4.629179,55.45856
109,Dumbarton,0.2817794590892158,0.6840667898901375,0.01,0.01,0.22106187284264053,-4.564554,55.94529
110,Bude,0.04775350654077015,0.9283711657078773,0.01,0.01,0.154537451865952,-4.543678,50.82664000000001
111,Isle of Man,0.15328553366760506,0.7591223442919142,0.01,0.01,0.5669197179884582,-4.5126331,54.27697
112,Kilmarnock,0.6264586745743606,0.3556416273805287,0.01,0.01,0.11584646587893425,-4.498792,55.61472
113,Newton Stewart,0.5965673250523721,0.310218548593659,0.01,0.01,0.6033063990711629,-4.483164,54.9603
114,Liskeard,0.01,0.9708763404013724,0.01,0.01,0.1884962319200064,-4.4647190000000005,50.45552
115,Altnaharra,0.6319210528210779,0.3680781984451717,0.01,0.01,0.01,-4.442655,58.28023
116,Pwllheli,0.01,1.0,0.01,0.01,0.01,-4.417633900000001,52.88882
117,Lairg,0.6393875852963741,0.36061210220625134,0.01,0.01,0.01,-4.402414,58.02206
118,Launceston,0.01,1.0,0.01,0.01,0.01,-4.360451599999998,50.63683
119,Carmarthen,0.01,1.0,0.01,0.01,0.01,-4.312131,51.85762
120,Llangefni,0.0635982236952377,0.9364014592981802,0.01,0.01,0.01,-4.311401999999998,53.25579000000001
121,Caernarfon,0.06996125991276196,0.9300395284279332,0.01,0.01,0.01,-4.273911,53.13955
122,Cumnock,0.6043381834925157,0.3793275321384806,0.01,0.01,0.10571503371102776,-4.265828900000002,55.45355
123,Aberaeron,0.01,0.9743030605110262,0.01,0.01,0.1663160930666943,-4.2581619,52.24279
124,Alness,0.4730751709819402,0.5269257128616169,0.01,0.01,0.01,-4.256825,57.69595
125,Glasgow,0.23474561497629104,0.69624722227991,0.01,0.3505961117633132,0.35092445734087724,-4.251806,55.86424
126,Dalwhinnie,0.3879452054678827,0.6120537475857184,0.01,0.01,0.01,-4.242783,56.9366
127,Inverness,0.5023615839694344,0.4976393705911221,0.01,0.01,0.01,-4.224721,57.47776999999999
128,Saltash,0.01,1.0,0.01,0.01,0.01,-4.21643,50.40921
129,Bideford,0.04962485079386159,0.9255640242847172,0.01,0.01,0.16059339312515208,-4.206666,51.01668
130,Invergordon,0.4720825318852523,0.5279191155600801,0.01,0.01,0.01,-4.172882,57.68811
131,Llanelli,0.01,1.0,0.01,0.01,0.01,-4.160248,51.68089000000001
132,Plymouth,0.01,1.0,0.01,0.01,0.01,-4.1426565,50.37546
133,Tavistock,0.01,1.0,0.01,0.01,0.01,-4.141654,50.55112
134,Porthmadog,0.01,1.0,0.01,0.01,0.01,-4.133384,52.92784
135,Bangor,0.06348158333841954,0.9365191446352792,0.01,0.01,0.01,-4.129263,53.22739
136,Tywyn,0.01,0.9714578444199858,0.01,0.01,0.18473977896792285,-4.087249,52.58701
137,Aberystwyth,0.01,0.9717520577627328,0.01,0.01,0.18283007658927208,-4.08292,52.4153
138,Lampeter,0.01,0.9738253964957464,0.01,0.01,0.16941854173061724,-4.078509,52.1129
139,Barnstaple,0.04951835941251167,0.9257232456231425,0.01,0.01,0.1602487711964441,-4.058338,51.07816
140,Tain,0.5911195446328571,0.4088803970841691,0.01,0.01,0.01,-4.05523,57.8115
141,Okehampton,0.02641567034598047,0.9603781160654328,0.01,0.01,0.08548503425003857,-4.004263,50.73831
142,Llandeilo,0.01,1.0,0.01,0.01,0.01,-3.99143,51.88469
143,Motherwell,0.21105691075393526,0.7016088277848133,0.1670217733848592,0.01,0.3768339417853069,-3.9810968,55.78321
144,Golspie,0.7035927946354397,0.2964078281517184,0.01,0.01,0.01,-3.976086,57.97341
145,Airdrie,0.26389834434776444,0.6721251895080048,0.1835245694667402,0.01,0.20703374633451355,-3.962566,55.86626999999999
146,Swansea,0.01,1.0,0.01,0.01,0.01,-3.943646,51.62144
147,Stirling,0.5763171457078852,0.40309997023252775,0.01,0.488007967032178,0.01,-3.9369029,56.11652
148,Tregaron,0.01,0.9709524897371486,0.01,0.01,0.1879953282143584,-3.934385,52.22
149,Tregaron,0.01,0.9709524897371486,0.01,0.01,0.1879953282143584,-3.934385,52.22
150,Castle Douglas,0.1272771843750213,0.7272642312724529,0.01,0.8621957839890392,0.7060935017562209,-3.931414,54.94042
151,Dolgellau,0.01,0.9720566551058104,0.01,0.01,0.1808620373776008,-3.8844,52.74215
152,Aberfeldy,0.453449781687684,0.5465514734896411,0.01,0.01,0.01,-3.866969,56.62175
153,Machynlleth,0.01,0.9717139830948524,0.01,0.01,0.1830790834629372,-3.853485,52.59027
154,Brora,0.7042911497875484,0.29570863879600623,0.01,0.01,0.01,-3.852548000000001,58.01216
155,Llandudno,0.06608751009669203,0.9339127605518708,0.01,0.01,0.01,-3.827609,53.32406
156,Llandudno,0.06608751009669203,0.9339127605518708,0.01,0.01,0.01,-3.827609,53.32406
157,Aviemore,0.3031192661672058,0.6968806463001767,0.01,0.01,0.01,-3.823812,57.19449
158,Dalbeattie,0.09366768893085384,0.7564640402068488,0.01,0.8883276167059835,0.7274941359609343,-3.822527,54.93422
159,Falkirk,0.5295064651773952,0.41376087724034266,0.01,0.4483700944135988,0.2447945017848517,-3.7839131,56.00188000000001
160,Kingsbridge,0.01,1.0,0.01,0.01,0.01,-3.777493,50.28395
161,Pitlochry,0.4564395606209496,0.5435608813939444,0.01,0.01,0.01,-3.729711,56.70436
162,Colwyn Bay,0.06501173877279116,0.9349892352529906,0.01,0.01,0.01,-3.72764,53.29318000000001
163,Totnes,0.01,1.0,0.01,0.01,0.01,-3.685797,50.43374
164,Grantown-on-Spey,0.5609182984761537,0.4390805313839087,0.01,0.01,0.01,-3.609628,57.33041
165,Dumfries,0.09129593798701784,0.7626321364042286,0.01,0.8658343738703012,0.7090733176152461,-3.60512,55.07086
166,Whitehaven,0.14761982147098932,0.6836721978775069,0.01,1.0,0.81894800947064,-3.589233,54.5497
167,Dartmouth,0.01,1.0,0.01,0.01,0.01,-3.578807,50.35252
168,Bridgend,0.01,1.0,0.01,0.01,0.01,-3.576945,51.50429000000001
169,Paignton,0.01,1.0,0.01,0.01,0.01,-3.564235,50.43508
170,Workington,0.10868421043559244,0.7671041792139985,0.01,0.7362440465761171,0.6029455799342085,-3.542752,54.64357
171,Llanidloes,0.01,0.9713609270835524,0.01,0.01,0.18535117317297845,-3.540195,52.44779000000001
172,Exeter,0.01,1.0,0.01,0.01,0.01,-3.533899,50.71841
173,Torquay,0.01,1.0,0.01,0.01,0.01,-3.525315,50.46192
174,Thurso,0.7550169655661146,0.24498279717277496,0.01,0.01,0.01,-3.5220800000000003,58.59356999999999
175,Livingston,0.1931308121783436,0.6523644368756555,0.01,0.01,1.0,-3.518068,55.90071
176,Rhyl,0.034121416260247166,0.9658781749081,0.01,0.01,0.01,-3.4916339999999995,53.31914
177,Tiverton,0.01,0.965393588225928,0.01,0.01,0.2239904535491623,-3.491207,50.90205
178,Tiverton,0.01,0.965393588225928,0.01,0.01,0.2239904535491623,-3.491207,50.90205
179,Minehead,0.01,0.9512748091074638,0.01,0.01,0.3153675751426128,-3.481152,51.20428
180,Dunfermline,0.3818166963901282,0.5333361024000867,0.01,0.01,0.5491624699169901,-3.452151,56.07174000000001
181,Perth,0.2263366029701815,0.7413310903892601,0.01,0.01,0.209273956891948,-3.4308381000000003,56.39499
182,Prestatyn,0.030629009498636624,0.9693706603531956,0.01,0.01,0.01,-3.407613,53.33651
183,Builth Wells,0.01,0.915713069302817,0.01,0.01,0.5455221753670617,-3.404592,52.15002
184,Braemar,0.22140724963501385,0.7785923449149511,0.01,0.01,0.01,-3.3979439,57.00646999999999
185,Brecon,0.01,0.8679293611070751,0.01,0.01,0.8547959709590106,-3.391463,51.94895
186,Merthyr Tydfil,0.01,0.8940935806109942,0.01,0.01,0.6854495885752288,-3.381646,51.74873
187,Llandrindod Wells,0.01,0.9203685627851276,0.01,0.01,0.5154013271674318,-3.377742,52.2417
188,Corwen,0.01,1.0,0.01,0.01,0.01,-3.369242,52.98005
189,Cockermouth,0.09349339729829337,0.7818494596858488,0.01,0.7388955385686671,0.6051170363670114,-3.367985,54.66326
190,Lockerbie,0.09111969104725703,0.7630890324188508,0.01,0.8641629220329721,0.7077044630948067,-3.349008,55.12224000000001
191,Blairgowrie,0.2012793176612125,0.7182093829826987,0.01,0.01,0.521095822011903,-3.3378318,56.58941
192,Elgin,0.6305343513083286,0.3694661931562461,0.01,0.01,0.01,-3.318485,57.64945
193,Newtown,0.01,0.876821526724958,0.01,0.01,0.7972518826286219,-3.313106,52.51211
194,Ruthin,0.01,1.0,0.01,0.01,0.01,-3.3103108,53.11487
195,Ruthin,0.01,1.0,0.01,0.01,0.01,-3.3103108,53.11487
196,Sidmouth,0.01,1.0,0.01,0.01,0.01,-3.23756,50.67865
197,Barrow-in-Furness,0.03845451166198865,0.9487272676926052,0.0735423699816216,0.01,0.01,-3.218894,54.10896999999999
198,Peebles,0.20584609840645712,0.7380151329498168,0.01,0.01,0.363353764815909,-3.193642,55.65306999999999
199,Edinburgh,0.13881193094961766,0.7917834866704019,0.01,0.01,0.4492160170361475,-3.188267,55.95325
200,Cardiff,0.01,1.0,0.01,0.01,0.01,-3.17909,51.48158
201,Llangollen,0.01,1.0,0.01,0.01,0.01,-3.17166,52.96921
202,Kirkcaldy,0.19794128878922604,0.7476237945906271,0.01,0.01,0.3523120853889936,-3.158137,56.11682
203,Welshpool,0.01,0.9439021688715348,0.01,0.01,0.3630724083313062,-3.146407,52.66035
204,Mold,0.01,1.0,0.01,0.01,0.01,-3.141903,53.1672
205,Mold,0.01,1.0,0.01,0.01,0.01,-3.141903,53.1672
206,Taunton,0.01,0.9447813475663296,0.01,0.01,0.35739608213951546,-3.106849,51.01534
207,Wick,0.9121501298284522,0.0878486428111545,0.01,0.01,0.01,-3.093716,58.43894
208,John o' Groats,0.9165416248462028,0.0834596720040375,0.01,0.01,0.01,-3.0688997,58.63734
209,Dalkeith,0.14186567566902658,0.7900389746145811,0.01,0.01,0.4407344598316181,-3.066606,55.89312
210,Oswestry,0.01,0.9599004520501492,0.01,0.01,0.2595317210113994,-3.056412,52.85715
211,Blackpool,0.01994104489537216,0.9700871563761228,0.05720440267590581,0.01,0.01,-3.0356748,53.81751
212,Birkenhead,0.01,0.9928038877697268,0.01,0.01,0.01,-3.023009,53.38999
213,Cupar,0.2114329347774605,0.7357098848760518,0.01,0.01,0.34211418417977674,-3.010137,56.32023
214,Southport,0.01,1.0,0.01,0.01,0.01,-3.010113,53.64571
215,Bridgwater,0.01,0.9532027718358212,0.01,0.01,0.3028766600290224,-3.003632,51.12789
216,Langholm,0.15543746744607348,0.7512997307082551,0.01,0.737070622061244,0.40241497910649743,-2.998913,55.15306
217,Newport,0.0311635303984532,0.968837615002801,0.01,0.01,0.01,-2.997664,51.58415
218,Axminster,0.01,0.9260139976324472,0.01,0.01,0.4788623744049878,-2.994937,50.78273
219,Wrexham,0.01,1.0,0.01,0.01,0.01,-2.992494,53.04304000000001
220,Liverpool,0.01,0.9927104317667356,0.01,0.01,0.01,-2.9915726,53.40837
221,Weston-super-Mare,0.01,1.0,0.01,0.01,0.01,-2.977255,51.34741
222,Dundee,0.12175289464349433,0.8173696634891575,0.01,0.01,0.3940104426515551,-2.970721,56.46202
223,Kirkwall,0.9154397917590978,0.08456037603926095,0.01,0.01,0.01,-2.9622491,58.98467
224,Ambleside,0.1474301940549598,0.8525714246156156,0.01,0.01,0.01,-2.961333,54.42874000000001
225,Orkney Islands,0.9154397917590978,0.08456037603926095,0.01,0.01,0.01,-2.9605206,58.98094
226,Lyme Regis,0.01,0.9434106595224744,0.01,0.01,0.3662579488975616,-2.936639,50.72516
227,Carlisle,0.06586742779319109,0.8023993963434479,0.01,0.7808436699721754,0.6394703517383951,-2.932931,54.89247
228,Chester,0.01,1.0,0.01,0.01,0.01,-2.893075,53.19339
229,Forfar,0.1363176896494959,0.7955251881234716,0.01,0.01,0.4411442962460875,-2.889062,56.64356
230,Morecambe,0.07617370909292945,0.9085931064083086,0.08740707157153416,0.01,0.01,-2.864968,54.07417
231,Selkirk,0.4560815687595605,0.4461866489446366,0.01,0.01,0.6325490135810568,-2.838524,55.55066
232,Galashiels,0.4652776443529926,0.4350203872539807,0.01,0.01,0.6453032509432355,-2.814449,55.62373
233,Lancaster,0.050918600968996384,0.9321094058275008,0.0973793118239724,0.01,0.01,-2.8007399,54.04657
234,St Andrews,0.20625000000865326,0.7387489356399671,0.01,0.01,0.3559763509110157,-2.7967214,56.33978000000001
235,Hawick,0.31509634345120435,0.5903754162253423,0.01,0.01,0.6118191409421919,-2.780914,55.42706
236,Bridport,0.01,0.9537773531875422,0.01,0.01,0.2991690675350103,-2.758301,50.73358
237,Shrewsbury,0.01,0.959616622707733,0.01,0.01,0.2613686367654404,-2.7553268,52.7073
238,Penrith,0.09476181778222424,0.8294289492083889,0.01,0.8987041262710589,0.2453306450597552,-2.752708,54.6641
239,Kendal,0.07794625443187217,0.9220542321724028,0.01,0.01,0.01,-2.74629,54.32801
240,Street,0.01,1.0,0.01,0.01,0.01,-2.742919,51.12468
241,Glastonbury,0.01,1.0,0.01,0.01,0.01,-2.718454,51.14743
242,Hereford,0.01,1.0,0.01,0.01,0.01,-2.715974,52.0564
243,Ludlow,0.01,1.0,0.01,0.01,0.01,-2.7139129,52.36775
244,Preston,0.02561673576985605,0.9743826711802448,0.01,0.01,0.01,-2.70309,53.7632
245,Whitchurch,0.01,1.0,0.01,0.01,0.01,-2.682045,52.96872
246,Wells,0.01,1.0,0.01,0.01,0.01,-2.6445979,51.20935
247,Yeovil,0.01,1.0,0.01,0.01,0.01,-2.633308,50.94206
248,Wigan,0.01,0.9757083618893352,0.01,0.01,0.15723087061540114,-2.6325074,53.54506
249,Warrington,0.01,1.0,0.01,0.01,0.01,-2.5969501,53.39004
250,Arbroath,0.11046808506467024,0.8158882127750918,0.01,0.01,0.4766548495001559,-2.591543,56.55911
251,Bristol,0.01,0.9708555724007112,0.01,0.01,0.18862849791929728,-2.58791,51.45451
252,Guernsey,0.01,1.0,0.01,0.01,0.01,-2.585278,49.46569
253,Ross-on-Wye,0.01,1.0,0.01,0.01,0.01,-2.582446,51.91445
254,Jedburgh,0.3466629571926536,0.5666722048001789,0.01,0.01,0.5609264148955889,-2.5549369,55.47772
255,Sedbergh,0.08456026050703552,0.9154396239607314,0.01,0.01,0.01,-2.5281740000000004,54.32363
256,Sedbergh,0.08456026050703552,0.9154396239607314,0.01,0.01,0.01,-2.5281740000000004,54.32363
257,Nantwich,0.01,1.0,0.01,0.01,0.01,-2.524102,53.06719
258,Banff,0.6738278125092041,0.3157255301032185,0.01,0.01,0.06761572748472679,-2.524038,57.66651
259,Dunbar,0.18904392764704045,0.7499740399991686,0.01,0.01,0.3946930552867845,-2.516737,56.00209
260,Cinderford,0.01,1.0,0.01,0.01,0.01,-2.5009579,51.8253
261,Banchory,0.293617084791326,0.6960810782745924,0.01,0.01,0.06667989625363277,-2.4909599,57.05386
262,Blackburn,0.02203922243649891,0.9779616899614392,0.01,0.01,0.01,-2.487529,53.74858
263,Market Drayton,0.01,1.0,0.01,0.01,0.01,-2.483485,52.90355
264,Telford,0.01,0.9633963988286832,0.01,0.01,0.2369076487160229,-2.4672611,52.67759
265,Montrose,0.10760621762795786,0.8206579302610509,0.01,0.01,0.4643062816358025,-2.4661150000000003,56.70692
266,Turriff,0.6594963445987057,0.33028043723563993,0.01,0.01,0.06617762597854772,-2.4623,57.53893000000001
267,Weymouth,0.01,1.0,0.01,0.01,0.01,-2.457621,50.61443
268,Crewe,0.01,1.0,0.01,0.01,0.01,-2.4438209,53.10041
269,Fortuneswell,0.01,1.0,0.01,0.01,0.01,-2.442219,50.55919
270,Dorchester,0.01,1.0,0.01,0.01,0.01,-2.4411810000000003,50.71116
271,Alston,0.11266546130394578,0.8497781285262325,0.01,0.01,0.2430681213357737,-2.438685,54.81217
272,Kelso,0.3222759601221891,0.5971561684423273,0.01,0.01,0.5214664311626939,-2.432207,55.60003
273,Wincanton,0.01,1.0,0.01,0.01,0.01,-2.416007,51.05569000000001
274,Clitheroe,0.01,1.0,0.01,0.01,0.01,-2.3930830000000003,53.8711
275,Sark,0.01,1.0,0.01,0.01,0.01,-2.3666256000000003,49.43007
276,Bath,0.01,0.9734342658165658,0.01,0.01,0.1719322902032519,-2.3590167,51.38106
277,Kidderminster,0.01,0.9685987829951608,0.01,0.01,0.2032305163826809,-2.2496839,52.3886
278,Manchester,0.010522167428838651,0.9723785591161148,0.03018469660135972,0.01,0.0766154161309229,-2.2426305,53.48076
279,Burnley,0.01,1.0,0.01,0.01,0.01,-2.2405035,53.78929
280,Gloucester,0.01,0.9356572726076992,0.1845764550831159,0.01,0.2082203766614852,-2.238156,51.86424
281,Newcastle-under-Lyme,0.01,1.0,0.01,0.01,0.01,-2.2273002,53.01321
282,Worcester,0.01,0.9327012938464372,0.1930546515623931,0.01,0.2177846153046547,-2.221575,52.19364
283,Trowbridge,0.01,1.0,0.01,0.01,0.01,-2.208853,51.31966
284,Shaftesbury,0.01,1.0,0.01,0.01,0.01,-2.198083,51.0046
285,Alderney,0.01,1.0,0.01,0.01,0.01,-2.1973557,49.715
286,Stoke-on-Trent,0.01,1.0,0.01,0.01,0.01,-2.179404,53.00267
287,Colne,0.01,1.0,0.01,0.01,0.01,-2.176991,53.85564
288,Blandford Forum,0.01,1.0,0.01,0.01,0.01,-2.165353,50.85691
289,Rochdale,0.01,0.97909008466422,0.05998305838205464,0.01,0.06766678341500862,-2.1561,53.60971
290,Jersey,0.01,1.0,0.01,0.01,0.01,-2.13125,49.21444
291,Wolverhampton,0.01,1.0,0.01,0.01,0.01,-2.12882,52.58697
292,Stafford,0.01,0.955594553245693,0.01,0.01,0.28740548100085395,-2.12066,52.80669
293,Macclesfield,0.01,0.973714633825532,0.10053437290643873,0.01,0.05670631405710226,-2.119287,53.25866
294,Hexham,0.10271018793332876,0.8972883913798926,0.01,0.01,0.01,-2.1121439,54.97266
295,Aberdeen,0.5361925735949696,0.4532927665053645,0.01,0.01,0.06804700335741469,-2.094278,57.14972
296,Dudley,0.01,1.0,0.01,0.01,0.01,-2.081112,52.51226
297,Cheltenham,0.01,0.9454286169203848,0.1565438265318129,0.01,0.1765968173449115,-2.0782533,51.89939
298,Bromsgrove,0.01,0.954154638532946,0.01,0.01,0.29672552936755475,-2.061906,52.33559
299,Skipton,0.01,1.0,0.01,0.01,0.01,-2.0162787,53.96285
300,Fraserburgh,0.5888696454293066,0.4005212768166732,0.01,0.01,0.06867278014572648,-2.007631,57.69335
301,Berwick,0.3057796815809534,0.6108249742130655,0.01,0.01,0.5397537065507648,-2.005395,55.77024
302,Poole,0.01,1.0,0.01,0.01,0.01,-1.987248,50.71505
303,Walsall,0.01,1.0,0.01,0.01,0.01,-1.982919,52.58621
304,Cirencester,0.01,0.9654524308944776,0.01,0.01,0.17887638958269048,-1.968243,51.71849
305,Evesham,0.01,0.9408631181076234,0.16964950153692904,0.01,0.1913813064323169,-1.94677,52.09215
306,Buxton,0.01,0.9901698130187652,0.01,0.01,0.06363219997830515,-1.91483,53.25908
307,Keighley,0.01,0.94663316095893,0.3061808308700865,0.01,0.01,-1.912358,53.8678
308,Birmingham,0.01,0.9882210822897388,0.01,0.01,0.07623201499408948,-1.890401,52.48624
309,Bournemouth,0.01,1.0,0.01,0.01,0.01,-1.880769,50.71916
310,Halifax,0.01,0.8895211591313444,0.4609859124022434,0.01,0.19501402884339705,-1.85754,53.72702
311,Salisbury,0.01,0.9376925366728286,0.01,0.01,0.4032634395047266,-1.794472,51.06878
312,Ringwood,0.01,1.0,0.01,0.01,0.01,-1.788817,50.84495
313,Huddersfield,0.01,0.8574484434383469,0.5452410010190588,0.01,0.3075427105595627,-1.7850351000000002,53.64579000000001
314,Peterhead,0.5820537176282451,0.4071670370293403,0.01,0.01,0.06976341457043503,-1.784066,57.50812
315,Swindon,0.011194480547343354,0.944026776875522,0.01,0.01,0.2898160198768197,-1.7797176,51.55577
316,Bradford,0.01,0.9185236720594232,0.4674512913589904,0.01,0.01,-1.759398,53.79598000000001
317,Ashbourne,0.01,0.8764788547139922,0.5511983300263319,0.01,0.17765882101977354,-1.732179,53.016630000000006
318,Marlborough,0.0110303801185178,0.9889687303136658,0.01,0.01,0.01,-1.727062,51.42007
319,Stratford-upon-Avon,0.020513631116261317,0.9794846766768428,0.01,0.01,0.01,-1.708298,52.19173
320,Alnwick,0.07898680253550087,0.9210123708057286,0.01,0.01,0.01,-1.7062990000000002,55.41274
321,Otley,0.01,0.94173537413553,0.3342934510250513,0.01,0.01,-1.691786,53.90583
322,Bishop Auckland,0.05451872580849038,0.9454805369220418,0.01,0.01,0.01,-1.6787880000000002,54.66382
323,Burton upon Trent,0.01,0.9593777907000932,0.2330551599499437,0.01,0.01,-1.6371359,52.81403
324,Newcastle,0.027016338710340683,0.9594747080365228,0.01,0.01,0.08742887846183964,-1.61778,54.97825
325,Durham,0.22326817838997032,0.7564363495392953,0.11645164951404804,0.01,0.01,-1.584852,54.77525
326,Ashington,0.07354628503172027,0.9264535869798504,0.01,0.01,0.01,-1.5659829,55.18298000000001
327,Darlington,0.01,1.0,0.01,0.01,0.01,-1.559458,54.52361
328,Leeds,0.01,0.9153357839574132,0.3122612254105999,0.01,0.19570074118693773,-1.5490774,53.80076
329,Harrogate,0.01,0.9474950329865098,0.301234557604033,0.01,0.01,-1.5418120000000002,53.99211999999999
330,Leamington Spa,0.01214502913842472,0.9635660041674468,0.01,0.01,0.15721247793494422,-1.5200789,52.28519
331,Coventry,0.012765852846788068,0.9617038067745196,0.01,0.01,0.16524877993352738,-1.519693,52.40682
332,Blyth,0.09855732727348199,0.901441991512808,0.01,0.01,0.01,-1.510277,55.12696
333,Wakefield,0.01,0.7951859774459558,0.9614308607328904,0.01,0.2410196561523113,-1.505924,53.6833
334,Andover,0.01,0.9657881802385552,0.01,0.01,0.22141792018795392,-1.4919233,51.2112
335,Witney,0.01,0.9734238818162312,0.01,0.01,0.17199828878623138,-1.4850544,51.78594
336,Barnsley,0.01,0.8051269270973972,0.9583377991009284,0.01,0.1801831884090179,-1.479726,53.55263000000001
337,Derby,0.01,0.8958415540002688,0.4268586902050103,0.01,0.1926154082451452,-1.4746186,52.92253
338,Sheffield,0.01,0.8027524523547482,0.9126495262612456,0.01,0.247094012494746,-1.470085,53.38113000000001
339,Nuneaton,0.01,0.971042484406694,0.01,0.01,0.187413438467478,-1.465382,52.52049
340,Northallerton,0.01,1.0,0.01,0.01,0.01,-1.429959,54.33796
341,South Shields,0.06791230253164288,0.9164157199919676,0.029972067480106605,0.01,0.06762285156802192,-1.427406,54.99941999999999
342,Chesterfield,0.01,0.8296227838812601,0.8378688751339606,0.01,0.15753306168322553,-1.421629,53.23505
343,Southampton,0.01,1.0,0.01,0.01,0.01,-1.4043508999999998,50.9097
344,Wetherby,0.01,0.9181567707143501,0.3018628928423303,0.01,0.18918388518020865,-1.384816,53.92706
345,Sunderland,0.13937967199610604,0.8498992751967773,0.061513106320419,0.01,0.01,-1.383801,54.90687
346,Rotherham,0.01,0.7869722331831084,1.0,0.01,0.2506884933643645,-1.3635008999999998,53.4326
347,Castleford,0.01,0.8327102933133942,0.9598081909376543,0.01,0.01,-1.345968,53.72346999999999
348,Thirsk,0.01,0.9443902168871569,0.3190610081940753,0.01,0.01,-1.341377,54.23385
349,Banbury,0.01,1.0,0.01,0.01,0.01,-1.339775,52.0629
350,Stockton,0.036955928433488605,0.9630433428173868,0.01,0.01,0.01,-1.3289821000000002,54.57046
351,Newbury,0.01,1.0,0.01,0.01,0.01,-1.3231138999999998,51.40141
352,Isle of Wight,0.01,1.0,0.01,0.01,0.01,-1.304734,50.69385
353,Isle of Wight,0.01,1.0,0.01,0.01,0.01,-1.304734,50.69385
354,Abingdon,0.01,0.9727593057949612,0.01,0.01,0.17630728384646374,-1.2879528999999998,51.67078
355,Shetland Islands,1.0,0.01,0.01,0.01,0.01,-1.2659409,60.52965
356,Rugby,0.01,0.9718662817663856,0.01,0.01,0.18208706606547767,-1.265032,52.37088
357,Oxford,0.01,1.0,0.01,0.01,0.01,-1.2577263,51.75202
358,Middlesbrough,0.03639890159820186,0.9636006175018886,0.01,0.01,0.01,-1.234956,54.57423000000001
359,Hartlepool,0.06868179119896271,0.931316760468801,0.01,0.01,0.01,-1.212926,54.69174
360,Loughborough,0.01,0.9629845001488372,0.2123692875534316,0.01,0.01,-1.206166,52.7721
361,Mansfield,0.01,0.8984237087495579,0.4162707251085959,0.01,0.18783770227075894,-1.198674,53.1472
362,Nottingham,0.01,0.9585263026728402,0.2379544868031231,0.01,0.01,-1.1581086,52.95478000000001
363,Bicester,0.01,1.0,0.01,0.01,0.01,-1.1535898999999998,51.8996
364,Leicester,0.01,0.9652412895543911,0.1994198027078985,0.01,0.01,-1.1397592,52.63688000000001
365,Doncaster,0.01,0.8087994018815831,0.8975393347490735,0.01,0.2250027902659573,-1.128462,53.52282
366,Worksop,0.01,0.8562785127342473,0.2748635024109187,0.01,0.6201460965781056,-1.122745,53.3093
367,Basingstoke,0.01,0.9859469862169734,0.01,0.01,0.09096343190122384,-1.0923964,51.26654
368,Portsmouth,0.01,1.0,0.01,0.01,0.01,-1.0879769,50.81977
369,York,0.013874933273627458,0.9861235142226178,0.01,0.01,0.01,-1.0872979,53.95997
370,Selby,0.012382542370461708,0.9257059389559232,0.35521502857147963,0.01,0.01,-1.067189,53.78352
371,Helmsley,0.01666238758179489,0.9833371408001192,0.01,0.01,0.01,-1.0562636,54.24651
372,Towcester,0.01,1.0,0.01,0.01,0.01,-0.989688,52.13511
373,Reading,0.01,0.984496687503896,0.01,0.01,0.1003408985870613,-0.9781303,51.45426
374,Retford,0.01,0.7980104255363348,0.7725941378347874,0.01,0.4357810488720627,-0.945503,53.32136
375,Petersfield,0.01,1.0,0.01,0.01,0.01,-0.93899,51.00759
376,Northampton,0.01,1.0,0.01,0.01,0.01,-0.902656,52.24048
377,Melton Mowbray,0.01,0.9737527084934164,0.01,0.01,0.16988962733920282,-0.887126,52.7664
378,Aylesbury,0.01,1.0,0.01,0.01,0.01,-0.8084,51.81561
379,Newark-on-Trent,0.01,0.9053117623033112,0.5432522723285153,0.01,0.01,-0.80657,53.07004000000001
380,Malton,0.013009270767359313,0.9479623130014628,0.07463877922645061,0.01,0.16839973061107924,-0.7978970000000001,54.13684
381,Chichester,0.01,0.9885983676351464,0.01,0.01,0.07380259057655833,-0.774936,50.83761
382,Gainsborough,0.01,0.8718025932310166,0.5884115242322628,0.01,0.16594649204089798,-0.774465,53.40058000000001
383,Milton Keynes,0.01,1.0,0.01,0.01,0.01,-0.7594171,52.04062
384,Aldershot,0.01,1.0,0.01,0.01,0.01,-0.7557509,51.24837
385,High Wycombe,0.01,1.0,0.01,0.01,0.01,-0.748229,51.62861
386,Midhurst,0.01,0.9776259406173616,0.01,0.01,0.14481433272363428,-0.737274,50.9869
387,Kettering,0.01,1.0,0.01,0.01,0.01,-0.7302489999999999,52.39632
388,Wellingborough,0.01,1.0,0.01,0.01,0.01,-0.693964,52.30242
389,Corby,0.01,1.0,0.01,0.01,0.01,-0.6842333,52.4923
390,Bognor Regis,0.01,0.9890344956491036,0.01,0.01,0.07096265766122799,-0.673061,50.783
391,Scunthorpe,0.01,0.8341744373602447,0.9513999771821368,0.01,0.01,-0.654413,53.58865
392,Grantham,0.01,0.9722954871134544,0.01,0.01,0.1793178587192126,-0.643582,52.91252
393,Whitby,0.04184565780918343,0.8884100710957903,0.0800277666981728,0.01,0.36111671305012427,-0.613347,54.48633
394,Slough,0.01,1.0,0.01,0.01,0.01,-0.5950406,51.51054
395,Guildford,0.01,1.0,0.01,0.01,0.01,-0.570409,51.23622
396,Woking,0.01,1.0,0.01,0.01,0.01,-0.5600349,51.31677
397,Lincoln,0.01,0.8901165084837307,0.6304409159832974,0.01,0.01,-0.540579,53.23069
398,Bedford,0.056883045615791925,0.9431164461797236,0.01,0.01,0.01,-0.4667782,52.13864
399,Heathrow,0.01,1.0,0.01,0.01,0.01,-0.4542955,51.47002
400,Driffield,0.01,0.942881075505526,0.1310817722509167,0.01,0.22180967756085365,-0.443377,54.006
401,Beverley,0.01,0.9743238285116952,0.07366057008713188,0.01,0.08309636048506673,-0.435093,53.84196
402,Luton,0.01,1.0,0.01,0.01,0.01,-0.4200255,51.87867
403,Scarborough,0.01,0.8673478570884618,0.15221427105417035,0.01,0.6868506134843841,-0.399752,54.28311
404,Worthing,0.01,0.9920631624126882,0.01,0.01,0.05137335523847062,-0.372882,50.81787
405,Dorking,0.030554656597291712,0.9694468096889678,0.01,0.01,0.01,-0.332378,51.2322
406,Hull,0.01,0.9539192678587484,0.19829144051115985,0.01,0.07456408339192035,-0.3274198,53.76762
407,Horsham,0.01,0.9786401113164822,0.01,0.01,0.1382369220088965,-0.325858,51.06288
408,Biggleswade,0.05207622867264334,0.9479242383335748,0.01,0.01,0.01,-0.26421999999999995,52.08694000000001
409,Peterborough,0.01,1.0,0.01,0.01,0.01,-0.2405299,52.5695
410,Welwyn Garden City,0.01,1.0,0.01,0.01,0.01,-0.208661,51.80317
411,Bridlington,0.01,0.9419188248080664,0.13329603834036488,0.01,0.22555654212409965,-0.198802,54.08535
412,Stevenage,0.01,1.0,0.01,0.01,0.01,-0.196612,51.90376
413,Crawley,0.01,1.0,0.01,0.01,0.01,-0.1872275,51.10914
414,Huntingdon,0.01,1.0,0.01,0.01,0.01,-0.182552,52.33146
415,Hove,0.01,1.0,0.01,0.01,0.01,-0.168749,50.82793
416,Spalding,0.01,0.9832367621302394,0.01,0.01,0.10849678661278113,-0.1537024,52.7901
417,Brighton,0.01,1.0,0.01,0.01,0.01,-0.137163,50.82253
418,London,0.01,0.9801700206987743,0.01,0.01,0.07487044137638904,-0.12775830000000002,51.50735
419,Grimsby,0.01,0.9536112091822246,0.19960911749382407,0.01,0.07505956562537511,-0.08078400000000001,53.56746999999999
420,Boston,0.01,0.9728527617979524,0.01,0.01,0.17570805434967626,-0.026577,52.97894
421,Royston,0.01,1.0,0.01,0.01,0.01,-0.024066,52.04814
422,Louth_Lincs,0.01,0.9190636400767024,0.4643543771026219,0.01,0.01,-0.007711,53.36596
423,Lewes,0.01,1.0,0.01,0.01,0.01,0.00878,50.87387
424,Chatteris,0.01,1.0,0.01,0.01,0.01,0.054012,52.4561
425,Uckfield,0.01,1.0,0.01,0.01,0.01,0.095913,50.96641
426,Cambridge,0.01,1.0,0.01,0.01,0.01,0.121817,52.20534
427,Bishop's Stortford,0.01,1.0,0.01,0.01,0.01,0.1536502,51.87216
428,Wisbech,0.01,1.0,0.01,0.01,0.01,0.158797,52.66631999999999
429,Sevenoaks,0.01,1.0,0.01,0.01,0.01,0.190898,51.27241
430,Tunbridge Wells,0.01,1.0,0.01,0.01,0.01,0.263695,51.13238
431,Eastbourne,0.01,0.9832436847971316,0.01,0.01,0.1084481501824863,0.29047199999999995,50.76803
432,Brentwood,0.01,0.9601012093899052,0.01,0.01,0.2582452863099628,0.30717490000000003,51.62047000000001
433,Skegness,0.01,0.9812984154015476,0.01,0.01,0.1210524681565798,0.337881,53.1464
434,Downham Market,0.01,0.9506275397534126,0.01,0.01,0.3195451555091051,0.385472,52.60661
435,King's Lynn,0.01,0.9546288412147874,0.01,0.01,0.2936464468007288,0.4022963,52.75168000000001
436,Bexhill,0.01,0.9634967774985628,0.01,0.01,0.2362492982889968,0.4662071,50.84991
437,Chelmsford,0.01,0.955092659896298,0.01,0.01,0.2325246124756319,0.4685497,51.73559
438,Mildenhall,0.01,1.0,0.01,0.01,0.01,0.5156095,52.34757000000001
439,Medway,0.01,1.0,0.01,0.01,0.01,0.5417860999999999,51.40474
440,Braintree,0.019480349043567075,0.9805196153766248,0.01,0.01,0.01,0.5509269,51.88009
441,Gillingham,0.01,1.0,0.01,0.01,0.01,0.551438,51.38632
442,Hastings,0.01,0.9655493482309072,0.01,0.01,0.22296456315188445,0.573453,50.85426
443,Maldon,0.017921988242257717,0.9820772154264704,0.01,0.01,0.01,0.6714479999999999,51.73181
444,Southend,0.01,0.9669650336095468,0.01,0.01,0.21380095338156715,0.7077123000000001,51.54593
445,Bury St Edmunds,0.01,1.0,0.01,0.01,0.01,0.7104931999999999,52.24292
446,Thetford,0.01,0.9745038178507897,0.01,0.01,0.16500940625425511,0.751657,52.41286
447,Ashford,0.01,1.0,0.01,0.01,0.01,0.8750190000000001,51.14647
448,Faversham,0.01,1.0,0.01,0.01,0.01,0.889358,51.31599
449,Colchester,0.01,0.9675742282957059,0.01,0.01,0.20987847344426264,0.891874,51.89593
450,New Romney,0.01,1.0,0.01,0.01,0.01,0.939473,50.98512
451,Canterbury,0.01,1.0,0.01,0.01,0.01,1.0789089,51.28023
452,Ipswich,0.01,0.9721328044415828,0.01,0.01,0.1803645388941568,1.14822,52.05674000000001
453,Clacton,0.01,0.9682422656504224,0.01,0.01,0.20554577624526849,1.153035,51.78953
454,Folkestone,0.01,1.0,0.01,0.01,0.01,1.169456,51.0814
455,Sheringham,0.01,0.9494195343814212,0.01,0.01,0.3273664580505076,1.2109589,52.94442
456,Harwich,0.01,0.9724547084518834,0.01,0.01,0.1782832536414259,1.260297,51.93473
457,Norwich,0.01,0.9412369421195848,0.01,0.01,0.3803312394054464,1.297355,52.63089
458,Cromer,0.01,0.9416869154673148,0.01,0.01,0.3774264728515748,1.301866,52.93145
459,Dover,0.01,1.0,0.01,0.01,0.01,1.3134027,51.12788
460,Felixstowe,0.01,0.9721120364409216,0.01,0.01,0.18050986571282213,1.351255,51.96173
461,Margate,0.01,1.0,0.01,0.01,0.01,1.3868339,51.38965
462,Ramsgate,0.01,1.0,0.01,0.01,0.01,1.419895,51.33555
463,Great Yarmouth,0.01,0.9607519400773944,0.01,0.01,0.25401575390208225,1.728047,52.59823000000001
464,Lowestoft,0.01,0.9606031027392998,0.01,0.01,0.2549794541885824,1.7534490000000005,52.48114
465,Swaffham,0.01,0.946837379632128,0.01,0.01,0.34408464289143514,0.687481,52.64747
466,Dereham,0.01,0.9491980090410042,0.01,0.01,0.3288078975705577,0.937827,52.68162
467,Ely,0.01,1.0,0.01,0.01,0.01,0.262363,52.39954
468,March,0.01,1.0,0.01,0.01,0.01,0.088622,52.55172
469,St Neots,0.06555555542940918,0.9344458059022652,0.01,0.01,0.01,-0.26510300000000003,52.23008
470,Banham,0.01,0.9562418225997404,0.01,0.01,0.28322095577328765,1.0402849,52.45125
471,Holt,0.01,0.9495302970516354,0.01,0.01,0.3266504652765683,1.086747,52.90936
472,Cromer,0.01,0.9416869154673148,0.01,0.01,0.3774264728515748,1.301866,52.93145
473,Hunstanton,0.01,0.9420088194776116,0.01,0.01,0.37532576439061466,0.491032,52.93891
474,Horncastle,0.01,0.9156161519663796,0.4034446036796336,0.01,0.09102503953978244,-0.11245,53.20731
475,Market Weighton,0.01,0.9748084151938672,0.0722666945485464,0.01,0.08152393192405225,-0.6677465,53.86484
476,Hawes,0.0954850574980702,0.9045156556111692,0.01,0.01,0.01,-2.1968695,54.30383000000001
477,Reeth,0.02858243870685124,0.9714163084186556,0.01,0.01,0.01,-1.9428115,54.38946
478,Aysgarth,0.01,1.0,0.01,0.01,0.01,-1.9967434,54.29159
479,Stanhope,0.10287299382348744,0.8971257087080251,0.01,0.01,0.01,-2.011302,54.74946
480,Keswick,0.12278378389645485,0.7719742753698414,0.01,0.8317567642425678,0.4541103518710196,-3.134706,54.60128
481,Oxenholme,0.08080933852725139,0.9191917094141356,0.01,0.01,0.01,-2.7243328,54.30134
