placename,himsel,himself,himsen,hissel,hisself,longitude,latitude
Dingle,0.00000000000,1.0000000,0.0000000000,0.0000000000,0.0000000000,-10.2640135,52.14094
Tralee,0.00000000000,1.0000000,0.0000000000,0.0000000000,0.0000000000, -9.6999325,52.27131
Killarney,0.00000000000,1.0000000,0.0000000000,0.0000000000,0.0000000000, -9.5044265,52.05994
Bantry,0.00000000000,1.0000000,0.0000000000,0.0000000000,0.0000000000, -9.4539805,51.68035
Mayo,0.00000000000,1.0000000,0.0000000000,0.0000000000,0.0000000000, -9.4289369,54.01526
Ballycastle,0.00000000000,1.0000000,0.0000000000,0.0000000000,0.0000000000, -9.3724643,54.27967
Abbeyfeale,0.00000000000,1.0000000,0.0000000000,0.0000000000,0.0000000000, -9.2970823,52.38618
Ennistymon,0.00000000000,1.0000000,0.0000000000,0.0000000000,0.0000000000, -9.2934951,52.94037
Galway,0.00000000000,1.0000000,0.0000000000,0.0000000000,0.0000000000, -9.0567905,53.27067
Claremorris,0.00000000000,1.0000000,0.0000000000,0.0000000000,0.0000000000, -9.0017356,53.72388
Clare,0.00000000000,1.0000000,0.0000000000,0.0000000000,0.0000000000, -8.9811351,52.90453
Adare,0.00000000000,1.0000000,0.0000000000,0.0000000000,0.0000000000, -8.7925892,52.56363
Charleville,0.00000000000,1.0000000,0.0000000000,0.0000000000,0.0000000000, -8.6810176,52.36206
Mallow,0.00000000000,1.0000000,0.0000000000,0.0000000000,0.0000000000, -8.6539164,52.13898
Limerick,0.00000000000,1.0000000,0.0000000000,0.0000000000,0.0000000000, -8.6267343,52.66384
Loughrea,0.00000000000,1.0000000,0.0000000000,0.0000000000,0.0000000000, -8.5660931,53.19891
Sligo,0.00000000000,1.0000000,0.0000000000,0.0000000000,0.0000000000, -8.4760888,54.27661
Cork,0.00000000000,1.0000000,0.0000000000,0.0000000000,0.0000000000, -8.4756035,51.89851
Nenagh,0.00000000000,1.0000000,0.0000000000,0.0000000000,0.0000000000, -8.1983400,52.86350
Roscommon,0.00000000000,1.0000000,0.0000000000,0.0000000000,0.0000000000, -8.1890955,53.62759
Tipperary,0.00000000000,1.0000000,0.0000000000,0.0000000000,0.0000000000, -8.1618514,52.47379
Donegal,0.00072792565,0.9985441,0.0000000000,0.0000000000,0.0007279257, -8.1096143,54.65383
Leitrim,0.00000000000,1.0000000,0.0000000000,0.0000000000,0.0000000000, -8.0020132,54.12469
Athlone,0.00000000000,1.0000000,0.0000000000,0.0000000000,0.0000000000, -7.9406898,53.42393
Longford,0.00000000000,1.0000000,0.0000000000,0.0000000000,0.0000000000, -7.7932573,53.72763
Offaly,0.00000000000,1.0000000,0.0000000000,0.0000000000,0.0000000000, -7.7122229,53.23569
Fermanagh,0.00000000000,0.9991743,0.0000000000,0.0000000000,0.0008256956, -7.6318728,54.34383
Enniskillen,0.00000000000,0.9991743,0.0000000000,0.0000000000,0.0008256956, -7.6315336,54.34382
Doon,0.00000000000,0.9991808,0.0000000000,0.0000000000,0.0008191574, -7.6096400,54.18593
Westmeath,0.00000000000,1.0000000,0.0000000000,0.0000000000,0.0000000000, -7.4653217,53.53453
Strabane,0.00088584421,0.9982283,0.0000000000,0.0000000000,0.0008858442, -7.4633103,54.82739
Balivanich,0.01029438324,0.9897056,0.0000000000,0.0000000000,0.0000000000, -7.3743509,57.47227
Cavan,0.00000000000,1.0000000,0.0000000000,0.0000000000,0.0000000000, -7.3633319,53.98972
Mullingar,0.00000000000,1.0000000,0.0000000000,0.0000000000,0.0000000000, -7.3401868,53.52582
Laois,0.00000000000,0.9992313,0.0000000000,0.0000000000,0.0007686723, -7.3323007,52.99430
Omagh,0.00000000000,0.9991268,0.0000000000,0.0000000000,0.0008731591, -7.3099597,54.59771
Derry,0.00249177714,0.9965115,0.0000000000,0.0000000000,0.0009967109, -7.3085748,54.99661
Derry,0.00249177714,0.9965115,0.0000000000,0.0000000000,0.0009967109, -7.3085748,54.99661
Kilkenny,0.00000000000,0.9994713,0.0000000000,0.0000000000,0.0005286965, -7.2447879,52.65415
Tyrone,0.00000000000,0.9986800,0.0000000000,0.0000000000,0.0013200158, -7.1312320,54.49121
Waterford,0.00000000000,0.9993034,0.0000000000,0.0000000000,0.0006966483, -7.1100702,52.25932
Western Isles,0.01028324012,0.9897168,0.0000000000,0.0000000000,0.0000000000, -7.0194034,57.75989
Monaghan,0.00000000000,0.9990451,0.0000000000,0.0000000000,0.0009548970, -6.9683132,54.24920
Carlow,0.00000000000,0.9991988,0.0000000000,0.0000000000,0.0008012107, -6.9341359,52.83651
Kildare,0.00000000000,0.9981214,0.0000000000,0.0000000000,0.0018786203, -6.8194708,53.21204
Dungannon,0.00000000000,0.9986572,0.0000000000,0.0000000000,0.0013428226, -6.7669352,54.50827
Cookstown,0.00000000000,0.9986101,0.0000000000,0.0000000000,0.0013898541, -6.7443895,54.64182
Coleraine,0.00380118018,0.9951128,0.0000000000,0.0000000000,0.0010860515, -6.6646103,55.13258
Meath,0.00000000000,1.0000000,0.0000000000,0.0000000000,0.0000000000, -6.6564169,53.60555
Armagh,0.00000000000,0.9987433,0.0000000000,0.0000000000,0.0012566761, -6.6527920,54.35028
Armagh,0.00000000000,0.9987433,0.0000000000,0.0000000000,0.0012566761, -6.6527920,54.35028
Magherafelt,0.00240770465,0.9959872,0.0000000000,0.0000000000,0.0016051364, -6.6079805,54.75537
Dunvegan,0.01036175241,0.9896382,0.0000000000,0.0000000000,0.0000000000, -6.5813982,57.43660
Louth,0.00000000000,1.0000000,0.0000000000,0.0000000000,0.0000000000, -6.4889423,53.92523
Wexford,0.00000000000,0.9994497,0.0000000000,0.0000000000,0.0005503157, -6.4633381,52.33692
Craigavon,0.00000000000,1.0000000,0.0000000000,0.0000000000,0.0000000000, -6.4175653,54.44293
Stornoway,0.01158097912,0.9884190,0.0000000000,0.0000000000,0.0000000000, -6.3848692,58.20943
Drogheda,0.00000000000,1.0000000,0.0000000000,0.0000000000,0.0000000000, -6.3560985,53.71786
Rosslare,0.00000000000,0.9993515,0.0000000000,0.0000000000,0.0006485201, -6.3414908,52.25131
Newry,0.00000000000,1.0000000,0.0000000000,0.0000000000,0.0000000000, -6.3402300,54.17510
Scilly Isles,0.00000000000,0.9976280,0.0000000000,0.0000000000,0.0023720103, -6.3274966,49.92773
Ballymena,0.00323624595,0.9967638,0.0000000000,0.0000000000,0.0000000000, -6.2802213,54.86529
Banbridge,0.00000000000,1.0000000,0.0000000000,0.0000000000,0.0000000000, -6.2704803,54.34873
Dublin,0.00009505262,0.9994297,0.0000000000,0.0000000000,0.0004752631, -6.2603097,53.34981
Antrim,0.00069183937,0.9993082,0.0000000000,0.0000000000,0.0000000000, -6.2072498,54.71953
Antrim,0.00069183937,0.9993082,0.0000000000,0.0000000000,0.0000000000, -6.2072498,54.71953
Portree,0.01036175241,0.9896382,0.0000000000,0.0000000000,0.0000000000, -6.1960231,57.41247
Islay,0.00802747179,0.9919725,0.0000000000,0.0000000000,0.0000000000, -6.1770670,55.73625
Wicklow,0.00000000000,0.9972064,0.0000000000,0.0000000000,0.0027935851, -6.0445890,52.98082
Kilkeel,0.00000000000,1.0000000,0.0000000000,0.0000000000,0.0000000000, -6.0070040,54.06312
Mull,0.00433776750,0.9956622,0.0000000000,0.0000000000,0.0000000000, -6.0008870,56.43920
Belfast,0.00043423824,0.9995658,0.0000000000,0.0000000000,0.0000000000, -5.9301200,54.59728
Broadford,0.00430570506,0.9956943,0.0000000000,0.0000000000,0.0000000000, -5.9096592,57.24139
Down,0.00000000000,1.0000000,0.0000000000,0.0000000000,0.0000000000, -5.7156922,54.32875
Kyle of Lochalsh,0.01058889095,0.9894111,0.0000000000,0.0000000000,0.0000000000, -5.7143293,57.28261
Campbeltown,0.01662902895,0.9833710,0.0000000000,0.0000000000,0.0000000000, -5.6053740,55.42412
Penzance,0.00000000000,0.9976280,0.0000000000,0.0000000000,0.0023720103, -5.5375920,50.11880
Oban,0.00772974520,0.9922703,0.0000000000,0.0000000000,0.0000000000, -5.4710470,56.41516
Lochgilphead,0.00680889696,0.9931911,0.0000000000,0.0000000000,0.0000000000, -5.4323449,56.03829
Helston,0.00000000000,0.9976447,0.0000000000,0.0000000000,0.0023552502, -5.2749960,50.10159
Redruth,0.00000000000,0.9976420,0.0000000000,0.0000000000,0.0023580271, -5.2266660,50.23302
Ullapool,0.01045871560,0.9895413,0.0000000000,0.0000000000,0.0000000000, -5.1613130,57.89542
Ballachulish,0.00382653061,0.9961735,0.0000000000,0.0000000000,0.0000000000, -5.1337200,56.67393
Fort William,0.00434153401,0.9956585,0.0000000000,0.0000000000,0.0000000000, -5.1052179,56.81982
Achnasheen,0.01035234290,0.9896477,0.0000000000,0.0000000000,0.0000000000, -5.0787658,57.57859
Newquay,0.00000000000,0.9976749,0.0000000000,0.0000000000,0.0023251308, -5.0737190,50.41550
Falmouth,0.00000000000,0.9976789,0.0000000000,0.0000000000,0.0023210832, -5.0662700,50.15257
Rothesay,0.00490035936,0.9946096,0.0000000000,0.0000000000,0.0004900359, -5.0557930,55.83596
Truro,0.00000000000,0.9976420,0.0000000000,0.0000000000,0.0023580271, -5.0510410,50.26320
Milford Haven,0.00000000000,1.0000000,0.0000000000,0.0000000000,0.0000000000, -5.0426971,51.71431
Stranraer,0.00991162138,0.9900884,0.0000000000,0.0000000000,0.0000000000, -5.0240550,54.90337
Fishguard,0.00000000000,1.0000000,0.0000000000,0.0000000000,0.0000000000, -4.9759890,51.99393
Inchnadamph,0.01728110599,0.9827189,0.0000000000,0.0000000000,0.0000000000, -4.9742950,58.15221
Haverfordwest,0.00000000000,1.0000000,0.0000000000,0.0000000000,0.0000000000, -4.9713190,51.80047
Dunoon,0.00686330583,0.9926465,0.0000000000,0.0000000000,0.0004902361, -4.9262140,55.95097
Pembroke,0.00000000000,1.0000000,0.0000000000,0.0000000000,0.0000000000, -4.9086370,51.67404
Girvan,0.02082191781,0.9786301,0.0000000000,0.0000000000,0.0005479452, -4.8542179,55.24016
Wadebridge,0.00000000000,0.9988823,0.0000000000,0.0000000000,0.0011177347, -4.8364560,50.51665
Invergarry,0.00487012987,0.9951299,0.0000000000,0.0000000000,0.0000000000, -4.8002610,57.07095
St Austell,0.00000000000,0.9984478,0.0000000000,0.0000000000,0.0015521925, -4.7834252,50.34038
Greenock,0.00685994283,0.9921601,0.0000000000,0.0000000000,0.0009799918, -4.7719830,55.95648
Helensburgh,0.00692783505,0.9920825,0.0000000000,0.0000000000,0.0009896907, -4.7340140,56.00232
Bodmin,0.00000000000,0.9992278,0.0000000000,0.0000000000,0.0007722008, -4.7188629,50.47150
Tenby,0.00000000000,1.0000000,0.0000000000,0.0000000000,0.0000000000, -4.7035790,51.67274
Camelford,0.00000000000,0.9991948,0.0000000000,0.0000000000,0.0008051530, -4.6823640,50.62206
Irvine,0.02016806723,0.9793517,0.0000000000,0.0000000000,0.0004801921, -4.6696364,55.61157
Cardigan,0.00000000000,1.0000000,0.0000000000,0.0000000000,0.0000000000, -4.6608640,52.08370
Holyhead,0.00192030725,0.9980797,0.0000000000,0.0000000000,0.0000000000, -4.6330380,53.30944
Ayr,0.02119181308,0.9782648,0.0000000000,0.0000000000,0.0005433798, -4.6291790,55.45856
Dumbarton,0.00814077790,0.9908725,0.0000000000,0.0000000000,0.0009867610, -4.5645540,55.94529
Bude,0.00137962750,0.9979306,0.0000000000,0.0000000000,0.0006898138, -4.5436780,50.82664
Isle of Man,0.00442851118,0.9930409,0.0000000000,0.0000000000,0.0025305778, -4.5126331,54.27697
Kilmarnock,0.01809876756,0.9813841,0.0000000000,0.0000000000,0.0005171076, -4.4987920,55.61472
Newton Stewart,0.01723518851,0.9800718,0.0000000000,0.0000000000,0.0026929982, -4.4831640,54.96030
Liskeard,0.00000000000,0.9991586,0.0000000000,0.0000000000,0.0008413967, -4.4647190,50.45552
Altnaharra,0.01825657895,0.9817434,0.0000000000,0.0000000000,0.0000000000, -4.4426550,58.28023
Pwllheli,0.00000000000,1.0000000,0.0000000000,0.0000000000,0.0000000000, -4.4176339,52.88882
Lairg,0.01847229156,0.9815277,0.0000000000,0.0000000000,0.0000000000, -4.4024140,58.02206
Launceston,0.00000000000,1.0000000,0.0000000000,0.0000000000,0.0000000000, -4.3604516,50.63683
Carmarthen,0.00000000000,1.0000000,0.0000000000,0.0000000000,0.0000000000, -4.3121310,51.85762
Llangefni,0.00183739090,0.9981626,0.0000000000,0.0000000000,0.0000000000, -4.3114020,53.25579
Caernarfon,0.00202122284,0.9979788,0.0000000000,0.0000000000,0.0000000000, -4.2739110,53.13955
Cumnock,0.01745969328,0.9820684,0.0000000000,0.0000000000,0.0004718836, -4.2658289,55.45355
Aberaeron,0.00000000000,0.9992576,0.0000000000,0.0000000000,0.0007423905, -4.2581619,52.24279
Alness,0.01366742597,0.9863326,0.0000000000,0.0000000000,0.0000000000, -4.2568250,57.69595
Glasgow,0.00678194188,0.9912244,0.0000000000,0.0004272089,0.0015664328, -4.2518060,55.86424
Dalwhinnie,0.01120797011,0.9887920,0.0000000000,0.0000000000,0.0000000000, -4.2427830,56.93660
Inverness,0.01451352804,0.9854865,0.0000000000,0.0000000000,0.0000000000, -4.2247210,57.47777
Saltash,0.00000000000,1.0000000,0.0000000000,0.0000000000,0.0000000000, -4.2164300,50.40921
Bideford,0.00143369176,0.9978495,0.0000000000,0.0000000000,0.0007168459, -4.2066660,51.01668
Invergordon,0.01363874803,0.9863613,0.0000000000,0.0000000000,0.0000000000, -4.1728820,57.68811
Llanelli,0.00000000000,1.0000000,0.0000000000,0.0000000000,0.0000000000, -4.1602480,51.68089
Plymouth,0.00000000000,1.0000000,0.0000000000,0.0000000000,0.0000000000, -4.1426565,50.37546
Tavistock,0.00000000000,1.0000000,0.0000000000,0.0000000000,0.0000000000, -4.1416540,50.55112
Porthmadog,0.00000000000,1.0000000,0.0000000000,0.0000000000,0.0000000000, -4.1333840,52.92784
Bangor,0.00183402109,0.9981660,0.0000000000,0.0000000000,0.0000000000, -4.1292630,53.22739
Tywyn,0.00000000000,0.9991754,0.0000000000,0.0000000000,0.0008246289, -4.0872490,52.58701
Aberystwyth,0.00000000000,0.9991839,0.0000000000,0.0000000000,0.0008161045, -4.0829200,52.41530
Lampeter,0.00000000000,0.9992438,0.0000000000,0.0000000000,0.0007562390, -4.0785090,52.11290
Barnstaple,0.00143061516,0.9978541,0.0000000000,0.0000000000,0.0007153076, -4.0583380,51.07816
Tain,0.01707779886,0.9829222,0.0000000000,0.0000000000,0.0000000000, -4.0552300,57.81150
Okehampton,0.00076316459,0.9988553,0.0000000000,0.0000000000,0.0003815823, -4.0042630,50.73831
Llandeilo,0.00000000000,1.0000000,0.0000000000,0.0000000000,0.0000000000, -3.9914300,51.88469
Motherwell,0.00609756098,0.9913793,0.0008410429,0.0000000000,0.0016820858, -3.9810968,55.78321
Golspie,0.02032721864,0.9796728,0.0000000000,0.0000000000,0.0000000000, -3.9760860,57.97341
Airdrie,0.00762418175,0.9905275,0.0009241432,0.0000000000,0.0009241432, -3.9625660,55.86627
Swansea,0.00000000000,1.0000000,0.0000000000,0.0000000000,0.0000000000, -3.9436460,51.62144
Stirling,0.01665014866,0.9827552,0.0000000000,0.0005946482,0.0000000000, -3.9369029,56.11652
Tregaron,0.00000000000,0.9991608,0.0000000000,0.0000000000,0.0008391608, -3.9343850,52.22000
Tregaron,0.00000000000,0.9991608,0.0000000000,0.0000000000,0.0008391608, -3.9343850,52.22000
Castle Douglas,0.00367711434,0.9921205,0.0000000000,0.0010506041,0.0031518123, -3.9314140,54.94042
Dolgellau,0.00000000000,0.9991927,0.0000000000,0.0000000000,0.0008073197, -3.8844000,52.74215
Aberfeldy,0.01310043668,0.9868996,0.0000000000,0.0000000000,0.0000000000, -3.8669690,56.62175
Machynlleth,0.00000000000,0.9991828,0.0000000000,0.0000000000,0.0008172160, -3.8534850,52.59027
Brora,0.02034739454,0.9796526,0.0000000000,0.0000000000,0.0000000000, -3.8525480,58.01216
Llandudno,0.00190930788,0.9980907,0.0000000000,0.0000000000,0.0000000000, -3.8276090,53.32406
Llandudno,0.00190930788,0.9980907,0.0000000000,0.0000000000,0.0000000000, -3.8276090,53.32406
Aviemore,0.00875729775,0.9912427,0.0000000000,0.0000000000,0.0000000000, -3.8238120,57.19449
Dalbeattie,0.00270611582,0.9929641,0.0000000000,0.0010824463,0.0032473390, -3.8225270,54.93422
Falkirk,0.01529775997,0.9830632,0.0000000000,0.0005463486,0.0010926971, -3.7839131,56.00188
Kingsbridge,0.00000000000,1.0000000,0.0000000000,0.0000000000,0.0000000000, -3.7774930,50.28395
Pitlochry,0.01318681319,0.9868132,0.0000000000,0.0000000000,0.0000000000, -3.7297110,56.70436
Colwyn Bay,0.00187822820,0.9981218,0.0000000000,0.0000000000,0.0000000000, -3.7276400,53.29318
Totnes,0.00000000000,1.0000000,0.0000000000,0.0000000000,0.0000000000, -3.6857970,50.43374
Grantown-on-Spey,0.01620526671,0.9837947,0.0000000000,0.0000000000,0.0000000000, -3.6096280,57.33041
Dumfries,0.00263759451,0.9931423,0.0000000000,0.0010550378,0.0031651134, -3.6051200,55.07086
Whitehaven,0.00426482535,0.9908611,0.0000000000,0.0012185215,0.0036555646, -3.5892330,54.54970
Dartmouth,0.00000000000,1.0000000,0.0000000000,0.0000000000,0.0000000000, -3.5788070,50.35252
Bridgend,0.00000000000,1.0000000,0.0000000000,0.0000000000,0.0000000000, -3.5769450,51.50429
Paignton,0.00000000000,1.0000000,0.0000000000,0.0000000000,0.0000000000, -3.5642350,50.43508
Workington,0.00313995215,0.9932715,0.0000000000,0.0008971292,0.0026913876, -3.5427520,54.64357
Llanidloes,0.00000000000,0.9991726,0.0000000000,0.0000000000,0.0008273580, -3.5401950,52.44779
Exeter,0.00000000000,1.0000000,0.0000000000,0.0000000000,0.0000000000, -3.5338990,50.71841
Torquay,0.00000000000,1.0000000,0.0000000000,0.0000000000,0.0000000000, -3.5253150,50.46192
Thurso,0.02181289384,0.9781871,0.0000000000,0.0000000000,0.0000000000, -3.5220800,58.59357
Livingston,0.00557966522,0.9899566,0.0000000000,0.0000000000,0.0044637322, -3.5180680,55.90071
Rhyl,0.00098578822,0.9990142,0.0000000000,0.0000000000,0.0000000000, -3.4916340,53.31914
Tiverton,0.00000000000,0.9990002,0.0000000000,0.0000000000,0.0009998334, -3.4912070,50.90205
Tiverton,0.00000000000,0.9990002,0.0000000000,0.0000000000,0.0009998334, -3.4912070,50.90205
Minehead,0.00000000000,0.9985923,0.0000000000,0.0000000000,0.0014077164, -3.4811520,51.20428
Dunfermline,0.01103091380,0.9865178,0.0000000000,0.0000000000,0.0024513142, -3.4521510,56.07174
Perth,0.00653900047,0.9925269,0.0000000000,0.0000000000,0.0009341429, -3.4308381,56.39499
Prestatyn,0.00088489049,0.9991151,0.0000000000,0.0000000000,0.0000000000, -3.4076130,53.33651
Builth Wells,0.00000000000,0.9975649,0.0000000000,0.0000000000,0.0024350649, -3.4045920,52.15002
Braemar,0.00639658849,0.9936034,0.0000000000,0.0000000000,0.0000000000, -3.3979439,57.00647
Brecon,0.00000000000,0.9961844,0.0000000000,0.0000000000,0.0038155803, -3.3914630,51.94895
Merthyr Tydfil,0.00000000000,0.9969403,0.0000000000,0.0000000000,0.0030596634, -3.3816460,51.74873
Llandrindod Wells,0.00000000000,0.9976994,0.0000000000,0.0000000000,0.0023006135, -3.3777420,52.24170
Corwen,0.00000000000,1.0000000,0.0000000000,0.0000000000,0.0000000000, -3.3692420,52.98005
Cockermouth,0.00270108043,0.9936975,0.0000000000,0.0009003601,0.0027010804, -3.3679850,54.66326
Lockerbie,0.00263250263,0.9931555,0.0000000000,0.0010530011,0.0031590032, -3.3490080,55.12224
Blairgowrie,0.00581508044,0.9918589,0.0000000000,0.0000000000,0.0023260322, -3.3378318,56.58941
Elgin,0.01821651631,0.9817835,0.0000000000,0.0000000000,0.0000000000, -3.3184850,57.64945
Newtown,0.00000000000,0.9964413,0.0000000000,0.0000000000,0.0035587189, -3.3131060,52.51211
Ruthin,0.00000000000,1.0000000,0.0000000000,0.0000000000,0.0000000000, -3.3103108,53.11487
Ruthin,0.00000000000,1.0000000,0.0000000000,0.0000000000,0.0000000000, -3.3103108,53.11487
Sidmouth,0.00000000000,1.0000000,0.0000000000,0.0000000000,0.0000000000, -3.2375600,50.67865
Barrow-in-Furness,0.00111097395,0.9985187,0.0003703247,0.0000000000,0.0000000000, -3.2188940,54.10897
Peebles,0.00594701748,0.9924311,0.0000000000,0.0000000000,0.0016219139, -3.1936420,55.65307
Edinburgh,0.00401036010,0.9939845,0.0000000000,0.0000000000,0.0020051800, -3.1882670,55.95325
Cardiff,0.00000000000,1.0000000,0.0000000000,0.0000000000,0.0000000000, -3.1790900,51.48158
Llangollen,0.00000000000,1.0000000,0.0000000000,0.0000000000,0.0000000000, -3.1716600,52.96921
Kirkcaldy,0.00571864278,0.9927087,0.0000000000,0.0000000000,0.0015726268, -3.1581370,56.11682
Welshpool,0.00000000000,0.9983793,0.0000000000,0.0000000000,0.0016206580, -3.1464070,52.66035
Mold,0.00000000000,1.0000000,0.0000000000,0.0000000000,0.0000000000, -3.1419030,53.16720
Mold,0.00000000000,1.0000000,0.0000000000,0.0000000000,0.0000000000, -3.1419030,53.16720
Taunton,0.00000000000,0.9984047,0.0000000000,0.0000000000,0.0015953204, -3.1068490,51.01534
Wick,0.02635256538,0.9736474,0.0000000000,0.0000000000,0.0000000000, -3.0937160,58.43894
John o' Groats,0.02647943831,0.9735206,0.0000000000,0.0000000000,0.0000000000, -3.0688997,58.63734
Dalkeith,0.00409858462,0.9939341,0.0000000000,0.0000000000,0.0019673206, -3.0666060,55.89312
Oswestry,0.00000000000,0.9988415,0.0000000000,0.0000000000,0.0011584801, -3.0564120,52.85715
Blackpool,0.00057610877,0.9991358,0.0002880544,0.0000000000,0.0000000000, -3.0356748,53.81751
Birkenhead,0.00020788508,0.9997921,0.0000000000,0.0000000000,0.0000000000, -3.0230090,53.38999
Cupar,0.00610842454,0.9923645,0.0000000000,0.0000000000,0.0015271061, -3.0101370,56.32023
Southport,0.00000000000,1.0000000,0.0000000000,0.0000000000,0.0000000000, -3.0101130,53.64571
Bridgwater,0.00000000000,0.9986480,0.0000000000,0.0000000000,0.0013519603, -3.0036320,51.12789
Langholm,0.00449068184,0.9928149,0.0000000000,0.0008981364,0.0017962727, -2.9989130,55.15306
Newport,0.00090033312,0.9990997,0.0000000000,0.0000000000,0.0000000000, -2.9976640,51.58415
Axminster,0.00000000000,0.9978625,0.0000000000,0.0000000000,0.0021375134, -2.9949370,50.78273
Wrexham,0.00000000000,1.0000000,0.0000000000,0.0000000000,0.0000000000, -2.9924940,53.04304
Liverpool,0.00021055513,0.9997894,0.0000000000,0.0000000000,0.0000000000, -2.9915726,53.40837
Weston-super-Mare,0.00000000000,1.0000000,0.0000000000,0.0000000000,0.0000000000, -2.9772550,51.34741
Dundee,0.00351751429,0.9947237,0.0000000000,0.0000000000,0.0017587571, -2.9707210,56.46202
Kirkwall,0.02644760569,0.9735524,0.0000000000,0.0000000000,0.0000000000, -2.9622491,58.98467
Ambleside,0.00425934690,0.9957407,0.0000000000,0.0000000000,0.0000000000, -2.9613330,54.42874
Orkney Islands,0.02644760569,0.9735524,0.0000000000,0.0000000000,0.0000000000, -2.9605206,58.98094
Lyme Regis,0.00000000000,0.9983651,0.0000000000,0.0000000000,0.0016348774, -2.9366390,50.72516
Carlisle,0.00190294957,0.9942912,0.0000000000,0.0009514748,0.0028544244, -2.9329310,54.89247
Chester,0.00000000000,1.0000000,0.0000000000,0.0000000000,0.0000000000, -2.8930750,53.19339
Forfar,0.00393829997,0.9940926,0.0000000000,0.0000000000,0.0019691500, -2.8890620,56.64356
Morecambe,0.00220070423,0.9973592,0.0004401408,0.0000000000,0.0000000000, -2.8649680,54.07417
Selkirk,0.01317647059,0.9840000,0.0000000000,0.0000000000,0.0028235294, -2.8385240,55.55066
Galashiels,0.01344215074,0.9836774,0.0000000000,0.0000000000,0.0028804609, -2.8144490,55.62373
Lancaster,0.00147106898,0.9980386,0.0004903563,0.0000000000,0.0000000000, -2.8007399,54.04657
St Andrews,0.00595868644,0.9924523,0.0000000000,0.0000000000,0.0015889831, -2.7967214,56.33978
Hawick,0.00910332271,0.9881657,0.0000000000,0.0000000000,0.0027309968, -2.7809140,55.42706
Bridport,0.00000000000,0.9986646,0.0000000000,0.0000000000,0.0013354106, -2.7583010,50.73358
Shrewsbury,0.00000000000,0.9988333,0.0000000000,0.0000000000,0.0011666796, -2.7553268,52.70730
Penrith,0.00273772586,0.9950721,0.0000000000,0.0010950903,0.0010950903, -2.7527080,54.66410
Kendal,0.00225191413,0.9977481,0.0000000000,0.0000000000,0.0000000000, -2.7462900,54.32801
Street,0.00000000000,1.0000000,0.0000000000,0.0000000000,0.0000000000, -2.7429190,51.12468
Glastonbury,0.00000000000,1.0000000,0.0000000000,0.0000000000,0.0000000000, -2.7184540,51.14743
Hereford,0.00000000000,1.0000000,0.0000000000,0.0000000000,0.0000000000, -2.7159740,52.05640
Ludlow,0.00000000000,1.0000000,0.0000000000,0.0000000000,0.0000000000, -2.7139129,52.36775
Preston,0.00074008289,0.9992599,0.0000000000,0.0000000000,0.0000000000, -2.7030900,53.76320
Whitchurch,0.00000000000,1.0000000,0.0000000000,0.0000000000,0.0000000000, -2.6820450,52.96872
Wells,0.00000000000,1.0000000,0.0000000000,0.0000000000,0.0000000000, -2.6445979,51.20935
Yeovil,0.00000000000,1.0000000,0.0000000000,0.0000000000,0.0000000000, -2.6333080,50.94206
Wigan,0.00000000000,0.9992982,0.0000000000,0.0000000000,0.0007018365, -2.6325074,53.54506
Warrington,0.00000000000,1.0000000,0.0000000000,0.0000000000,0.0000000000, -2.5969501,53.39004
Arbroath,0.00319148936,0.9946809,0.0000000000,0.0000000000,0.0021276596, -2.5915430,56.55911
Bristol,0.00000000000,0.9991580,0.0000000000,0.0000000000,0.0008419871, -2.5879100,51.45451
Guernsey,0.00000000000,1.0000000,0.0000000000,0.0000000000,0.0000000000, -2.5852780,49.46569
Ross-on-Wye,0.00000000000,1.0000000,0.0000000000,0.0000000000,0.0000000000, -2.5824460,51.91445
Jedburgh,0.01001530115,0.9874809,0.0000000000,0.0000000000,0.0025038253, -2.5549369,55.47772
Sedbergh,0.00244299674,0.9975570,0.0000000000,0.0000000000,0.0000000000, -2.5281740,54.32363
Sedbergh,0.00244299674,0.9975570,0.0000000000,0.0000000000,0.0000000000, -2.5281740,54.32363
Nantwich,0.00000000000,1.0000000,0.0000000000,0.0000000000,0.0000000000, -2.5241020,53.06719
Banff,0.01946729042,0.9802309,0.0000000000,0.0000000000,0.0003018185, -2.5240380,57.66651
Dunbar,0.00546159267,0.9927766,0.0000000000,0.0000000000,0.0017618041, -2.5167370,56.00209
Cinderford,0.00000000000,1.0000000,0.0000000000,0.0000000000,0.0000000000, -2.5009579,51.82530
Banchory,0.00848277402,0.9912196,0.0000000000,0.0000000000,0.0002976412, -2.4909599,57.05386
Blackburn,0.00063672638,0.9993633,0.0000000000,0.0000000000,0.0000000000, -2.4875290,53.74858
Market Drayton,0.00000000000,1.0000000,0.0000000000,0.0000000000,0.0000000000, -2.4834850,52.90355
Telford,0.00000000000,0.9989425,0.0000000000,0.0000000000,0.0010574923, -2.4672611,52.67759
Montrose,0.00310880829,0.9948187,0.0000000000,0.0000000000,0.0020725389, -2.4661150,56.70692
Turriff,0.01905324570,0.9806514,0.0000000000,0.0000000000,0.0002953992, -2.4623000,57.53893
Weymouth,0.00000000000,1.0000000,0.0000000000,0.0000000000,0.0000000000, -2.4576210,50.61443
Crewe,0.00000000000,1.0000000,0.0000000000,0.0000000000,0.0000000000, -2.4438209,53.10041
Fortuneswell,0.00000000000,1.0000000,0.0000000000,0.0000000000,0.0000000000, -2.4422190,50.55919
Dorchester,0.00000000000,1.0000000,0.0000000000,0.0000000000,0.0000000000, -2.4411810,50.71116
Alston,0.00325497288,0.9956600,0.0000000000,0.0000000000,0.0010849910, -2.4386850,54.81217
Kelso,0.00931074615,0.9883616,0.0000000000,0.0000000000,0.0023276865, -2.4322070,55.60003
Wincanton,0.00000000000,1.0000000,0.0000000000,0.0000000000,0.0000000000, -2.4160070,51.05569
Clitheroe,0.00000000000,1.0000000,0.0000000000,0.0000000000,0.0000000000, -2.3930830,53.87110
Sark,0.00000000000,1.0000000,0.0000000000,0.0000000000,0.0000000000, -2.3666256,49.43007
Bath,0.00000000000,0.9992325,0.0000000000,0.0000000000,0.0007674597, -2.3590167,51.38106
Kidderminster,0.00000000000,0.9990928,0.0000000000,0.0000000000,0.0009071666, -2.2496839,52.38860
Manchester,0.00030399174,0.9992020,0.0001519959,0.0000000000,0.0003419907, -2.2426305,53.48076
Burnley,0.00000000000,1.0000000,0.0000000000,0.0000000000,0.0000000000, -2.2405035,53.78929
Gloucester,0.00000000000,0.9981411,0.0009294400,0.0000000000,0.0009294400, -2.2381560,51.86424
Newcastle-under-Lyme,0.00000000000,1.0000000,0.0000000000,0.0000000000,0.0000000000, -2.2273002,53.01321
Worcester,0.00000000000,0.9980557,0.0009721322,0.0000000000,0.0009721322, -2.2215750,52.19364
Trowbridge,0.00000000000,1.0000000,0.0000000000,0.0000000000,0.0000000000, -2.2088530,51.31966
Shaftesbury,0.00000000000,1.0000000,0.0000000000,0.0000000000,0.0000000000, -2.1980830,51.00460
Alderney,0.00000000000,1.0000000,0.0000000000,0.0000000000,0.0000000000, -2.1973557,49.71500
Stoke-on-Trent,0.00000000000,1.0000000,0.0000000000,0.0000000000,0.0000000000, -2.1794040,53.00267
Colne,0.00000000000,1.0000000,0.0000000000,0.0000000000,0.0000000000, -2.1769910,53.85564
Blandford Forum,0.00000000000,1.0000000,0.0000000000,0.0000000000,0.0000000000, -2.1653530,50.85691
Rochdale,0.00000000000,0.9993959,0.0003020464,0.0000000000,0.0003020464, -2.1561000,53.60971
Jersey,0.00000000000,1.0000000,0.0000000000,0.0000000000,0.0000000000, -2.1312500,49.21444
Wolverhampton,0.00000000000,1.0000000,0.0000000000,0.0000000000,0.0000000000, -2.1288200,52.58697
Stafford,0.00000000000,0.9987171,0.0000000000,0.0000000000,0.0012829011, -2.1206600,52.80669
Macclesfield,0.00000000000,0.9992406,0.0005062437,0.0000000000,0.0002531218, -2.1192870,53.25866
Hexham,0.00296735905,0.9970326,0.0000000000,0.0000000000,0.0000000000, -2.1121439,54.97266
Aberdeen,0.01549092566,0.9842053,0.0000000000,0.0000000000,0.0003037436, -2.0942780,57.14972
Dudley,0.00000000000,1.0000000,0.0000000000,0.0000000000,0.0000000000, -2.0811120,52.51226
Cheltenham,0.00000000000,0.9984234,0.0007882809,0.0000000000,0.0007882809, -2.0782533,51.89939
Bromsgrove,0.00000000000,0.9986755,0.0000000000,0.0000000000,0.0013245033, -2.0619060,52.33559
Skipton,0.00000000000,1.0000000,0.0000000000,0.0000000000,0.0000000000, -2.0162787,53.96285
Fraserburgh,0.01701279792,0.9826807,0.0000000000,0.0000000000,0.0003065369, -2.0076310,57.69335
Berwick,0.00883415875,0.9887565,0.0000000000,0.0000000000,0.0024093160, -2.0053950,55.77024
Poole,0.00000000000,1.0000000,0.0000000000,0.0000000000,0.0000000000, -1.9872480,50.71505
Walsall,0.00000000000,1.0000000,0.0000000000,0.0000000000,0.0000000000, -1.9829190,52.58621
Cirencester,0.00019961408,0.9990019,0.0000000000,0.0000000000,0.0007984563, -1.9682430,51.71849
Evesham,0.00000000000,0.9982915,0.0008542749,0.0000000000,0.0008542749, -1.9467700,52.09215
Buxton,0.00000000000,0.9997160,0.0000000000,0.0000000000,0.0002840371, -1.9148300,53.25908
Keighley,0.00000000000,0.9984582,0.0015417823,0.0000000000,0.0000000000, -1.9123580,53.86780
Birmingham,0.00000000000,0.9996597,0.0000000000,0.0000000000,0.0003402793, -1.8904010,52.48624
Bournemouth,0.00000000000,1.0000000,0.0000000000,0.0000000000,0.0000000000, -1.8807690,50.71916
Halifax,0.00000000000,0.9968082,0.0023213077,0.0000000000,0.0008704904, -1.8575400,53.72702
Salisbury,0.00000000000,0.9981999,0.0000000000,0.0000000000,0.0018000600, -1.7944720,51.06878
Ringwood,0.00000000000,1.0000000,0.0000000000,0.0000000000,0.0000000000, -1.7888170,50.84495
Huddersfield,0.00000000000,0.9958816,0.0027455766,0.0000000000,0.0013727883, -1.7850351,53.64579
Peterhead,0.01681588167,0.9828727,0.0000000000,0.0000000000,0.0003114052, -1.7840660,57.50812
Swindon,0.00032341527,0.9983829,0.0000000000,0.0000000000,0.0012936611, -1.7797176,51.55577
Bradford,0.00000000000,0.9976461,0.0023538643,0.0000000000,0.0000000000, -1.7593980,53.79598
Ashbourne,0.00000000000,0.9964314,0.0027755749,0.0000000000,0.0007930214, -1.7321790,53.01663
Marlborough,0.00031867431,0.9996813,0.0000000000,0.0000000000,0.0000000000, -1.7270620,51.42007
Stratford-upon-Avon,0.00059265113,0.9994073,0.0000000000,0.0000000000,0.0000000000, -1.7082980,52.19173
Alnwick,0.00228197619,0.9977180,0.0000000000,0.0000000000,0.0000000000, -1.7062990,55.41274
Otley,0.00000000000,0.9983167,0.0016833442,0.0000000000,0.0000000000, -1.6917860,53.90583
Bishop Auckland,0.00157507875,0.9984249,0.0000000000,0.0000000000,0.0000000000, -1.6787880,54.66382
Burton upon Trent,0.00000000000,0.9988264,0.0011735559,0.0000000000,0.0000000000, -1.6371359,52.81403
Newcastle,0.00078051826,0.9988292,0.0000000000,0.0000000000,0.0003902591, -1.6177800,54.97825
Durham,0.00645035184,0.9929633,0.0005863956,0.0000000000,0.0000000000, -1.5848520,54.77525
Ashington,0.00212479637,0.9978752,0.0000000000,0.0000000000,0.0000000000, -1.5659829,55.18298
Darlington,0.00000000000,1.0000000,0.0000000000,0.0000000000,0.0000000000, -1.5594580,54.52361
Leeds,0.00000000000,0.9975540,0.0015724003,0.0000000000,0.0008735557, -1.5490774,53.80076
Harrogate,0.00000000000,0.9984831,0.0015168752,0.0000000000,0.0000000000, -1.5418120,53.99212
Leamington Spa,0.00035087719,0.9989474,0.0000000000,0.0000000000,0.0007017544, -1.5200789,52.28519
Coventry,0.00036881316,0.9988936,0.0000000000,0.0000000000,0.0007376263, -1.5196930,52.40682
Blyth,0.00284738041,0.9971526,0.0000000000,0.0000000000,0.0000000000, -1.5102770,55.12696
Wakefield,0.00000000000,0.9940828,0.0048413125,0.0000000000,0.0010758472, -1.5059240,53.68330
Andover,0.00000000000,0.9990116,0.0000000000,0.0000000000,0.0009883503, -1.4919233,51.21120
Witney,0.00000000000,0.9992322,0.0000000000,0.0000000000,0.0007677543, -1.4850544,51.78594
Barnsley,0.00000000000,0.9943700,0.0048257373,0.0000000000,0.0008042895, -1.4797260,53.55263
Derby,0.00000000000,0.9969908,0.0021494591,0.0000000000,0.0008597836, -1.4746186,52.92253
Sheffield,0.00000000000,0.9943014,0.0045956727,0.0000000000,0.0011029615, -1.4700850,53.38113
Nuneaton,0.00000000000,0.9991634,0.0000000000,0.0000000000,0.0008365634, -1.4653820,52.52049
Northallerton,0.00000000000,1.0000000,0.0000000000,0.0000000000,0.0000000000, -1.4299590,54.33796
South Shields,0.00196202723,0.9975852,0.0001509252,0.0000000000,0.0003018503, -1.4274060,54.99942
Chesterfield,0.00000000000,0.9950777,0.0042191126,0.0000000000,0.0007031854, -1.4216290,53.23505
Southampton,0.00000000000,1.0000000,0.0000000000,0.0000000000,0.0000000000, -1.4043509,50.90970
Wetherby,0.00000000000,0.9976355,0.0015200392,0.0000000000,0.0008444662, -1.3848160,53.92706
Sunderland,0.00402676248,0.9956635,0.0003097510,0.0000000000,0.0000000000, -1.3838010,54.90687
Rotherham,0.00000000000,0.9938455,0.0050355285,0.0000000000,0.0011190063, -1.3635009,53.43260
Castleford,0.00000000000,0.9951669,0.0048331415,0.0000000000,0.0000000000, -1.3459680,53.72347
Thirsk,0.00000000000,0.9983934,0.0016066408,0.0000000000,0.0000000000, -1.3413770,54.23385
Banbury,0.00000000000,1.0000000,0.0000000000,0.0000000000,0.0000000000, -1.3397750,52.06290
Stockton,0.00106767898,0.9989323,0.0000000000,0.0000000000,0.0000000000, -1.3289821,54.57046
Newbury,0.00000000000,1.0000000,0.0000000000,0.0000000000,0.0000000000, -1.3231139,51.40141
Isle of Wight,0.00000000000,1.0000000,0.0000000000,0.0000000000,0.0000000000, -1.3047340,50.69385
Isle of Wight,0.00000000000,1.0000000,0.0000000000,0.0000000000,0.0000000000, -1.3047340,50.69385
Abingdon,0.00000000000,0.9992130,0.0000000000,0.0000000000,0.0007869885, -1.2879529,51.67078
Shetland Islands,0.02889060092,0.9711094,0.0000000000,0.0000000000,0.0000000000, -1.2659409,60.52965
Rugby,0.00000000000,0.9991872,0.0000000000,0.0000000000,0.0008127879, -1.2650320,52.37088
Oxford,0.00000000000,1.0000000,0.0000000000,0.0000000000,0.0000000000, -1.2577263,51.75202
Middlesbrough,0.00105158614,0.9989484,0.0000000000,0.0000000000,0.0000000000, -1.2349560,54.57423
Hartlepool,0.00198425822,0.9980157,0.0000000000,0.0000000000,0.0000000000, -1.2129260,54.69174
Loughborough,0.00000000000,0.9989306,0.0010693916,0.0000000000,0.0000000000, -1.2061660,52.77210
Mansfield,0.00000000000,0.9970654,0.0020961431,0.0000000000,0.0008384572, -1.1986740,53.14720
Nottingham,0.00000000000,0.9988018,0.0011982266,0.0000000000,0.0000000000, -1.1581086,52.95478
Bicester,0.00000000000,1.0000000,0.0000000000,0.0000000000,0.0000000000, -1.1535899,51.89960
Leicester,0.00000000000,0.9989958,0.0010041841,0.0000000000,0.0000000000, -1.1397592,52.63688
Doncaster,0.00000000000,0.9944761,0.0045195849,0.0000000000,0.0010043522, -1.1284620,53.52282
Worksop,0.00000000000,0.9958478,0.0013840830,0.0000000000,0.0027681661, -1.1227450,53.30930
Basingstoke,0.00000000000,0.9995940,0.0000000000,0.0000000000,0.0004060364, -1.0923964,51.26654
Portsmouth,0.00000000000,1.0000000,0.0000000000,0.0000000000,0.0000000000, -1.0879769,50.81977
York,0.00040085516,0.9995991,0.0000000000,0.0000000000,0.0000000000, -1.0872979,53.95997
Selby,0.00035773909,0.9978536,0.0017886954,0.0000000000,0.0000000000, -1.0671890,53.78352
Helmsley,0.00048138639,0.9995186,0.0000000000,0.0000000000,0.0000000000, -1.0562636,54.24651
Towcester,0.00000000000,1.0000000,0.0000000000,0.0000000000,0.0000000000, -0.9896880,52.13511
Reading,0.00000000000,0.9995521,0.0000000000,0.0000000000,0.0004478949, -0.9781303,51.45426
Retford,0.00000000000,0.9941644,0.0038904198,0.0000000000,0.0019452099, -0.9455030,53.32136
Petersfield,0.00000000000,1.0000000,0.0000000000,0.0000000000,0.0000000000, -0.9389900,51.00759
Northampton,0.00000000000,1.0000000,0.0000000000,0.0000000000,0.0000000000, -0.9026560,52.24048
Melton Mowbray,0.00000000000,0.9992417,0.0000000000,0.0000000000,0.0007583418, -0.8871260,52.76640
Aylesbury,0.00000000000,1.0000000,0.0000000000,0.0000000000,0.0000000000, -0.8084000,51.81561
Newark-on-Trent,0.00000000000,0.9972644,0.0027355623,0.0000000000,0.0000000000, -0.8065700,53.07004
Malton,0.00037584565,0.9984966,0.0003758457,0.0000000000,0.0007516913, -0.7978970,54.13684
Chichester,0.00000000000,0.9996706,0.0000000000,0.0000000000,0.0003294350, -0.7749360,50.83761
Gainsborough,0.00000000000,0.9962963,0.0029629630,0.0000000000,0.0007407407, -0.7744650,53.40058
Milton Keynes,0.00000000000,1.0000000,0.0000000000,0.0000000000,0.0000000000, -0.7594171,52.04062
Aldershot,0.00000000000,1.0000000,0.0000000000,0.0000000000,0.0000000000, -0.7557509,51.24837
High Wycombe,0.00000000000,1.0000000,0.0000000000,0.0000000000,0.0000000000, -0.7482290,51.62861
Midhurst,0.00000000000,0.9993536,0.0000000000,0.0000000000,0.0006464124, -0.7372740,50.98690
Kettering,0.00000000000,1.0000000,0.0000000000,0.0000000000,0.0000000000, -0.7302490,52.39632
Wellingborough,0.00000000000,1.0000000,0.0000000000,0.0000000000,0.0000000000, -0.6939640,52.30242
Corby,0.00000000000,1.0000000,0.0000000000,0.0000000000,0.0000000000, -0.6842333,52.49230
Bognor Regis,0.00000000000,0.9996832,0.0000000000,0.0000000000,0.0003167583, -0.6730610,50.78300
Scunthorpe,0.00000000000,0.9952092,0.0047908017,0.0000000000,0.0000000000, -0.6544130,53.58865
Grantham,0.00000000000,0.9991996,0.0000000000,0.0000000000,0.0008004269, -0.6435820,52.91252
Whitby,0.00120894620,0.9967761,0.0004029821,0.0000000000,0.0016119283, -0.6133470,54.48633
Slough,0.00000000000,1.0000000,0.0000000000,0.0000000000,0.0000000000, -0.5950406,51.51054
Guildford,0.00000000000,1.0000000,0.0000000000,0.0000000000,0.0000000000, -0.5704090,51.23622
Woking,0.00000000000,1.0000000,0.0000000000,0.0000000000,0.0000000000, -0.5600349,51.31677
Lincoln,0.00000000000,0.9968254,0.0031746032,0.0000000000,0.0000000000, -0.5405790,53.23069
Bedford,0.00164338537,0.9983566,0.0000000000,0.0000000000,0.0000000000, -0.4667782,52.13864
Heathrow,0.00000000000,1.0000000,0.0000000000,0.0000000000,0.0000000000, -0.4542955,51.47002
Driffield,0.00000000000,0.9983498,0.0006600660,0.0000000000,0.0009900990, -0.4433770,54.00600
Beverley,0.00000000000,0.9992582,0.0003709199,0.0000000000,0.0003709199, -0.4350930,53.84196
Luton,0.00000000000,1.0000000,0.0000000000,0.0000000000,0.0000000000, -0.4200255,51.87867
Scarborough,0.00000000000,0.9961676,0.0007664793,0.0000000000,0.0030659172, -0.3997520,54.28311
Worthing,0.00000000000,0.9997707,0.0000000000,0.0000000000,0.0002293169, -0.3728820,50.81787
Dorking,0.00088274239,0.9991173,0.0000000000,0.0000000000,0.0000000000, -0.3323780,51.23220
Hull,0.00000000000,0.9986687,0.0009985022,0.0000000000,0.0003328341, -0.3274198,53.76762
Horsham,0.00000000000,0.9993829,0.0000000000,0.0000000000,0.0006170526, -0.3258580,51.06288
Biggleswade,0.00150451354,0.9984955,0.0000000000,0.0000000000,0.0000000000, -0.2642200,52.08694
Peterborough,0.00000000000,1.0000000,0.0000000000,0.0000000000,0.0000000000, -0.2405299,52.56950
Welwyn Garden City,0.00000000000,1.0000000,0.0000000000,0.0000000000,0.0000000000, -0.2086610,51.80317
Bridlington,0.00000000000,0.9983220,0.0006712160,0.0000000000,0.0010068240, -0.1988020,54.08535
Stevenage,0.00000000000,1.0000000,0.0000000000,0.0000000000,0.0000000000, -0.1966120,51.90376
Crawley,0.00000000000,1.0000000,0.0000000000,0.0000000000,0.0000000000, -0.1872275,51.10914
Huntingdon,0.00000000000,1.0000000,0.0000000000,0.0000000000,0.0000000000, -0.1825520,52.33146
Hove,0.00000000000,1.0000000,0.0000000000,0.0000000000,0.0000000000, -0.1687490,50.82793
Spalding,0.00000000000,0.9995157,0.0000000000,0.0000000000,0.0004843006, -0.1537024,52.79010
Brighton,0.00000000000,1.0000000,0.0000000000,0.0000000000,0.0000000000, -0.1371630,50.82253
London,0.00023871539,0.9994271,0.0000000000,0.0000000000,0.0003342016, -0.1277583,51.50735
Grimsby,0.00000000000,0.9986598,0.0010051374,0.0000000000,0.0003350458, -0.0807840,53.56747
Boston,0.00000000000,0.9992157,0.0000000000,0.0000000000,0.0007843137, -0.0265770,52.97894
Royston,0.00000000000,1.0000000,0.0000000000,0.0000000000,0.0000000000, -0.0240660,52.04814
Louth_Lincs,0.00000000000,0.9976617,0.0023382697,0.0000000000,0.0000000000, -0.0077110,53.36596
Lewes,0.00000000000,1.0000000,0.0000000000,0.0000000000,0.0000000000,  0.0087800,50.87387
Chatteris,0.00000000000,1.0000000,0.0000000000,0.0000000000,0.0000000000,  0.0540120,52.45610
Uckfield,0.00000000000,1.0000000,0.0000000000,0.0000000000,0.0000000000,  0.0959130,50.96641
Cambridge,0.00000000000,1.0000000,0.0000000000,0.0000000000,0.0000000000,  0.1218170,52.20534
Bishop's Stortford,0.00000000000,1.0000000,0.0000000000,0.0000000000,0.0000000000,  0.1536502,51.87216
Wisbech,0.00000000000,1.0000000,0.0000000000,0.0000000000,0.0000000000,  0.1587970,52.66632
Sevenoaks,0.00000000000,1.0000000,0.0000000000,0.0000000000,0.0000000000,  0.1908980,51.27241
Tunbridge Wells,0.00000000000,1.0000000,0.0000000000,0.0000000000,0.0000000000,  0.2636950,51.13238
Eastbourne,0.00000000000,0.9995159,0.0000000000,0.0000000000,0.0004840835,  0.2904720,50.76803
Brentwood,0.00000000000,0.9988473,0.0000000000,0.0000000000,0.0011527378,  0.3071749,51.62047
Skegness,0.00000000000,0.9994597,0.0000000000,0.0000000000,0.0005403458,  0.3378810,53.14640
Downham Market,0.00000000000,0.9985736,0.0000000000,0.0000000000,0.0014263640,  0.3854720,52.60661
King's Lynn,0.00000000000,0.9986892,0.0000000000,0.0000000000,0.0013107591,  0.4022963,52.75168
Bexhill,0.00000000000,0.9989454,0.0000000000,0.0000000000,0.0010545536,  0.4662071,50.84991
Chelmsford,0.00025948190,0.9987026,0.0000000000,0.0000000000,0.0010379276,  0.4685497,51.73559
Mildenhall,0.00000000000,1.0000000,0.0000000000,0.0000000000,0.0000000000,  0.5156095,52.34757
Medway,0.00000000000,1.0000000,0.0000000000,0.0000000000,0.0000000000,  0.5417861,51.40474
Braintree,0.00056279899,0.9994372,0.0000000000,0.0000000000,0.0000000000,  0.5509269,51.88009
Gillingham,0.00000000000,1.0000000,0.0000000000,0.0000000000,0.0000000000,  0.5514380,51.38632
Hastings,0.00000000000,0.9990047,0.0000000000,0.0000000000,0.0009952541,  0.5734530,50.85426
Maldon,0.00051777701,0.9994822,0.0000000000,0.0000000000,0.0000000000,  0.6714480,51.73181
Southend,0.00000000000,0.9990456,0.0000000000,0.0000000000,0.0009543502,  0.7077123,51.54593
Bury St Edmunds,0.00000000000,1.0000000,0.0000000000,0.0000000000,0.0000000000,  0.7104932,52.24292
Thetford,0.00000000000,0.9992634,0.0000000000,0.0000000000,0.0007365578,  0.7516570,52.41286
Ashford,0.00000000000,1.0000000,0.0000000000,0.0000000000,0.0000000000,  0.8750190,51.14647
Faversham,0.00000000000,1.0000000,0.0000000000,0.0000000000,0.0000000000,  0.8893580,51.31599
Colchester,0.00000000000,0.9990632,0.0000000000,0.0000000000,0.0009368413,  0.8918740,51.89593
New Romney,0.00000000000,1.0000000,0.0000000000,0.0000000000,0.0000000000,  0.9394730,50.98512
Canterbury,0.00000000000,1.0000000,0.0000000000,0.0000000000,0.0000000000,  1.0789089,51.28023
Ipswich,0.00000000000,0.9991949,0.0000000000,0.0000000000,0.0008050990,  1.1482200,52.05674
Clacton,0.00000000000,0.9990825,0.0000000000,0.0000000000,0.0009175013,  1.1530350,51.78953
Folkestone,0.00000000000,1.0000000,0.0000000000,0.0000000000,0.0000000000,  1.1694560,51.08140
Sheringham,0.00000000000,0.9985387,0.0000000000,0.0000000000,0.0014612762,  1.2109589,52.94442
Harwich,0.00000000000,0.9992042,0.0000000000,0.0000000000,0.0007958087,  1.2602970,51.93473
Norwich,0.00000000000,0.9983023,0.0000000000,0.0000000000,0.0016976968,  1.2973550,52.63089
Cromer,0.00000000000,0.9983153,0.0000000000,0.0000000000,0.0016847307,  1.3018660,52.93145
Dover,0.00000000000,1.0000000,0.0000000000,0.0000000000,0.0000000000,  1.3134027,51.12788
Felixstowe,0.00000000000,0.9991943,0.0000000000,0.0000000000,0.0008057477,  1.3512550,51.96173
Margate,0.00000000000,1.0000000,0.0000000000,0.0000000000,0.0000000000,  1.3868339,51.38965
Ramsgate,0.00000000000,1.0000000,0.0000000000,0.0000000000,0.0000000000,  1.4198950,51.33555
Great Yarmouth,0.00000000000,0.9988661,0.0000000000,0.0000000000,0.0011338583,  1.7280470,52.59823
Lowestoft,0.00000000000,0.9988618,0.0000000000,0.0000000000,0.0011381600,  1.7534490,52.48114
Swaffham,0.00000000000,0.9984641,0.0000000000,0.0000000000,0.0015359017,  0.6874810,52.64747
Dereham,0.00000000000,0.9985323,0.0000000000,0.0000000000,0.0014677104,  0.9378270,52.68162
Ely,0.00000000000,1.0000000,0.0000000000,0.0000000000,0.0000000000,  0.2623630,52.39954
March,0.00000000000,1.0000000,0.0000000000,0.0000000000,0.0000000000,  0.0886220,52.55172
St Neots,0.00189393939,0.9981061,0.0000000000,0.0000000000,0.0000000000, -0.2651030,52.23008
Banham,0.00000000000,0.9987358,0.0000000000,0.0000000000,0.0012642225,  1.0402849,52.45125
Holt,0.00000000000,0.9985419,0.0000000000,0.0000000000,0.0014580802,  1.0867470,52.90936
Cromer,0.00000000000,0.9983153,0.0000000000,0.0000000000,0.0016847307,  1.3018660,52.93145
Hunstanton,0.00000000000,0.9983246,0.0000000000,0.0000000000,0.0016753537,  0.4910320,52.93891
Horncastle,0.00000000000,0.9975621,0.0020315568,0.0000000000,0.0004063114, -0.1124500,53.20731
Market Weighton,0.00000000000,0.9992722,0.0003639010,0.0000000000,0.0003639010, -0.6677465,53.86484
Hawes,0.00275862069,0.9972414,0.0000000000,0.0000000000,0.0000000000, -2.1968695,54.30383
Reeth,0.00082576383,0.9991742,0.0000000000,0.0000000000,0.0000000000, -1.9428115,54.38946
Aysgarth,0.00000000000,1.0000000,0.0000000000,0.0000000000,0.0000000000, -1.9967434,54.29159
Stanhope,0.00297206261,0.9970279,0.0000000000,0.0000000000,0.0000000000, -2.0113020,54.74946
Keswick,0.00354729730,0.9934122,0.0000000000,0.0010135135,0.0020270270, -3.1347060,54.60128
Oxenholme,0.00233463035,0.9976654,0.0000000000,0.0000000000,0.0000000000, -2.7243328,54.30134
