,Unnamed:_0,Unnamed:_0,placename,should_have,should_of,longitude,latitude
0,0,0,Abbeyfeale,0.8954328777675831,0.10456684623687326,-9.2970823,52.386179999999996
1,1,1,Aberaeron,0.6076449296274004,0.3923551985889904,-4.2581619,52.24279
2,2,2,Aberdeen,0.6268120252396701,0.3731880406960887,-2.094278,57.149719999999995
3,3,3,Aberfeldy,0.7272730485134532,0.27272682299017703,-3.866969,56.62175
4,4,4,Aberystwyth,0.618879574454552,0.38112031620030057,-4.08292,52.4153
5,5,5,Abingdon,0.7800698719994921,0.21992987238758088,-1.2879528999999998,51.67078
6,6,6,Achnasheen,0.7757311412151752,0.22426907509162305,-5.078765799999998,57.57859000000001
7,7,7,Adare,0.895419332116973,0.10458062746644987,-8.7925892,52.56363
8,8,8,Airdrie,1.0,0.01,-3.9625660000000003,55.86626999999999
9,9,9,Alderney,0.42289992355541545,0.5770997661490244,-2.1973557,49.715
10,10,10,Aldershot,0.6353728764247969,0.3646271879984101,-0.7557509,51.24837
11,11,11,Alness,0.7011352433093326,0.29886486838896303,-4.256825,57.69595
12,12,12,Alnwick,0.4033494271367678,0.5966507960691927,-1.7062990000000002,55.41274
13,13,13,Alston,0.25693684546532913,0.7430634036091625,-2.438685,54.812169999999995
14,14,14,Altnaharra,0.6679065844818672,0.3320935919814917,-4.442655,58.28023
15,15,15,Ambleside,0.357155813852136,0.6428441819388505,-2.961333,54.42874000000001
16,16,16,Andover,0.7513654604755581,0.2486344656655093,-1.4919233,51.2112
17,17,17,Antrim,0.8332265386386747,0.16677337303897954,-6.2072498,54.719530000000006
18,18,18,Antrim,0.8332265386386747,0.16677337303897954,-6.2072498,54.719530000000006
19,19,19,Arbroath,0.6710320961246489,0.328968020892344,-2.591543,56.55911
20,20,20,Armagh,0.8174994493398566,0.1825007595872156,-6.652792,54.35028000000001
21,21,21,Armagh,0.8174994493398566,0.1825007595872156,-6.652792,54.35028000000001
22,22,22,Ashbourne,0.38000968219547976,0.6199900739810561,-1.7321790000000001,53.016630000000006
23,23,23,Ashford,0.5995434526803314,0.4004562647084442,0.8750190000000001,51.14647
24,24,24,Ashington,0.4681300288227893,0.5318700062551469,-1.5659829,55.18298000000001
25,25,25,Athlone,0.8163251003261562,0.18367457876111096,-7.9406898,53.42393000000001
26,26,26,Aviemore,0.6754597570499221,0.32454030029063663,-3.823812,57.19449
27,27,27,Axminster,0.2492794302817144,0.7507205256749899,-2.9949369999999997,50.78273
28,28,28,Aylesbury,0.7186615483738743,0.2813384424395438,-0.8084,51.81561
29,29,29,Ayr,0.7250386051042372,0.2749610901117498,-4.629179,55.45856
30,30,30,Aysgarth,0.5460646351331775,0.4539352094926522,-1.9967433999999997,54.29159
31,31,31,Balivanich,0.6499126600006363,0.3500873429595025,-7.3743509000000005,57.472269999999995
32,32,32,Ballachulish,0.6860271313492293,0.3139730419125472,-5.133719999999999,56.67393000000001
33,33,33,Ballycastle,0.8262734972867475,0.1737262978310994,-9.3724643,54.279669999999996
34,34,34,Ballymena,0.6843286245510798,0.31567125454007583,-6.2802213,54.86529
35,35,35,Banbridge,0.7885135238597804,0.2114865135061645,-6.2704803,54.34873
36,36,36,Banbury,0.5772708694305292,0.4227291463641376,-1.339775,52.0629
37,37,37,Banchory,0.6548733128303225,0.3451268070416429,-2.4909599,57.05386
38,38,38,Banff,0.527967056977718,0.4720328497397791,-2.524038,57.666509999999995
39,39,39,Bangor,0.5233179541120471,0.4766823067917256,-4.129263,53.22739
40,40,40,Banham,0.5646475009452515,0.4353526348680302,1.0402849,52.45125
41,41,41,Bantry,0.8571817272706929,0.14281835685693026,-9.4539805,51.68035
42,42,42,Barnsley,0.9046645331285396,0.09533554260970667,-1.479726,53.55263000000001
43,43,43,Barnstaple,0.545502785103554,0.4544974129864059,-4.058338,51.07816
44,44,44,Barrow-in-Furness,0.26827161031872365,0.7317282244941095,-3.2188939999999997,54.10896999999999
45,45,45,Basingstoke,0.520493980430658,0.4795062220779184,-1.0923964,51.26654
46,46,46,Bath,0.535922476474739,0.4640777822020366,-2.3590167,51.38106
47,47,47,Bedford,0.5739309831433211,0.42606903324144463,-0.46677820000000003,52.13864
48,48,48,Belfast,0.8587506669760581,0.14124912240364432,-5.93012,54.59728000000001
49,49,49,Berwick,0.5563952550174858,0.4436044699948177,-2.005395,55.77024
50,50,50,Beverley,0.2584144992644133,0.7415855728665728,-0.435093,53.84196
51,51,51,Bexhill,0.5885773651000438,0.4114224131203901,0.4662071,50.849909999999994
52,52,52,Bicester,0.7882084522504043,0.21179164406358514,-1.1535898999999998,51.8996
53,53,53,Bideford,0.5919584772804107,0.40804153591921416,-4.206666,51.01668
54,54,54,Biggleswade,0.5732766693247556,0.42672346496390345,-0.26421999999999995,52.08694000000001
55,55,55,Birkenhead,0.05352416602962904,0.9464757067253046,-3.023009,53.389990000000004
56,56,56,Birmingham,0.4344737985891323,0.5655262424352681,-1.8904009999999998,52.48624
57,57,57,Bishop Auckland,0.36241564887789096,0.6375841104072016,-1.6787880000000002,54.663819999999994
58,58,58,Bishop's Stortford,0.4292080741500701,0.5707922033812659,0.15365020000000001,51.87216
59,59,59,Blackburn,0.3907290033581435,0.6092706920303326,-2.487529,53.748580000000004
60,60,60,Blackpool,0.1555034800543241,0.8444967280475172,-3.0356748,53.81751
61,61,61,Blairgowrie,0.7125919190182115,0.2874080728676035,-3.3378318,56.58941
62,62,62,Blandford Forum,0.4355780635844621,0.564422212821408,-2.165353,50.85691
63,63,63,Blyth,0.3689440635302792,0.6310561068603608,-1.510277,55.12696
64,64,64,Bodmin,0.4880427241599048,0.5119573073998076,-4.7188629,50.4715
65,65,65,Bognor Regis,0.3560268133209102,0.6439731826695501,-0.673061,50.783
66,66,66,Boston,0.3542853138056101,0.6457147413866873,-0.026576999999999996,52.97894
67,67,67,Bournemouth,0.4447148993911532,0.5552853165062556,-1.880769,50.719159999999995
68,68,68,Bradford,0.5086862956885961,0.4913134966471858,-1.759398,53.79598000000001
69,69,69,Braemar,0.7936208230808469,0.2063790955944413,-3.3979439,57.00646999999999
70,70,70,Braintree,0.5108111960102761,0.4891887726325039,0.5509269,51.88009
71,71,71,Brecon,0.44143390723702974,0.5585662503459294,-3.391463,51.94895
72,72,72,Brentwood,0.21786588863590609,0.7821340139768757,0.30717490000000003,51.62047000000001
73,73,73,Bridgend,0.5139096163518391,0.486090587320079,-3.576945,51.50429000000001
74,74,74,Bridgwater,0.3598466867927553,0.6401532496286576,-3.003632,51.12789
75,75,75,Bridlington,0.2430089719322341,0.7569912207089239,-0.198802,54.08535
76,76,76,Bridport,0.2828749995582945,0.717124773780233,-2.758301,50.733579999999996
77,77,77,Brighton,0.7885576944595938,0.21144193063954267,-0.137163,50.82253
78,78,78,Bristol,0.49059107329846,0.509409016705147,-2.58791,51.45451
79,79,79,Broadford,0.6375855290047714,0.362414181662637,-5.9096592,57.24139
80,80,80,Bromsgrove,0.3672826600359728,0.6327172750716343,-2.061906,52.33559
81,81,81,Brora,0.6658017081654357,0.33419805641081296,-3.852548000000001,58.012159999999994
82,82,82,Bude,0.5674708856853099,0.4325288373701243,-4.543678,50.82664000000001
83,83,83,Builth Wells,0.5063870687329882,0.4936131951621758,-3.4045919999999996,52.15002
84,84,84,Burnley,0.3681913965094624,0.6318086562258736,-2.2405035,53.78929
85,85,85,Burton upon Trent,0.2695325337080581,0.7304674775644231,-1.6371358999999999,52.81403
86,86,86,Bury St Edmunds,0.5612163287517625,0.4387835720911725,0.7104931999999999,52.24292
87,87,87,Buxton,0.5451965356115156,0.4548032502735485,-1.91483,53.259080000000004
88,88,88,Caernarfon,0.5236359824307025,0.4763638661578762,-4.273911,53.13955
89,89,89,Cambridge,0.8174717690973066,0.18252808646979488,0.12181700000000001,52.20534
90,90,90,Camelford,0.4500990010377153,0.5499009194376998,-4.682364,50.62206
91,91,91,Campbeltown,0.6875106745616221,0.31248902728489103,-5.605373999999999,55.424119999999995
92,92,92,Canterbury,0.571377922474119,0.42862185878515385,1.0789089,51.280229999999996
93,93,93,Cardiff,0.7894964669409562,0.210503629145463,-3.17909,51.48158
94,94,94,Cardigan,0.5039394285620064,0.4960603646124644,-4.660864,52.0837
95,95,95,Carlisle,0.2301117457281143,0.7698883314034703,-2.932931,54.892469999999996
96,96,96,Carlow,0.6861337297301126,0.3138659134655392,-6.934135899999999,52.83651
97,97,97,Carmarthen,0.6354282369098951,0.3645716508210992,-4.312131,51.857620000000004
98,98,98,Castle Douglas,0.3179022852101524,0.6820978353045299,-3.9314139999999997,54.940419999999996
99,99,99,Castleford,0.5127653033460122,0.4872346060573686,-1.345968,53.72346999999999
100,100,100,Cavan,0.6972276175791925,0.3027721414446509,-7.3633319,53.98972
101,101,101,Charleville,0.8559402389452765,0.14405972761340846,-8.681017599999999,52.36206
102,102,102,Chatteris,0.40172394906364217,0.5982759210646504,0.054012,52.4561
103,103,103,Chelmsford,0.2419871587232227,0.7580126218394678,0.4685497,51.73559
104,104,104,Cheltenham,0.5435204085839386,0.4564797898562729,-2.0782533,51.899390000000004
105,105,105,Chester,0.33545155898659657,0.6645484406391496,-2.893075,53.19339
106,106,106,Chesterfield,0.5183773252876099,0.4816228187007987,-1.421629,53.23505
107,107,107,Chichester,0.3206862108810442,0.6793137324593364,-0.774936,50.83761
108,108,108,Cinderford,0.3838419234352713,0.6161581265348917,-2.5009579,51.8253
109,109,109,Cirencester,0.6386727147015079,0.3613275258211065,-1.968243,51.71849
110,110,110,Clacton,0.4228563418969325,0.5771435244976373,1.153035,51.78953
111,111,111,Clare,0.9397872272759936,0.06021272446840231,-8.9811351,52.90453
112,112,112,Claremorris,0.9295172683487621,0.07048250852772472,-9.0017356,53.72388
113,113,113,Clitheroe,0.3651583486556239,0.6348415279331683,-2.3930830000000003,53.8711
114,114,114,Cockermouth,0.2328774142177505,0.7671224857427585,-3.367985,54.66326
115,115,115,Colchester,0.4582876413017489,0.5417126310917377,0.891874,51.89593
116,116,116,Coleraine,0.6719361210674925,0.328063583530771,-6.6646103000000005,55.132580000000004
117,117,117,Colne,0.4055031855836589,0.5944969783476269,-2.176991,53.85564
118,118,118,Colwyn Bay,0.2515721788826845,0.7484278944572187,-3.72764,53.29318000000001
119,119,119,Cookstown,0.7605305654661304,0.2394695357380557,-6.7443895000000005,54.641819999999996
120,120,120,Corby,0.3868891058810511,0.6131106490800114,-0.6842333,52.4923
121,121,121,Cork,0.7997852719907744,0.20021441001878887,-8.4756035,51.898509999999995
122,122,122,Corwen,0.17775839506420044,0.8222416913173012,-3.369242,52.98005
123,123,123,Coventry,0.4797545528109582,0.5202455391072719,-1.519693,52.40682
124,124,124,Craigavon,0.7728518070486854,0.22714805640197885,-6.4175653,54.442930000000004
125,125,125,Crawley,0.5952406473171958,0.4047591297259531,-0.18722750000000002,51.109140000000004
126,126,126,Crewe,0.3676171787118912,0.6323826974424687,-2.4438209,53.10041
127,127,127,Cromer,0.5390085290483536,0.4609917290831706,1.301866,52.93145
128,128,128,Cromer,0.5390085290483536,0.4609917290831706,1.301866,52.93145
129,129,129,Cumnock,0.7692516086932453,0.23074854986422835,-4.265828900000002,55.45355
130,130,130,Cupar,0.6812755526919914,0.31872426804444404,-3.010137,56.32023
131,131,131,Dalbeattie,0.31595406728772496,0.6840456413121685,-3.8225269999999996,54.934219999999996
132,132,132,Dalkeith,0.9634361664159746,0.03656401672664348,-3.066606,55.893119999999996
133,133,133,Dalwhinnie,0.8479047234272618,0.15209506786872753,-4.242783,56.9366
134,134,134,Darlington,0.1204090550907502,0.8795911592116594,-1.559458,54.52361
135,135,135,Dartmouth,0.5150456841790338,0.4849542248214432,-3.578807,50.35252
136,136,136,Derby,0.2622673534507846,0.7377325413170391,-1.4746186000000001,52.92253
137,137,137,Dereham,0.562089139804072,0.43791064309636657,0.9378270000000001,52.681619999999995
138,138,138,Derry,0.6526041218825868,0.3473959394961617,-7.308574799999999,54.99661
139,139,139,Derry,0.6526041218825868,0.3473959394961617,-7.308574799999999,54.99661
140,140,140,Dingle,0.9027398728593452,0.09725973206580572,-10.264013499999999,52.14094
141,141,141,Dolgellau,0.5977778065704651,0.4022219700244122,-3.8844,52.74215
142,142,142,Doncaster,0.5489840173101644,0.4510158267998624,-1.128462,53.522819999999996
143,143,143,Donegal,0.6746010805895546,0.3253991535851485,-8.1096143,54.653830000000006
144,144,144,Doon,0.7148275403100899,0.2851724511807304,-7.60964,54.185930000000006
145,145,145,Dorchester,0.36034552009997856,0.6396544162332989,-2.4411810000000003,50.71116
146,146,146,Dorking,0.6837638298148015,0.3162361671644301,-0.332378,51.2322
147,147,147,Dover,0.5198832482705741,0.4801169543459077,1.3134027,51.12788
148,148,148,Down,0.8238765060702189,0.17612340725942166,-5.7156921999999994,54.32875
149,149,149,Downham Market,0.25882440243067906,0.7411756696278836,0.385472,52.606609999999996
150,150,150,Driffield,0.23945647782459265,0.7605434798676551,-0.443377,54.006
151,151,151,Drogheda,0.7703876765204408,0.229612246259736,-6.3560985,53.717859999999995
152,152,152,Dublin,0.8615357705296115,0.13846395946386775,-6.2603097000000005,53.34981
153,153,153,Dudley,0.296623245985481,0.7033765838181154,-2.081112,52.51226
154,154,154,Dumbarton,0.8806192364729009,0.11938096130201285,-4.564554,55.94529
155,155,155,Dumfries,0.2301341254986869,0.7698657749465135,-3.60512,55.070859999999996
156,156,156,Dunbar,0.7947368669027925,0.20526311046945284,-2.516737,56.00209
157,157,157,Dundee,0.7305899660887581,0.26940984593468736,-2.9707209999999997,56.462019999999995
158,158,158,Dunfermline,0.7085146781847896,0.2914851966331161,-3.452151,56.07174000000001
159,159,159,Dungannon,0.7629428691572607,0.2370572316207132,-6.7669352,54.508269999999996
160,160,160,Dunoon,0.8454517827843031,0.15454806783922154,-4.926214,55.95097
161,161,161,Dunvegan,0.6464402619139884,0.3535599183420921,-6.5813982000000015,57.4366
162,162,162,Durham,0.3588472533543153,0.6411524476671057,-1.5848520000000001,54.77525
163,163,163,Eastbourne,0.7297866501134893,0.2702135154167494,0.29047199999999995,50.768029999999996
164,164,164,Edinburgh,0.9637842307425016,0.03621595233861867,-3.1882669999999997,55.95325
165,165,165,Elgin,0.6768190336415071,0.3231806700940309,-3.318485,57.64945
166,166,166,Ely,0.5802591577432243,0.4197405630527473,0.262363,52.39954
167,167,167,Enniskillen,0.7064221696363052,0.2935777644454524,-7.631533599999999,54.343819999999994
168,168,168,Ennistymon,0.9501637845841079,0.04983616532693285,-9.2934951,52.940369999999994
169,169,169,Evesham,0.5794411182346831,0.4205589560706816,-1.9467700000000001,52.09215
170,170,170,Exeter,0.5519086999591274,0.4480912025283019,-3.533899,50.71841
171,171,171,Falkirk,0.912308402661543,0.08769161283202087,-3.7839131,56.00188000000001
172,172,172,Falmouth,0.4815549464593442,0.5184451451407885,-5.066269999999999,50.152570000000004
173,173,173,Faversham,0.5391545864984029,0.4608450826658811,0.889358,51.31599
174,174,174,Felixstowe,0.4338112395919341,0.5661888015495284,1.3512549999999999,51.961729999999996
175,175,175,Fermanagh,0.7064221696363052,0.2935777644454524,-7.6318728,54.343830000000004
176,176,176,Fishguard,0.5010954308753675,0.4989044216957307,-4.975989,51.99393
177,177,177,Folkestone,0.5694668078555347,0.4305333271062591,1.169456,51.0814
178,178,178,Forfar,0.6838015220599752,0.31619823933602265,-2.889062,56.64356
179,179,179,Fort William,0.6558968928633274,0.34410328572193344,-5.1052179,56.81981999999999
180,180,180,Fortuneswell,0.40369513569797216,0.5963048518703336,-2.4422189999999997,50.55919
181,181,181,Fraserburgh,0.6432375989568669,0.35676228739435045,-2.007631,57.69335
182,182,182,Gainsborough,0.14837375630314506,0.851626511952537,-0.774465,53.40058000000001
183,183,183,Galashiels,0.7865706064093315,0.21342919572331928,-2.814449,55.62373
184,184,184,Galway,0.9599614125640028,0.0400382411452508,-9.0567905,53.270669999999996
185,185,185,Gillingham,0.4210418136566079,0.5789584653175627,0.551438,51.38632
186,186,186,Girvan,0.6936079841598343,0.3063917755035345,-4.8542179,55.240159999999996
187,187,187,Glasgow,0.9635315749115699,0.03646819595518553,-4.251806,55.86424
188,188,188,Glastonbury,0.3360758367972905,0.6639242805064448,-2.718454,51.14743
189,189,189,Gloucester,0.483704582316919,0.5162955677975539,-2.238156,51.86424
190,190,190,Golspie,0.6801812996992872,0.3198186979129152,-3.976086,57.97341
191,191,191,Grantham,0.5043734783228363,0.4956265503515185,-0.643582,52.912519999999994
192,192,192,Grantown-on-Spey,0.5690433590386595,0.43095689378623786,-3.609628,57.33041
193,193,193,Great Yarmouth,0.5476571324917757,0.4523430063234052,1.728047,52.59823000000001
194,194,194,Greenock,0.8515779505077264,0.14842201682169862,-4.7719830000000005,55.956480000000006
195,195,195,Grimsby,0.1786370955298179,0.8213628729081461,-0.08078400000000001,53.56746999999999
196,196,196,Guernsey,0.4272533778730029,0.5727465466388317,-2.5852779999999997,49.46569
197,197,197,Guildford,0.5841226128735505,0.4158774017105332,-0.570409,51.23622
198,198,198,Halifax,0.5044706536424258,0.4955293161206168,-1.8575400000000002,53.727019999999996
199,199,199,Harrogate,0.6579305072787259,0.34206949426479993,-1.5418120000000002,53.99211999999999
200,200,200,Hartlepool,0.01,1.0,-1.212926,54.69174
201,201,201,Harwich,0.4235683719659216,0.5764317887735629,1.260297,51.93473
202,202,202,Hastings,0.5456647439695353,0.454334982938661,0.573453,50.85426
203,203,203,Haverfordwest,0.473959370115468,0.5260406639325256,-4.971319,51.800470000000004
204,204,204,Hawes,0.42562495509322396,0.5743751463887554,-2.1968695,54.30383000000001
205,205,205,Hawick,0.5707188971249061,0.4292812376156657,-2.780914,55.42706
206,206,206,Heathrow,0.7418876276383101,0.2581121823890373,-0.4542955,51.47002
207,207,207,Helensburgh,0.8761909866062959,0.12380891748029413,-4.734014,56.00232
208,208,208,Helmsley,0.6594040384884944,0.340595727218111,-1.0562636,54.24651
209,209,209,Helston,0.4815549464593442,0.5184451451407885,-5.274996,50.10159
210,210,210,Hereford,0.3957738747981409,0.6042260552755695,-2.715974,52.0564
211,211,211,Hexham,0.4809112335847328,0.5190889759174191,-2.1121439,54.97266
212,212,212,High Wycombe,0.7516104600691891,0.2483897604993092,-0.748229,51.628609999999995
213,213,213,Holt,0.5534994304937333,0.4465004128184987,1.086747,52.90936
214,214,214,Holyhead,0.5264640787014091,0.473535710493352,-4.633038,53.30944
215,215,215,Horncastle,0.5022474001184959,0.4977523344607831,-0.11245,53.20731
216,216,216,Horsham,0.6274551491729495,0.3725445632843191,-0.325858,51.06288
217,217,217,Hove,0.7713664970123011,0.2286336611715093,-0.168749,50.82793
218,218,218,Huddersfield,0.5202360241277494,0.4797638250615429,-1.7850351000000002,53.64579000000001
219,219,219,Hull,0.2340700204127078,0.7659298793370899,-0.3274198,53.767619999999994
220,220,220,Hunstanton,0.2327961403140951,0.7672035829783438,0.49103199999999997,52.93891
221,221,221,Huntingdon,0.7339510542638765,0.26604887495401097,-0.182552,52.33146
222,222,222,Inchnadamph,0.7464295431817674,0.2535701482548163,-4.974295,58.15221
223,223,223,Invergarry,0.5997595941487499,0.40024059435498455,-4.800261,57.07095
224,224,224,Invergordon,0.6984608607259761,0.3015391336565482,-4.1728819999999995,57.688109999999995
225,225,225,Inverness,0.7428564361275467,0.25714378598763443,-4.224721,57.47776999999999
226,226,226,Ipswich,0.4988415524022328,0.5011584183553727,1.14822,52.05674000000001
227,227,227,Irvine,0.7425472419288544,0.25745250908780803,-4.6696364,55.61156999999999
228,228,228,Islay,0.8082960631627799,0.19170402960208108,-6.177067,55.73625
229,229,229,Isle of Man,0.2894469958691657,0.7105528352023487,-4.5126330999999995,54.27697
230,230,230,Isle of Wight,0.3916265499463484,0.6083732630718348,-1.304734,50.69385
231,231,231,Isle of Wight,0.3916265499463484,0.6083732630718348,-1.304734,50.69385
232,232,232,Jedburgh,0.5336503408203487,0.466349623787156,-2.5549369,55.47772
233,233,233,Jersey,0.4256608805144047,0.5743388675963657,-2.13125,49.21444
234,234,234,John o' Groats,0.6821789886935049,0.3178207140950234,-3.0688997000000002,58.63734
235,235,235,Keighley,0.5675374360556947,0.4324622280938373,-1.9123580000000002,53.8678
236,236,236,Kelso,0.5920085372935328,0.40799147589724777,-2.432207,55.600030000000004
237,237,237,Kendal,0.4286803827176351,0.5713198360127911,-2.74629,54.32801
238,238,238,Keswick,0.18988175235959384,0.8101183318799239,-3.134706,54.60128
239,239,239,Kettering,0.34457838279066405,0.6554214385401035,-0.7302489999999999,52.39632
240,240,240,Kidderminster,0.4411129342117202,0.5588869878513749,-2.2496839,52.3886
241,241,241,Kildare,0.649595809564643,0.3504041934514777,-6.8194707999999995,53.21204
242,242,242,Kilkeel,0.7812966367916361,0.21870340184940565,-6.007004,54.06312
243,243,243,Kilkenny,0.6316896373417072,0.3683106044146932,-7.2447879,52.65415
244,244,244,Killarney,0.8678792576041163,0.1321204712685804,-9.5044265,52.05994000000001
245,245,245,Kilmarnock,0.7596930908936705,0.2403067159877633,-4.498792,55.61472
246,246,246,King's Lynn,0.3166024916929832,0.6833974523689196,0.4022963,52.75168000000001
247,247,247,Kingsbridge,0.4591286495221926,0.5408713282519858,-3.777493,50.28395
248,248,248,Kirkcaldy,0.8779536880095082,0.12204615687150068,-3.158137,56.11682
249,249,249,Kirkwall,0.6785246077356271,0.32147533127514,-2.9622491,58.984669999999994
250,250,250,Kyle of Lochalsh,0.6236859246555576,0.37631414183252776,-5.7143293,57.28261
251,251,251,Lairg,0.6914277233530555,0.3085719778013838,-4.402414,58.022059999999996
252,252,252,Lampeter,0.6275069760100644,0.3724930309087655,-4.0785089999999995,52.1129
253,253,253,Lancaster,0.4201713583696218,0.5798285084993378,-2.8007399,54.046569999999996
254,254,254,Langholm,0.3031251582779829,0.696874964847558,-2.998913,55.153059999999996
255,255,255,Laois,0.6902704536379496,0.30972954219167603,-7.3323006999999985,52.9943
256,256,256,Launceston,0.4762862773136273,0.5237139918998172,-4.360451599999998,50.636829999999996
257,257,257,Leamington Spa,0.6115443101789086,0.3884558173485302,-1.5200789,52.28519
258,258,258,Leeds,0.684044754829614,0.31595541878241423,-1.5490774,53.80076
259,259,259,Leicester,0.4629620686446465,0.5370376728756603,-1.1397591999999999,52.63688000000001
260,260,260,Leitrim,0.7053944670139852,0.2946056439317801,-8.0020132,54.12469
261,261,261,Lewes,0.8164004848165043,0.18359931204573104,0.00878,50.873870000000004
262,262,262,Limerick,0.8961207612420067,0.10387890374676882,-8.6267343,52.66384
263,263,263,Lincoln,0.5445080631957608,0.4554917228109444,-0.540579,53.23069
264,264,264,Liskeard,0.4397789820973612,0.5602208813072757,-4.4647190000000005,50.45552
265,265,265,Liverpool,0.04709174881416663,0.952908537336266,-2.9915726,53.40837
266,266,266,Livingston,0.9221490233585912,0.07785093150216521,-3.518068,55.90071
267,267,267,Llandeilo,0.6403129163079039,0.35968697056005444,-3.9914300000000003,51.88469
268,268,268,Llandrindod Wells,0.5296272825893633,0.4703729183055188,-3.377742,52.2417
269,269,269,Llandudno,0.3031263361606453,0.6968735513881144,-3.827609,53.324059999999996
270,270,270,Llandudno,0.3031263361606453,0.6968735513881144,-3.827609,53.324059999999996
271,271,271,Llanelli,0.5015383147561607,0.4984618322074048,-4.160248,51.68089000000001
272,272,272,Llangefni,0.5323617371884642,0.467638345435,-4.311401999999998,53.25579000000001
273,273,273,Llangollen,0.2212576017602285,0.7787422413591544,-3.1716599999999997,52.96921
274,274,274,Llanidloes,0.5855696417234313,0.4144304314991321,-3.5401949999999998,52.44779000000001
275,275,275,Lochgilphead,0.8542317201445025,0.1457683645043348,-5.4323449,56.03829
276,276,276,Lockerbie,0.2323656242012489,0.7676345703204023,-3.349008,55.12224000000001
277,277,277,London,0.8763641353575641,0.12363600427500808,-0.12775830000000002,51.50735
278,278,278,Longford,0.7454695688124945,0.2545305350527046,-7.7932573000000005,53.72763000000001
279,279,279,Loughborough,0.5670963189988938,0.4329035219110065,-1.206166,52.7721
280,280,280,Loughrea,0.94579678461591,0.05420310717255871,-8.5660931,53.19891
281,281,281,Louth,0.7434259423944705,0.2565738084669401,-6.4889423,53.925230000000006
282,282,282,Louth_Lincs,0.4287127744908314,0.5712873853397281,-0.007711,53.36596
283,283,283,Lowestoft,0.5582592543296026,0.4417405292475089,1.7534490000000005,52.48114
284,284,284,Ludlow,0.2523272016688254,0.7476730482201099,-2.7139129,52.36775
285,285,285,Luton,0.5805389048753744,0.4194610514477447,-0.4200255,51.87867
286,286,286,Lyme Regis,0.2995738420530025,0.7004262816999934,-2.936639,50.725159999999995
287,287,287,Macclesfield,0.5823292865211355,0.4176704339090804,-2.119287,53.25866
288,288,288,Machynlleth,0.5985728773671025,0.4014268990872997,-3.853485,52.59027
289,289,289,Magherafelt,0.7398940612334081,0.2601059847227413,-6.607980499999999,54.75536999999999
290,290,290,Maldon,0.42802371313374543,0.5719761523478415,0.6714479999999999,51.731809999999996
291,291,291,Mallow,0.8539113360605242,0.1460885130683454,-8.6539164,52.13898
292,292,292,Malton,0.6259521708966393,0.3740475418261789,-0.7978970000000001,54.13684
293,293,293,Manchester,0.4550832115206352,0.5449165902858704,-2.2426305,53.48076
294,294,294,Mansfield,0.3390929832351968,0.6609070746413184,-1.198674,53.1472
295,295,295,March,0.3807682386296038,0.6192320474601988,0.088622,52.551719999999996
296,296,296,Margate,0.5704055803368985,0.4295945544590316,1.3868339,51.38965
297,297,297,Market Drayton,0.202883810120604,0.7971164485041092,-2.483485,52.90355
298,298,298,Market Weighton,0.2532011906037946,0.7467988235541471,-0.6677465,53.86484
299,299,299,Marlborough,0.4648608154952831,0.5351393379485532,-1.7270619999999999,51.42007
300,300,300,Mayo,0.8789395757973388,0.12106015112119428,-9.4289369,54.01526
301,301,301,Meath,0.7795845843428771,0.2204153957065109,-6.656416900000001,53.60555
302,302,302,Medway,0.4228669428408886,0.5771331002342396,0.5417860999999999,51.404740000000004
303,303,303,Melton Mowbray,0.5996889211890494,0.4003107961740244,-0.887126,52.7664
304,304,304,Merthyr Tydfil,0.4402265775088019,0.559773168028466,-3.381646,51.74873
305,305,305,Middlesbrough,0.022508748723469918,0.9774914828762038,-1.234956,54.57423000000001
306,306,306,Midhurst,0.5252031553120741,0.4747966341054689,-0.737274,50.9869
307,307,307,Mildenhall,0.5476930579129571,0.4523070808958765,0.5156095,52.34757000000001
308,308,308,Milford Haven,0.4984728751291253,0.5015271545877624,-5.0426971,51.71431
309,309,309,Milton Keynes,0.5886397928811129,0.4113600442224344,-0.7594171,52.040620000000004
310,310,310,Minehead,0.5677329645775349,0.4322666995374512,-3.481152,51.20428
311,311,311,Mold,0.2802400760441052,0.719759697759967,-3.1419029999999997,53.1672
312,312,312,Mold,0.2802400760441052,0.719759697759967,-3.1419029999999997,53.1672
313,313,313,Monaghan,0.7450143171637529,0.2549857278877374,-6.9683132,54.2492
314,314,314,Montrose,0.6718077318573683,0.3281919138694353,-2.4661150000000003,56.70692
315,315,315,Morecambe,0.3173875504869963,0.6826126290127744,-2.864968,54.074169999999995
316,316,316,Motherwell,0.9565390744904776,0.043461109870734975,-3.9810968,55.78321
317,317,317,Mull,0.8419010555006532,0.15809873685607867,-6.0008870000000005,56.4392
318,318,318,Mullingar,0.6833386141739335,0.3166615006687135,-7.3401868000000015,53.525819999999996
319,319,319,Nantwich,0.3451679130628369,0.6548322615286315,-2.524102,53.067190000000004
320,320,320,Nenagh,0.8968640052015303,0.10313607191493186,-8.19834,52.8635
321,321,321,New Romney,0.533298153904504,0.4667021052359425,0.939473,50.98512
322,322,322,Newark-on-Trent,0.3620452047807905,0.6379549079346135,-0.80657,53.07004000000001
323,323,323,Newbury,0.6309917418646595,0.3690081466501864,-1.3231138999999998,51.40141
324,324,324,Newcastle,0.43355858376100426,0.5664416341075302,-1.61778,54.97825
325,325,325,Newcastle-under-Lyme,0.1143506156203734,0.8856493641758819,-2.2273002,53.01321
326,326,326,Newport,0.33446567119876724,0.6655346230718866,-2.997664,51.58415
327,327,327,Newquay,0.5016708265556005,0.4983290259138353,-5.0737190000000005,50.4155
328,328,328,Newry,0.7671926698006195,0.2328074302264886,-6.34023,54.1751
329,329,329,Newton Stewart,0.5359713586051987,0.4640283700156487,-4.483164,54.9603
330,330,330,Newtown,0.5152005757490463,0.4847992743299215,-3.313106,52.51211
331,331,331,Northallerton,0.24044943290839285,0.7595505835025607,-1.429959,54.337959999999995
332,332,332,Northampton,0.5639755188867602,0.436024381468675,-0.9026559999999999,52.24048
333,333,333,Norwich,0.5824918343284474,0.4175079449671921,1.297355,52.63089
334,334,334,Nottingham,0.4693403032576705,0.5306596138181443,-1.1581086,52.95478000000001
335,335,335,Nuneaton,0.4333129952260421,0.5666870460034522,-1.465382,52.52049
336,336,336,Oban,0.8142378922496506,0.18576196388882027,-5.471047,56.41516
337,337,337,Offaly,0.6999302693464283,0.3000694891999036,-7.7122229,53.23569000000001
338,338,338,Okehampton,0.6296006624412093,0.3703991674252721,-4.004263,50.73831
339,339,339,Omagh,0.6605901663288106,0.3394100703213741,-7.309959700000001,54.59771
340,340,340,Orkney Islands,0.6781889111770463,0.3218112045754624,-2.9605206,58.980940000000004
341,341,341,Oswestry,0.29201949160228585,0.7079803390147139,-3.056412,52.85715
342,342,342,Otley,0.5966005128501107,0.4033996173176344,-1.691786,53.90583
343,343,343,Oxenholme,0.4759117106272112,0.5240883819699821,-2.7243327999999996,54.30134
344,344,344,Oxford,0.7708240820465949,0.22917595844476346,-1.2577263,51.75202
345,345,345,Paignton,0.5666940720699283,0.4333055922286115,-3.564235,50.43508
346,346,346,Peebles,0.9443044072835554,0.05569542587444698,-3.1936419999999996,55.65306999999999
347,347,347,Pembroke,0.5014458509672187,0.4985542371185403,-4.9086370000000015,51.67404000000001
348,348,348,Penrith,0.2702981574381531,0.7297017359107687,-2.752708,54.6641
349,349,349,Penzance,0.4854507933628672,0.5145489441840766,-5.537592,50.1188
350,350,350,Perth,0.6687263908144,0.331273373245109,-3.4308381000000003,56.39499
351,351,351,Peterborough,0.3760402176256015,0.6239598337229867,-0.2405299,52.5695
352,352,352,Peterhead,0.6432075629489942,0.35679255898410417,-1.784066,57.50812
353,353,353,Petersfield,0.3686360472142485,0.6313638287600951,-0.93899,51.00759
354,354,354,Pitlochry,0.6870083076064131,0.31299186548200697,-3.729711,56.70436
355,355,355,Plymouth,0.4924297481333508,0.5075702826512517,-4.1426565,50.37546
356,356,356,Poole,0.4568529802198165,0.5431467623798579,-1.987248,50.71505
357,357,357,Porthmadog,0.6101102380383073,0.3898900075307941,-4.1333839999999995,52.92784
358,358,358,Portree,0.6394948767993635,0.3605049513189843,-6.1960231,57.41246999999999
359,359,359,Portsmouth,0.3105758550544715,0.6894244434370926,-1.0879769,50.81977
360,360,360,Prestatyn,0.11990256554622547,0.8800977077398151,-3.4076129999999996,53.33651
361,361,361,Preston,0.3686896408753565,0.6313102350895192,-2.70309,53.7632
362,362,362,Pwllheli,0.657634858730643,0.3423649072885448,-4.417633900000001,52.888819999999996
363,363,363,Ramsgate,0.5618482627997567,0.4381519324022443,1.4198950000000001,51.33555
364,364,364,Reading,0.6709514111623229,0.3290484702923511,-0.9781303,51.45426
365,365,365,Redruth,0.482000775046792,0.5179994342628575,-5.226666000000002,50.23302
366,366,366,Reeth,0.2568750066255899,0.7431250657773965,-1.9428115000000001,54.38946
367,367,367,Retford,0.385160563075028,0.6148393099797245,-0.9455030000000001,53.32136
368,368,368,Rhyl,0.15862310228379795,0.8413771641610054,-3.4916339999999995,53.319140000000004
369,369,369,Ringwood,0.4384208833884392,0.5615790391502941,-1.7888169999999999,50.84495
370,370,370,Rochdale,0.4147042159954115,0.5852958874160706,-2.1561,53.60971
371,371,371,Roscommon,0.8724459086834684,0.12755381938238064,-8.1890955,53.62759000000001
372,372,372,Ross-on-Wye,0.35197784167136825,0.6480222139286179,-2.582446,51.91445
373,373,373,Rosslare,0.6517642915448054,0.3482355932998959,-6.3414908,52.25131
374,374,374,Rotherham,0.9600780229475102,0.03992168963528448,-1.3635008999999998,53.4326
375,375,375,Rothesay,0.8179005183861592,0.182099572681763,-5.055793,55.83596
376,376,376,Royston,0.6123935635779837,0.38760644601112015,-0.024066,52.048140000000004
377,377,377,Rugby,0.5158248535597391,0.4841753497737905,-1.265032,52.37088
378,378,378,Ruthin,0.14690670344801635,0.853093329490294,-3.3103108,53.114869999999996
379,379,379,Ruthin,0.14690670344801635,0.853093329490294,-3.3103108,53.114869999999996
380,380,380,Salisbury,0.6103994082317512,0.3896007783921156,-1.794472,51.06878
381,381,381,Saltash,0.4483315881038568,0.5516685093662594,-4.21643,50.409209999999995
382,382,382,Sark,0.4261544133496512,0.5738455113563514,-2.3666256000000003,49.43007
383,383,383,Scarborough,0.3498694317069522,0.6501307420538399,-0.399752,54.28311
384,384,384,Scilly Isles,0.4875327009673955,0.5124673895765728,-6.327496599999999,49.92773
385,385,385,Scunthorpe,0.28789042393174896,0.7121097018855017,-0.654413,53.58865
386,386,386,Sedbergh,0.4190040766518924,0.5809957904233056,-2.5281740000000004,54.32363
387,387,387,Sedbergh,0.4190040766518924,0.5809957904233056,-2.5281740000000004,54.32363
388,388,388,Selby,0.5586243979547243,0.4413752677695851,-1.067189,53.783519999999996
389,389,389,Selkirk,0.6966445656616586,0.30335531125348697,-2.838524,55.55066
390,390,390,Sevenoaks,0.7117232305552184,0.28827676148407816,0.190898,51.27241
391,391,391,Shaftesbury,0.5544122895565399,0.44558761248855017,-2.198083,51.0046
392,392,392,Sheffield,0.9512739389927464,0.04872606961629344,-1.470085,53.38113000000001
393,393,393,Sheringham,0.5450086633269776,0.4549915937444289,1.2109589,52.944419999999994
394,394,394,Shetland Islands,0.6396933500278569,0.3603068314202846,-1.2659409,60.52965
395,395,395,Shrewsbury,0.2642562083250397,0.7357436271972447,-2.7553267999999997,52.7073
396,396,396,Sidmouth,0.5169703444482276,0.4830293875297658,-3.2375599999999998,50.67865
397,397,397,Skegness,0.2480143843030643,0.7519854540888642,0.337881,53.1464
398,398,398,Skipton,0.5266919989964443,0.4733079079463334,-2.0162787,53.96285
399,399,399,Sligo,0.7335658866335062,0.2664340426524344,-8.476088800000001,54.27661
400,400,400,Slough,0.6271571448595431,0.3728425087562339,-0.5950406,51.51054
401,401,401,South Shields,0.33427544314890456,0.6657247922612152,-1.427406,54.99941999999999
402,402,402,Southampton,0.5735929308194183,0.42640732120165015,-1.4043508999999998,50.9097
403,403,403,Southend,0.22145725287138365,0.7785429435775848,0.7077123000000001,51.54593
404,404,404,Southport,0.1947204943337964,0.8052794712625143,-3.010113,53.64571
405,405,405,Spalding,0.3389204234252599,0.661079693375887,-0.1537024,52.7901
406,406,406,St Andrews,0.6669212856353678,0.3330786554255021,-2.7967214,56.33978000000001
407,407,407,St Austell,0.4849313471090636,0.5150687438945177,-4.7834252,50.340379999999996
408,408,408,St Neots,0.6647539815378678,0.3352458421176401,-0.26510300000000003,52.23008
409,409,409,Stafford,0.4124874408261194,0.5875124862945965,-2.12066,52.80669
410,410,410,Stanhope,0.3924310438042789,0.6075688868600511,-2.011302,54.74946
411,411,411,Stevenage,0.605620738273295,0.3943794491948787,-0.19661199999999998,51.90376
412,412,412,Stirling,0.8818848713928816,0.11811491389941242,-3.9369029,56.116519999999994
413,413,413,Stockton,0.03924587240468341,0.9607539439788304,-1.3289821000000002,54.57046
414,414,414,Stoke-on-Trent,0.16874170328900204,0.8312584435797343,-2.179404,53.002669999999995
415,415,415,Stornoway,0.782975119584537,0.21702462428922856,-6.3848692000000025,58.20943000000001
416,416,416,Strabane,0.6379483168645711,0.3620513937387397,-7.4633103,54.82739
417,417,417,Stranraer,0.7133569538069766,0.2866428023670969,-5.0240550000000015,54.903369999999995
418,418,418,Stratford-upon-Avon,0.6514285949862253,0.34857146660021826,-1.7082979999999999,52.19173
419,419,419,Street,0.3598879126859148,0.6401123770930757,-2.7429189999999997,51.12468
420,420,420,Sunderland,0.28609003028336305,0.7139099780636983,-1.383801,54.90687
421,421,421,Swaffham,0.34871451775716994,0.6512856562076752,0.687481,52.64747
422,422,422,Swansea,0.4942572330829551,0.5057425618021889,-3.9436459999999998,51.62144
423,423,423,Swindon,0.4592010893058859,0.5407990062437803,-1.7797176,51.55577
424,424,424,Tain,0.6992311959867187,0.3007689749421321,-4.05523,57.8115
425,425,425,Taunton,0.34065956717523715,0.6593404904244895,-3.106849,51.01534
426,426,426,Tavistock,0.4757921555370503,0.5242080548695532,-4.141654,50.551120000000004
427,427,427,Telford,0.346934737055365,0.6530654372239373,-2.4672611,52.67759
428,428,428,Tenby,0.4976065424314562,0.502393428544354,-4.703579,51.67274000000001
429,429,429,Thetford,0.5763244407118653,0.42367551635587536,0.751657,52.412859999999995
430,430,430,Thirsk,0.5826214014212339,0.4173788490046624,-1.341377,54.23385
431,431,431,Thurso,0.6849529023617724,0.3150472710898013,-3.5220800000000003,58.59356999999999
432,432,432,Tipperary,0.7887744248693435,0.2112252590856436,-8.161851400000002,52.47379
433,433,433,Tiverton,0.5826879517916187,0.4173120630459449,-3.491207,50.90205
434,434,434,Tiverton,0.5826879517916187,0.4173120630459449,-3.491207,50.90205
435,435,435,Torquay,0.5751406686368724,0.4248595242165945,-3.525315,50.46192
436,436,436,Totnes,0.5142482576170725,0.4857515337360082,-3.685797,50.43374
437,437,437,Towcester,0.6174837835004557,0.382516225189296,-0.9896879999999999,52.13511
438,438,438,Tralee,0.9049177779008014,0.09508182663955256,-9.6999325,52.27131
439,439,439,Tregaron,0.6021424507733385,0.3978577373093869,-3.934385,52.22
440,440,440,Tregaron,0.6021424507733385,0.3978577373093869,-3.934385,52.22
441,441,441,Trowbridge,0.5966800199297745,0.4033201102239232,-2.208853,51.31966
442,442,442,Truro,0.4856675237726163,0.5143322137360341,-5.0510410000000014,50.2632
443,443,443,Tunbridge Wells,0.814912230073464,0.1850876259458621,0.26369499999999996,51.13238
444,444,444,Turriff,0.6481340571814918,0.35186594609289473,-2.4623,57.53893000000001
445,445,445,Tyrone,0.7302336565835992,0.2697662143969442,-7.1312320000000025,54.491209999999995
446,446,446,Tywyn,0.6126532867048858,0.3873468995207606,-4.087249,52.58701
447,447,447,Uckfield,0.7715196217583206,0.22848035971600536,0.095913,50.966409999999996
448,448,448,Ullapool,0.7776139866498781,0.22238581706524946,-5.161313,57.895419999999994
449,449,449,Wadebridge,0.5232714277469107,0.4767284209060781,-4.836456,50.51665
450,450,450,Wakefield,0.5582186173777737,0.4417814606772344,-1.505924,53.6833
451,451,451,Walsall,0.17190255141163407,0.8280972415337753,-1.9829189999999999,52.586209999999994
452,452,452,Warrington,0.09982908922579034,0.9001709520303076,-2.5969501,53.39004
453,453,453,Waterford,0.6339152466309613,0.3660844646849217,-7.110070200000001,52.25932
454,454,454,Wellingborough,0.4857311294363485,0.5142687847434956,-0.693964,52.30242
455,455,455,Wells,0.4988515644048578,0.501148229668549,-2.6445979,51.20935
456,456,456,Welshpool,0.3942214254500399,0.6057787993686783,-3.146407,52.66035
457,457,457,Welwyn Garden City,0.6277054492385579,0.3722946754334917,-0.208661,51.80317
458,458,458,Western Isles,0.7463099880916064,0.2536898211543876,-7.0194034,57.75989000000001
459,459,459,Westmeath,0.6725792450007713,0.3274204005897188,-7.4653217000000005,53.534530000000004
460,460,460,Weston-super-Mare,0.7188788677249546,0.2811212408383534,-2.977255,51.347409999999996
461,461,461,Wetherby,0.7052702003931781,0.29472967499796954,-1.384816,53.92706
462,462,462,Wexford,0.6354647512724078,0.36453543092285295,-6.4633381,52.33692
463,463,463,Weymouth,0.3795108488882552,0.6204892018471322,-2.457621,50.61443
464,464,464,Whitby,0.018407950236814317,0.9815919876166818,-0.613347,54.48633
465,465,465,Whitchurch,0.2485079171383114,0.7514919211664195,-2.682045,52.96872
466,466,466,Whitehaven,0.2702840228462131,0.7297157527169192,-3.589233,54.5497
467,467,467,Wick,0.6821789886935049,0.3178207140950234,-3.093716,58.43894
468,468,468,Wicklow,0.7797842354540327,0.22021592124251088,-6.044589,52.980819999999994
469,469,469,Wigan,0.04514588665706328,0.9548539875781648,-2.6325074,53.54506
470,470,470,Wincanton,0.4046822013684645,0.5953177271313009,-2.416007,51.05569000000001
471,471,471,Wisbech,0.3113815267950644,0.6886183592951477,0.158797,52.66631999999999
472,472,472,Witney,0.7632714984198705,0.2367282489351791,-1.4850543999999999,51.785940000000004
473,473,473,Woking,0.6319911753030988,0.3680088897175949,-0.5600349,51.31677
474,474,474,Wolverhampton,0.2300775871309257,0.7699226666891249,-2.12882,52.586969999999994
475,475,475,Worcester,0.5116274686948238,0.4883723231213048,-2.221575,52.19364
476,476,476,Workington,0.2392285575295569,0.7607715768853914,-3.5427519999999997,54.64357
477,477,477,Worksop,0.3886777207028192,0.6113220339422261,-1.122745,53.3093
478,478,478,Worthing,0.7370724433173426,0.26292748534905114,-0.372882,50.81787
479,479,479,Wrexham,0.31240981835871484,0.6875904209146766,-2.9924939999999998,53.04304000000001
480,480,480,Yeovil,0.326762907532678,0.6732369169457707,-2.633308,50.94206
481,481,481,York,0.7152645347775751,0.28473557442432296,-1.0872979,53.95997
