index,placename,longitude,latitude,should_have,should_of
0,Abbeyfeale,-9.2970823,52.386179999999996,0.01,0.01
1,Aberaeron,-4.2581619,52.24279,0.11786543444202896,0.13171323364350618
2,Aberdeen,-2.094278,57.149719999999995,0.4100292107635453,0.3616262529438153
3,Aberfeldy,-3.866969,56.62175,0.16659228856958305,0.12966006988169576
4,Aberystwyth,-4.08292,52.4153,0.24429840863296942,0.23186833138239155
5,Abingdon,-1.2879528999999998,51.67078,0.27754598085656623,0.1758260166920971
6,Achnasheen,-5.078765799999999,57.578590000000005,0.01,0.018083578171986994
7,Adare,-8.7925892,52.56363,0.08483625389404241,0.03840198677624717
8,Airdrie,-3.9625660000000003,55.86626999999999,0.32322529371377356,0.08262285398664308
9,Alderney,-2.1973557,49.715,0.01,0.054661775438889865
10,Aldershot,-0.7557509,51.24837,0.33887097236509417,0.2989480149185849
11,Alness,-4.256825,57.69595,0.16560025621005645,0.13814694740571395
12,Alnwick,-1.7062990000000002,55.41274,0.17153205086990525,0.25578151860455783
13,Alston,-2.438685,54.812169999999995,0.07643993552717773,0.18280138069963112
14,Altnaharra,-4.442655,58.28023,0.01,0.029261819036426048
15,Ambleside,-2.961333,54.428740000000005,0.2115986267578734,0.32410148863840027
16,Andover,-1.4919233,51.2112,0.2547877026571333,0.17613242456559622
17,Antrim,-6.2072498,54.719530000000006,0.24508436723159124,0.13303507088893393
18,Antrim,-6.2072498,54.719530000000006,0.24508436723159124,0.13303507088893393
19,Arbroath,-2.591543,56.55911,0.21666234158230088,0.18655058637348645
20,Armagh,-6.652792,54.350280000000005,0.19656740578764637,0.11447105387112827
21,Armagh,-6.652792,54.350280000000005,0.19656740578764637,0.11447105387112827
22,Ashbourne,-1.7321790000000001,53.016630000000006,0.29800238293998754,0.41668237385909923
23,Ashford,0.8750190000000001,51.14647,0.25318468615909284,0.24874711362862786
24,Ashington,-1.5659829,55.18298000000001,0.20557418060741514,0.2658261851849996
25,Athlone,-7.9406898,53.423930000000006,0.1693230674125342,0.10049761759164991
26,Aviemore,-3.823812,57.19449,0.14452197023447658,0.13175891574669948
27,Axminster,-2.9949369999999997,50.78273,0.1627379790513549,0.3074112660729533
28,Aylesbury,-0.8084,51.81561,0.3422652676908608,0.25027536940378686
29,Ayr,-4.629179,55.45856,0.321761709243639,0.23287282260039682
30,Aysgarth,-1.9967433999999997,54.29159,0.07776236437468022,0.11256102601474208
31,Balivanich,-7.3743509000000005,57.472269999999995,0.014650873443446542,0.03990638801736703
32,Ballachulish,-5.133719999999999,56.673930000000006,0.01,0.027383249309341818
33,Ballycastle,-9.3724643,54.279669999999996,0.01,0.012843774141583655
34,Ballymena,-6.2802213,54.86529,0.21371641399871316,0.17870987537328353
35,Banbridge,-6.2704803,54.34873,0.18331528032293265,0.11801419600567568
36,Banbury,-1.339775,52.0629,0.2557103133012969,0.26213109116284256
37,Banchory,-2.4909599,57.05386,0.17553459344903893,0.16212859979533836
38,Banff,-2.524038,57.666509999999995,0.13709676695408105,0.17369792312974167
39,Bangor,-4.129263,53.22739,0.26661410743873426,0.30029594062816073
40,Banham,1.0402849,52.45125,0.2020185336764286,0.22016511435746203
41,Bantry,-9.4539805,51.68035,0.10133234216622708,0.054529547406207086
42,Barnsley,-1.479726,53.55263000000001,0.35444730390528906,0.14606271746745514
43,Barnstaple,-4.058338,51.07816,0.24280834257924386,0.26632476690475937
44,Barrow-in-Furness,-3.2188939999999997,54.10896999999999,0.23478245722613122,0.3995454872649442
45,Basingstoke,-1.0923964,51.26654,0.2933161019401731,0.32770857419196725
46,Bath,-2.3590167,51.38106,0.3720071559964228,0.3932543812801443
47,Bedford,-0.46677820000000003,52.13864,0.33592929117845266,0.33495866167265287
48,Belfast,-5.93012,54.597280000000005,0.5093633077233969,0.24589788078009184
49,Berwick,-2.005395,55.77024,0.1812531797088512,0.2047110950955299
50,Beverley,-0.435093,53.84196,0.25322283184169136,0.4307426574180634
51,Bexhill,0.4662071,50.849909999999994,0.19575233192704386,0.2045954242524649
52,Bicester,-1.1535898999999998,51.8996,0.21895748551909414,0.13841021863972447
53,Bideford,-4.206666,51.01668,0.184242668092979,0.19331368480627684
54,Biggleswade,-0.26421999999999995,52.086940000000006,0.2016212358101502,0.21614007016222916
55,Birkenhead,-3.023009,53.389990000000004,0.31669817677677375,0.6655343868136537
56,Birmingham,-1.8904009999999998,52.48624,0.586195600545198,0.7026543821971737
57,Bishop Auckland,-1.6787880000000002,54.663819999999994,0.2159364663983199,0.32691003265884566
58,Bishop's Stortford,0.15365020000000001,51.87216,0.27396238925965666,0.3597486935610991
59,Blackburn,-2.487529,53.748580000000004,0.3227549932147479,0.43927393946686266
60,Blackpool,-3.0356748,53.81751,0.33318116546609605,0.6176859565310737
61,Blairgowrie,-3.3378318,56.58941,0.15197129068333143,0.12488571765029764
62,Blandford Forum,-2.165353,50.85691,0.13192875070077645,0.19905687249878906
63,Blyth,-1.510277,55.12696,0.21238718095397216,0.3194355393986043
64,Bodmin,-4.7188629,50.4715,0.15066223159121214,0.20084631046504842
65,Bognor Regis,-0.673061,50.783,0.23314204462012125,0.35130184074538423
66,Boston,-0.026576999999999996,52.97894,0.2823212085405005,0.41320223409221896
67,Bournemouth,-1.880769,50.719159999999995,0.3657048742348482,0.45109285392576404
68,Bradford,-1.759398,53.79598000000001,0.3975883137203992,0.43763180999805823
69,Braemar,-3.3979439,57.00646999999999,0.01,0.016228911852604066
70,Braintree,0.5509269,51.88009,0.23262201870626473,0.2735065392776875
71,Brecon,-3.391463,51.94895,0.17531683718198543,0.24467659777124082
72,Brentwood,0.30717490000000003,51.620470000000005,0.45292647678734327,0.7488474418090421
73,Bridgend,-3.576945,51.504290000000005,0.3012972722131342,0.3393396512496758
74,Bridgwater,-3.003632,51.12789,0.30792649435284153,0.441404630044812
75,Bridlington,-0.198802,54.08535,0.1750810266632924,0.32768100003913647
76,Bridport,-2.758301,50.733579999999996,0.15347884173964774,0.28099047556654055
77,Brighton,-0.137163,50.82253,0.498516212009775,0.29722664186551656
78,Bristol,-2.58791,51.45451,0.5274940832914172,0.5833248230274541
79,Broadford,-5.9096592,57.24139,0.01,0.03240517515230692
80,Bromsgrove,-2.061906,52.33559,0.2673113516761548,0.38716214733099946
81,Brora,-3.8525480000000005,58.012159999999994,0.08394239453253435,0.08960874930289717
82,Bude,-4.543678,50.826640000000005,0.16410769094625002,0.18496673178580408
83,Builth Wells,-3.4045919999999996,52.15002,0.1481248680089383,0.19180036675860257
84,Burnley,-2.2405035,53.78929,0.29403877013841323,0.4191755474443631
85,Burton upon Trent,-1.6371358999999999,52.81403,0.2746298250352835,0.45407161403065815
86,Bury St Edmunds,0.7104931999999999,52.24292,0.33883201370625576,0.34563684708972364
87,Buxton,-1.91483,53.259080000000004,0.25648396170808524,0.27921191720435046
88,Caernarfon,-4.273911,53.13955,0.18727471498947365,0.22355612983658654
89,Cambridge,0.12181700000000001,52.20534,0.4790633979601004,0.263544154252694
90,Camelford,-4.682364,50.62206,0.09703137905298716,0.1564467497959144
91,Campbeltown,-5.605373999999999,55.424119999999995,0.13017388732689153,0.11760819921835552
92,Canterbury,1.0789089,51.280229999999996,0.3234081092147076,0.3254188876544985
93,Cardiff,-3.17909,51.48158,0.5363319434966484,0.31791493326860193
94,Cardigan,-4.660864,52.0837,0.12704067452310053,0.17165493225301387
95,Carlisle,-2.932931,54.892469999999996,0.3178398187287979,0.540958757447044
96,Carlow,-6.934135899999999,52.83651,0.23362707224458895,0.19222426896490782
97,Carmarthen,-4.312131,51.857620000000004,0.2217661561078565,0.20605451411443707
98,Castle Douglas,-3.9314139999999997,54.940419999999996,0.12011061808271675,0.22390257893108267
99,Castleford,-1.345968,53.72346999999999,0.2721733113558695,0.3114101592075713
100,Cavan,-7.3633319,53.98972,0.20072855531331796,0.16414133504595035
101,Charleville,-8.681017599999999,52.36206,0.01,0.01
102,Chatteris,0.054012,52.4561,0.1233607226772768,0.2004888176618188
103,Chelmsford,0.4685497,51.73559,0.2640129304861016,0.455610502305912
104,Cheltenham,-2.0782533,51.899390000000004,0.3506885803527091,0.36805538484014805
105,Chester,-2.893075,53.19339,0.3495954893153151,0.5100883604012796
106,Chesterfield,-1.421629,53.23505,0.31724589699169103,0.35222358332426795
107,Chichester,-0.774936,50.83761,0.24549671217441196,0.3856469652634927
108,Cinderford,-2.5009579,51.8253,0.19865923655120085,0.29599417702187564
109,Cirencester,-1.968243,51.71849,0.32830147953726196,0.28856980766097756
110,Clacton,1.153035,51.78953,0.18597627825530683,0.26421429355113135
111,Clare,-8.9811351,52.90453,0.24132625103946126,0.0850609126758154
112,Claremorris,-9.0017356,53.72388,0.24634602888892682,0.0912971178363815
113,Clitheroe,-2.3930830000000003,53.8711,0.2084679910474133,0.3164538580835301
114,Cockermouth,-3.367985,54.66326,0.13306554901248727,0.271209839847696
115,Colchester,0.891874,51.89593,0.33152519582636497,0.40491067235039385
116,Coleraine,-6.6646103000000005,55.132580000000004,0.25851578263292013,0.21706117803395175
117,Colne,-2.176991,53.85564,0.19975007472456377,0.28751086998292913
118,Colwyn Bay,-3.72764,53.29318000000001,0.18835005310001884,0.34274693214519436
119,Cookstown,-6.7443895000000005,54.641819999999996,0.1748891757631227,0.1231624737159386
120,Corby,-0.6842333,52.4923,0.25028598603147606,0.35584737993357096
121,Cork,-8.4756035,51.898509999999995,0.44365747490263574,0.25778543078394045
122,Corwen,-3.369242,52.98005,0.0827588058400359,0.2136418192535887
123,Coventry,-1.519693,52.40682,0.39326214820601935,0.4548288516404985
124,Craigavon,-6.4175653,54.442930000000004,0.22741628905229147,0.14981904210621433
125,Crawley,-0.18722750000000002,51.109140000000004,0.3024578751196089,0.2929742356754407
126,Crewe,-2.4438209,53.10041,0.27157059941329476,0.392159772382627
127,Cromer,1.301866,52.93145,0.17748282716757022,0.20806055580077196
128,Cromer,1.301866,52.93145,0.17748282716757022,0.20806055580077196
129,Cumnock,-4.265828900000001,55.45355,0.20606572314215,0.13864130819919782
130,Cupar,-3.010137,56.32023,0.15638947713500986,0.13847731239436345
131,Dalbeattie,-3.8225269999999996,54.934219999999996,0.08033878913074484,0.17262878915644636
132,Dalkeith,-3.066606,55.893119999999996,0.29788776068174655,0.09358660563197589
133,Dalwhinnie,-4.242783,56.9366,0.01,0.010601249846664376
134,Darlington,-1.559458,54.52361,0.25397154632127983,0.5129570479842337
135,Dartmouth,-3.578807,50.35252,0.13438213442943403,0.17532075341813838
136,Derby,-1.4746186000000001,52.92253,0.36451489211033195,0.5841310003421779
137,Dereham,0.9378270000000001,52.681619999999995,0.32570979740417355,0.3332029241325041
138,Derry,-7.308574799999999,54.99661,0.3017984613729815,0.2598372318233804
139,Derry,-7.308574799999999,54.99661,0.3017984613729815,0.2598372318233804
140,Dingle,-10.264013499999999,52.14094,0.09442145307031657,0.040742196313760234
141,Dolgellau,-3.8844,52.74215,0.09378446808159756,0.1141200308899626
142,Doncaster,-1.128462,53.522819999999996,0.34672668133289725,0.36077675934570697
143,Donegal,-8.1096143,54.653830000000006,0.2683014305849261,0.22293341647965584
144,Doon,-7.60964,54.185930000000006,0.08264959881255421,0.07735351324910093
145,Dorchester,-2.4411810000000003,50.71116,0.2909266813970857,0.42017146914228537
146,Dorking,-0.332378,51.2322,0.32512496743977354,0.2592483917982196
147,Dover,1.3134027,51.12788,0.21316470989876865,0.2502344947475739
148,Down,-5.7156921999999994,54.32875,0.24815343405580653,0.13880418009945933
149,Downham Market,0.385472,52.606609999999996,0.12620324139911268,0.2521747210607859
150,Driffield,-0.443377,54.006,0.14104962049153752,0.28029754648339933
151,Drogheda,-6.3560985,53.717859999999995,0.19191363436097109,0.12977168746782777
152,Dublin,-6.2603097000000005,53.34981,0.6369948107815993,0.3031321846601388
153,Dudley,-2.081112,52.51226,0.3105131806568247,0.48580023762861907
154,Dumbarton,-4.564554,55.94529,0.2608543710414269,0.11901200955465883
155,Dumfries,-3.60512,55.070859999999996,0.21945089404148319,0.39784743285805657
156,Dunbar,-2.516737,56.00209,0.2465060271606596,0.15111880974377226
157,Dundee,-2.9707209999999997,56.462019999999995,0.37995562301767666,0.26762449501323243
158,Dunfermline,-3.452151,56.071740000000005,0.3082358545256701,0.2331618543037146
159,Dungannon,-6.7669352,54.508269999999996,0.13524752841369253,0.09830790250698443
160,Dunoon,-4.926214,55.95097,0.1550367481848133,0.08361162224972843
161,Dunvegan,-6.581398200000001,57.4366,0.01,0.03148724766300212
162,Durham,-1.5848520000000001,54.77525,0.3330103961557265,0.47296645695290407
163,Eastbourne,0.29047199999999995,50.768029999999996,0.29315203995191225,0.21145305886692994
164,Edinburgh,-3.1882669999999997,55.95325,0.593072665057091,0.18990059032943948
165,Elgin,-3.318485,57.64945,0.27694806443309256,0.2281294502145985
166,Ely,0.262363,52.39954,0.20907377945958988,0.2197172485736736
167,Enniskillen,-7.631533599999999,54.343819999999994,0.165835401601588,0.13645290759303147
168,Ennistymon,-9.2934951,52.940369999999994,0.01,0.01
169,Evesham,-1.9467700000000001,52.09215,0.2207227364469087,0.23030362040869434
170,Exeter,-3.533899,50.71841,0.4165902339303158,0.42319894627640836
171,Falkirk,-3.7839131,56.00188000000001,0.3456451771192105,0.13811668188565648
172,Falmouth,-5.066269999999999,50.152570000000004,0.23600335991055965,0.29122286681625087
173,Faversham,0.889358,51.31599,0.2350326110310143,0.262143173447875
174,Felixstowe,1.3512549999999999,51.961729999999996,0.19080013229945242,0.2649273439179076
175,Fermanagh,-7.6318728,54.343830000000004,0.12182723309686319,0.10620347338762325
176,Fishguard,-4.975989,51.99393,0.09713475494781096,0.14263164684159219
177,Folkestone,1.169456,51.0814,0.24133125067299233,0.25324378625283206
178,Forfar,-2.889062,56.64356,0.1967549630462641,0.16670959344489614
179,Fort William,-5.1052179,56.81981999999999,0.17319302424109898,0.15996279335019464
180,Fortuneswell,-2.4422189999999997,50.55919,0.10824117831544394,0.18233820894809868
181,Fraserburgh,-2.007631,57.69335,0.1597512952879738,0.15414029833760973
182,Gainsborough,-0.774465,53.400580000000005,0.15322219009699145,0.33480432054987574
183,Galashiels,-2.814449,55.62373,0.19596149010970978,0.12595095262711103
184,Galway,-9.0567905,53.270669999999996,0.38105371100021757,0.12292124118869482
185,Gillingham,0.551438,51.38632,0.4123694880084407,0.5207433261337404
186,Girvan,-4.8542179,55.240159999999996,0.142300290648293,0.12434034747881352
187,Glasgow,-4.251806,55.86424,0.6441422273597769,0.20683556248428403
188,Glastonbury,-2.718454,51.14743,0.1506127849632738,0.2567034694675621
189,Gloucester,-2.238156,51.86424,0.367789888634249,0.42568758121841627
190,Golspie,-3.976086,57.97341,0.01,0.027989272435320758
191,Grantham,-0.643582,52.912519999999994,0.2377166899779666,0.28169517250642323
192,Grantown-on-Spey,-3.609628,57.33041,0.09157480037785766,0.11952444761822817
193,Great Yarmouth,1.728047,52.59823000000001,0.24183335521378915,0.2643587369925989
194,Greenock,-4.7719830000000005,55.956480000000006,0.2778802013830249,0.14061622899521456
195,Grimsby,-0.08078400000000001,53.56746999999999,0.26783758239097605,0.49959062671531745
196,Guernsey,-2.5852779999999997,49.46569,0.01,0.054210474217012736
197,Guildford,-0.570409,51.23622,0.3293271966612871,0.32278569089471054
198,Halifax,-1.8575400000000002,53.727019999999996,0.2563102328095827,0.30015426445336885
199,Harrogate,-1.5418120000000002,53.99211999999999,0.3638916419350643,0.3039882020268353
200,Hartlepool,-1.212926,54.69174,0.2359528162383697,0.5537949554927194
201,Harwich,1.260297,51.93473,0.14168922446862076,0.21406394651554925
202,Hastings,0.573453,50.85426,0.2617790640172613,0.2838986043532567
203,Haverfordwest,-4.971319,51.800470000000004,0.15895948267910628,0.21455188428516936
204,Hawes,-2.1968695,54.303830000000005,0.01,0.05437931225868934
205,Hawick,-2.780914,55.42706,0.16238669449222765,0.1822403933261181
206,Heathrow,-0.4542955,51.47002,0.4509845239758531,0.3053404811150228
207,Helensburgh,-4.734014,56.00232,0.16922427403334014,0.08020191083120402
208,Helmsley,-1.0562636,54.24651,0.08461680529120101,0.09162009375304014
209,Helston,-5.274996,50.10159,0.14947861457267442,0.20194497120667976
210,Hereford,-2.715974,52.0564,0.28364867516239756,0.3901630575399146
211,Hexham,-2.1121439,54.97266,0.2694034413779538,0.3260384814169865
212,High Wycombe,-0.748229,51.628609999999995,0.31974164398241667,0.21639104563955605
213,Holt,1.086747,52.90936,0.17806030273706652,0.20292439699523807
214,Holyhead,-4.633038,53.30944,0.14397231835464208,0.18079951742430644
215,Horncastle,-0.11245,53.20731,0.1425403254738363,0.18767445548210634
216,Horsham,-0.325858,51.06288,0.25086530045318955,0.23303033300841547
217,Hove,-0.168749,50.82793,0.28314130835227386,0.1835136539381309
218,Huddersfield,-1.7850351000000002,53.645790000000005,0.36595894067921847,0.39835286793565555
219,Hull,-0.3274198,53.767619999999994,0.3792800023372878,0.6271561918237285
220,Hunstanton,0.49103199999999997,52.93891,0.0944700573839423,0.2152879874627751
221,Huntingdon,-0.182552,52.33146,0.21836870943304493,0.16083742638727438
222,Inchnadamph,-4.974295,58.15221,0.01,0.021121240318336013
223,Invergarry,-4.800261,57.07095,0.01,0.03632666503521187
224,Invergordon,-4.1728819999999995,57.688109999999995,0.16829311143996045,0.1409694336719053
225,Inverness,-4.224721,57.47776999999999,0.3140682587845369,0.21776696180372818
226,Ipswich,1.14822,52.056740000000005,0.3436149551089262,0.39077539592031485
227,Irvine,-4.6696364,55.61156999999999,0.2954557779555553,0.20612700768695266
228,Islay,-6.177067,55.73625,0.12188505574129965,0.07760189723462438
229,Isle of Man,-4.5126330999999995,54.27697,0.27059292227067266,0.4366185423798162
230,Isle of Wight,-1.304734,50.69385,0.2887425198597157,0.39861372825064073
231,Isle of Wight,-1.304734,50.69385,0.2887425198597157,0.39861372825064073
232,Jedburgh,-2.5549369,55.47772,0.12146998924036174,0.15698686016477365
233,Jersey,-2.13125,49.21444,0.01,0.05437555121165384
234,John o' Groats,-3.0688997000000002,58.63734,0.01,0.027782140096555375
235,Keighley,-1.9123580000000002,53.8678,0.26468892848956793,0.27512492830553087
236,Kelso,-2.432207,55.600030000000004,0.15535871750607277,0.16848424722469146
237,Kendal,-2.74629,54.32801,0.2528097828663784,0.33641543701106846
238,Keswick,-3.134706,54.60128,0.1274874569091614,0.27849541166710967
239,Kettering,-0.7302489999999999,52.39632,0.26001658795204535,0.3909829070392088
240,Kidderminster,-2.2496839,52.3886,0.23995631161516726,0.31571465212116634
241,Kildare,-6.8194707999999995,53.21204,0.29697479514838543,0.2578058031641551
242,Kilkeel,-6.007004,54.06312,0.11372658201991633,0.08036486490504009
243,Kilkenny,-7.2447879,52.65415,0.2562354720582098,0.235245601619274
244,Killarney,-9.5044265,52.059940000000005,0.26887647133327996,0.12855594980219232
245,Kilmarnock,-4.498792,55.61472,0.27843125915274225,0.18661561045399863
246,King's Lynn,0.4022963,52.75168000000001,0.2260997941609978,0.36256790122228444
247,Kingsbridge,-3.777493,50.28395,0.15813731857773095,0.21921280193900083
248,Kirkcaldy,-3.158137,56.11682,0.3569807372854635,0.16285905054549601
249,Kirkwall,-2.9622491,58.984669999999994,0.1516115070980786,0.13593310909822195
250,Kyle of Lochalsh,-5.7143293,57.28261,0.01,0.033846193459338605
251,Lairg,-4.402414,58.022059999999996,0.01,0.02682331732633532
252,Lampeter,-4.0785089999999995,52.1129,0.13382245256476383,0.1387956167196843
253,Lancaster,-2.8007399,54.046569999999996,0.2894297223965018,0.382373538304371
254,Langholm,-2.998913,55.153059999999996,0.08257566878769017,0.17897024521594088
255,Laois,-7.332300699999999,52.9943,0.22185283963768607,0.18197508848872132
256,Launceston,-4.360451599999999,50.636829999999996,0.1483349413516486,0.20263363121917694
257,Leamington Spa,-1.5200789,52.28519,0.3519012302182268,0.3246224309042957
258,Leeds,-1.5490774,53.80076,0.5488961434211581,0.4202745876806929
259,Leicester,-1.1397591999999999,52.636880000000005,0.42854044144376313,0.5048567618958444
260,Leitrim,-8.0020132,54.12469,0.15663723248090133,0.13047740880121705
261,Lewes,0.00878,50.873870000000004,0.26522980929423373,0.15122310345511866
262,Limerick,-8.6267343,52.66384,0.35075564434220446,0.14951473458586814
263,Lincoln,-0.540579,53.23069,0.36336120939666855,0.3792174793555393
264,Liskeard,-4.4647190000000005,50.45552,0.16401028804041373,0.23291720744388264
265,Liverpool,-2.9915726,53.40837,0.5008438119076364,1.0
266,Livingston,-3.518068,55.90071,0.34077349735788287,0.13064809129401336
267,Llandeilo,-3.9914300000000003,51.88469,0.18416461768790693,0.17434430445032292
268,Llandrindod Wells,-3.377742,52.2417,0.12746088362253885,0.16394091159526622
269,Llandudno,-3.827609,53.324059999999996,0.20948272455564082,0.3474145314184251
270,Llandudno,-3.827609,53.324059999999996,0.20948272455564082,0.3474145314184251
271,Llanelli,-4.160248,51.680890000000005,0.2492504064352485,0.29462691164748056
272,Llangefni,-4.311401999999999,53.255790000000005,0.20181483408275572,0.23381931320411314
273,Llangollen,-3.1716599999999997,52.96921,0.11099234892061152,0.24300215018048094
274,Llanidloes,-3.5401949999999998,52.447790000000005,0.1055844183362181,0.12749793735407416
275,Lochgilphead,-5.4323449,56.03829,0.09692442949986943,0.053146236668649434
276,Lockerbie,-3.349008,55.122240000000005,0.19298730774066605,0.35830975244643204
277,London,-0.12775830000000002,51.50735,1.0,0.45031067150481313
278,Longford,-7.7932573000000005,53.727630000000005,0.17976804975823404,0.13163085613529718
279,Loughborough,-1.206166,52.7721,0.3474109815612399,0.34958191607540745
280,Loughrea,-8.5660931,53.19891,0.01,0.01
281,Louth,-6.4889423,53.925230000000006,0.26517152055793847,0.18647524542589686
282,Louth_Lincs,-0.007711,53.36596,0.18494906988360388,0.2605859720798695
283,Lowestoft,1.7534490000000003,52.48114,0.25555568767624126,0.2716633052873405
284,Ludlow,-2.7139129,52.36775,0.180556173138133,0.3313699505545809
285,Luton,-0.4200255,51.87867,0.3591589291312639,0.35115390299689375
286,Lyme Regis,-2.936639,50.725159999999995,0.14647154984565483,0.2651196546849549
287,Macclesfield,-2.119287,53.25866,0.3232441342544978,0.3185801906973364
288,Machynlleth,-3.853485,52.59027,0.12289546977535454,0.13862921355859728
289,Magherafelt,-6.607980499999999,54.75536999999999,0.18899251976212514,0.13956424582213206
290,Maldon,0.6714479999999999,51.731809999999996,0.23582801494846944,0.31777412688555406
291,Mallow,-8.6539164,52.13898,0.13168928127190485,0.06979301347608668
292,Malton,-0.7978970000000001,54.13684,0.17981628775208375,0.17641173034646798
293,Manchester,-2.2426305,53.48076,0.664963425499244,0.7652363676379258
294,Mansfield,-1.198674,53.1472,0.2763839432901847,0.41479310462234537
295,March,0.088622,52.551719999999996,0.1503872027761741,0.2396424271662735
296,Margate,1.3868339,51.38965,0.24178463157739918,0.2531918893017055
297,Market Drayton,-2.483485,52.90355,0.11591625554051486,0.25642923259102796
298,Market Weighton,-0.6677465,53.86484,0.1275360841858402,0.2560205089817968
299,Marlborough,-1.7270619999999999,51.42007,0.20047786914643834,0.261897345742777
300,Mayo,-9.4289369,54.01526,0.15181048347438755,0.0715857320134579
301,Meath,-6.656416900000001,53.60555,0.2650665149655505,0.1688135762365507
302,Medway,0.5417860999999999,51.404740000000004,0.26470332819077896,0.35291358700499637
303,Melton Mowbray,-0.887126,52.7664,0.2150015014657782,0.21632607405444174
304,Merthyr Tydfil,-3.381646,51.74873,0.3390807984453394,0.4250463709322505
305,Middlesbrough,-1.234956,54.57423000000001,0.3141748394500766,0.6840507285075293
306,Midhurst,-0.737274,50.9869,0.19089948160535064,0.2264032972864206
307,Mildenhall,0.5156095,52.347570000000005,0.2277562971346351,0.2512856846448236
308,Milford Haven,-5.0426971,51.71431,0.13912996942814304,0.18554055045660223
309,Milton Keynes,-0.7594171,52.040620000000004,0.3840562756267776,0.36728471506894633
310,Minehead,-3.481152,51.20428,0.13797859290014,0.1614506463116969
311,Mold,-3.1419029999999997,53.1672,0.22789973656567314,0.3837391719592049
312,Mold,-3.1419029999999997,53.1672,0.22789973656567314,0.3837391719592049
313,Monaghan,-6.9683132,54.2492,0.19447226727360942,0.1410776281284261
314,Montrose,-2.4661150000000003,56.70692,0.19302217777279948,0.16875783835233563
315,Morecambe,-2.864968,54.074169999999995,0.1990054276344838,0.3268654401545221
316,Motherwell,-3.9810968,55.78321,0.3759775958495393,0.12329569864076405
317,Mull,-6.0008870000000005,56.4392,0.12474319923615582,0.06979635417160934
318,Mullingar,-7.340186800000001,53.525819999999996,0.16115194691743476,0.14121121359243521
319,Nantwich,-2.524102,53.067190000000004,0.20093891331265268,0.316462375191986
320,Nenagh,-8.19834,52.8635,0.18190254054361712,0.07860445878819433
321,New Romney,0.939473,50.98512,0.14632049184057105,0.18070041487638733
322,Newark-on-Trent,-0.80657,53.070040000000006,0.2805890983307893,0.40644543388983306
323,Newbury,-1.3231138999999998,51.40141,0.32746034213170566,0.2925475272587127
324,Newcastle,-1.61778,54.97825,0.5050099725575382,0.6135805253466531
325,Newcastle-under-Lyme,-2.2273002,53.01321,0.22431737434432011,0.4672849317787066
326,Newport,-2.997664,51.58415,0.33622630121076674,0.4937639079682674
327,Newquay,-5.0737190000000005,50.4155,0.21472664553496,0.26004265024310247
328,Newry,-6.34023,54.1751,0.2268149305464132,0.1518985255187573
329,Newton Stewart,-4.483164,54.9603,0.10972545436037759,0.14517163983169687
330,Newtown,-3.313106,52.51211,0.11104392883334804,0.15243637310207198
331,Northallerton,-1.429959,54.337959999999995,0.16992662717970208,0.32139617669816595
332,Northampton,-0.9026559999999999,52.24048,0.3922284647839361,0.392045240307478
333,Norwich,1.297355,52.63089,0.4324733157719196,0.4138984644079124
334,Nottingham,-1.1581086,52.95478000000001,0.4927187718940193,0.5671856738069974
335,Nuneaton,-1.465382,52.52049,0.3213935469355765,0.4100576158828368
336,Oban,-5.471047,56.41516,0.1893319090387878,0.11186087041838672
337,Offaly,-7.7122229,53.235690000000005,0.23037823957358017,0.18371400737022187
338,Okehampton,-4.004263,50.73831,0.13012932215835837,0.13517928755484573
339,Omagh,-7.309959700000001,54.59771,0.18609352123008016,0.16797660394798886
340,Orkney Islands,-2.9605206,58.980940000000004,0.1568376475222391,0.1398550958293796
341,Oswestry,-3.056412,52.85715,0.19810123960280643,0.3374903295537962
342,Otley,-1.691786,53.90583,0.20012436025864405,0.20501331631877387
343,Oxenholme,-2.7243327999999996,54.30134,0.10137623761239042,0.15388955991191605
344,Oxford,-1.2577263,51.75202,0.4729342566314599,0.2965184876724454
345,Paignton,-3.564235,50.43508,0.25420632947853955,0.2661533220178682
346,Peebles,-3.1936419999999996,55.65306999999999,0.17588206903871392,0.06004473233119046
347,Pembroke,-4.908637000000001,51.674040000000005,0.22274744499283952,0.26816747365045673
348,Penrith,-2.752708,54.6641,0.277631252067425,0.4577623945039288
349,Penzance,-5.537592,50.1188,0.2217725274029882,0.2747027233207771
350,Perth,-3.4308381000000003,56.39499,0.19619788553265458,0.17233849587842545
351,Peterborough,-0.2405299,52.5695,0.3399058088563165,0.4695894908457089
352,Peterhead,-1.784066,57.50812,0.1989291543602815,0.18475851582776848
353,Petersfield,-0.93899,51.00759,0.18922476860721155,0.29140798068912155
354,Pitlochry,-3.729711,56.70436,0.11143678863005364,0.10434445118616023
355,Plymouth,-4.1426565,50.37546,0.3792733280496615,0.4312000369204504
356,Poole,-1.987248,50.71505,0.29477588793484016,0.3664706753520261
357,Porthmadog,-4.1333839999999995,52.92784,0.16949083011908675,0.17391205795319906
358,Portree,-6.1960231,57.41246999999999,0.16046594662082947,0.15601434593622593
359,Portsmouth,-1.0879769,50.81977,0.394385939608982,0.5868704653373711
360,Prestatyn,-3.4076129999999996,53.33651,0.1490278060395484,0.3397236596313025
361,Preston,-2.70309,53.7632,0.4018183162227938,0.5499616694362408
362,Pwllheli,-4.417633900000001,52.888819999999996,0.13299165011212,0.12878421036865656
363,Ramsgate,1.4198950000000001,51.33555,0.23778369013506204,0.2537416671608676
364,Reading,-0.9781303,51.45426,0.4135517237823395,0.33223775729446126
365,Redruth,-5.226666000000001,50.23302,0.1756783228636058,0.22880093848516922
366,Reeth,-1.9428115000000001,54.38946,0.15629528978117194,0.29520558300850064
367,Retford,-0.9455030000000001,53.32136,0.1691397383178262,0.26030393588947587
368,Rhyl,-3.4916339999999995,53.319140000000004,0.18035187960895585,0.373506666930012
369,Ringwood,-1.7888169999999999,50.84495,0.22698666467702922,0.30280069370231305
370,Rochdale,-2.1561,53.60971,0.36127447063080875,0.4675344666430009
371,Roscommon,-8.1890955,53.627590000000005,0.1915968374272713,0.09154488111361354
372,Ross-on-Wye,-2.582446,51.91445,0.214994870177143,0.33080655729895764
373,Rosslare,-6.3414908,52.25131,0.01,0.030935271271371044
374,Rotherham,-1.3635008999999998,53.4326,0.3641537322036699,0.11724251500093075
375,Rothesay,-5.055793,55.83596,0.17481360878733546,0.10285298877106759
376,Royston,-0.024066,52.048140000000004,0.17661767389970293,0.17896853864051243
377,Rugby,-1.265032,52.37088,0.30313417325999165,0.3400027708378022
378,Ruthin,-3.3103108,53.114869999999996,0.14574464074176363,0.32341778203341487
379,Ruthin,-3.3103108,53.114869999999996,0.14574464074176363,0.32341778203341487
380,Salisbury,-1.794472,51.06878,0.28280955328811785,0.2679574050992161
381,Saltash,-4.21643,50.409209999999995,0.14999465004262091,0.21441403032189865
382,Sark,-2.3666256000000003,49.43007,0.01,0.05432440463532847
383,Scarborough,-0.399752,54.28311,0.24784323950434567,0.37281997415083384
384,Scilly Isles,-6.327496599999999,49.92773,0.10718119538558273,0.15657897515463504
385,Scunthorpe,-0.654413,53.58865,0.2523642375691729,0.41286933549249283
386,Sedbergh,-2.5281740000000004,54.32363,0.12485753793655749,0.1965988012932646
387,Sedbergh,-2.5281740000000004,54.32363,0.12485753793655749,0.1965988012932646
388,Selby,-1.067189,53.783519999999996,0.21026212717304238,0.2302405542662949
389,Selkirk,-2.838524,55.55066,0.20384344120052164,0.1665625396209057
390,Sevenoaks,0.190898,51.27241,0.34931791786986827,0.2592864369106087
391,Shaftesbury,-2.198083,51.0046,0.1619678980053242,0.18781150386055942
392,Sheffield,-1.470085,53.381130000000006,0.5489513768045609,0.18590741578738337
393,Sheringham,1.2109589,52.944419999999994,0.1235084303001004,0.15542740549379291
394,Shetland Islands,-1.2659409,60.52965,0.08317304542727273,0.09515121403574699
395,Shrewsbury,-2.7553267999999997,52.7073,0.32486645831739003,0.5273227394889164
396,Sidmouth,-3.2375599999999998,50.67865,0.1627217951059243,0.20233796071069096
397,Skegness,0.337881,53.1464,0.16719722551071445,0.3142799599003088
398,Skipton,-2.0162787,53.96285,0.20603936359793304,0.2403238136382294
399,Sligo,-8.476088800000001,54.27661,0.24718907688517078,0.17966814821347474
400,Slough,-0.5950406,51.51054,0.3501745869921841,0.31316429101870547
401,South Shields,-1.427406,54.99941999999999,0.29368362821337396,0.4396877695906974
402,Southampton,-1.4043508999999998,50.9097,0.4785486722542838,0.4617128600759149
403,Southend,0.7077123000000001,51.54593,0.3085860439565412,0.5333499819142686
404,Southport,-3.010113,53.64571,0.2727801523901059,0.4972218374681138
405,Spalding,-0.1537024,52.7901,0.21418835223764088,0.3361342494790263
406,St Andrews,-2.7967214,56.339780000000005,0.22433943032230977,0.19404995444428122
407,St Austell,-4.7834252,50.340379999999996,0.18652705770806818,0.23877072752444312
408,St Neots,-0.26510300000000003,52.23008,0.19456217471317142,0.17270810206386172
409,Stafford,-2.12066,52.80669,0.33345798227924933,0.43730112392328724
410,Stanhope,-2.011302,54.74946,0.23626079927511617,0.3363705443079899
411,Stevenage,-0.19661199999999998,51.90376,0.31333391955983586,0.2961327790484898
412,Stirling,-3.9369029,56.116519999999994,0.3426248080394404,0.1542417949457107
413,Stockton,-1.3289821000000002,54.57046,0.2525370433912822,0.5603215660531289
414,Stoke-on-Trent,-2.179404,53.002669999999995,0.3367230469105856,0.6134487644969789
415,Stornoway,-6.384869200000001,58.209430000000005,0.17176713905791433,0.1133814853659547
416,Strabane,-7.4633103,54.82739,0.1717883987571605,0.16549377305229368
417,Stranraer,-5.024055000000001,54.903369999999995,0.15536739315942727,0.1269331364095334
418,Stratford-upon-Avon,-1.7082979999999999,52.19173,0.27613698695804395,0.24076630470505156
419,Street,-2.7429189999999997,51.12468,0.12173857050564853,0.21217488809679305
420,Sunderland,-1.383801,54.90687,0.3283734065468439,0.516998200661358
421,Swaffham,0.687481,52.64747,0.12796035764313807,0.22361342557557315
422,Swansea,-3.9436459999999998,51.62144,0.3966022923494537,0.44741302241088965
423,Swindon,-1.7797176,51.55577,0.33396645449077034,0.4069206983822023
424,Tain,-4.05523,57.8115,0.10638844515150868,0.09749052664249076
425,Taunton,-3.106849,51.01534,0.2588640680527739,0.39173245887407065
426,Tavistock,-4.141654,50.551120000000004,0.17866780935109564,0.23438687249784668
427,Telford,-2.4672611,52.67759,0.28859347499687177,0.4254600196952536
428,Tenby,-4.703579,51.672740000000005,0.16002715337828827,0.20686038447637958
429,Thetford,0.751657,52.412859999999995,0.18656268829462092,0.20155028947509881
430,Thirsk,-1.341377,54.23385,0.16448641389703805,0.1797507519044699
431,Thurso,-3.5220800000000003,58.59356999999999,0.1516699849399368,0.13383359978649823
432,Tipperary,-8.161851400000002,52.47379,0.24406142081603535,0.1524413185290401
433,Tiverton,-3.491207,50.90205,0.18218707864691328,0.19518345965991787
434,Tiverton,-3.491207,50.90205,0.18218707864691328,0.19518345965991787
435,Torquay,-3.525315,50.46192,0.26143864456903254,0.2682803847610645
436,Totnes,-3.685797,50.43374,0.16815266593463818,0.2086732245150775
437,Towcester,-0.9896879999999999,52.13511,0.22022033703617652,0.2127945860458083
438,Tralee,-9.6999325,52.27131,0.16243724583290725,0.0678841335948754
439,Tregaron,-3.934385,52.22,0.12907536636911562,0.14277206395299805
440,Tregaron,-3.934385,52.22,0.12907536636911562,0.14277206395299805
441,Trowbridge,-2.208853,51.31966,0.36249000395406683,0.3432818209047049
442,Truro,-5.051041000000001,50.2632,0.35469388120406387,0.41087815767304164
443,Tunbridge Wells,0.26369499999999996,51.13238,0.32312209315253604,0.1826899350447262
444,Turriff,-2.4623,57.53893000000001,0.15116726873722833,0.1457842490280155
445,Tyrone,-7.131232000000001,54.491209999999995,0.12882764457625162,0.10398242662171577
446,Tywyn,-4.087249,52.58701,0.08647835440028091,0.1042856036379205
447,Uckfield,0.095913,50.966409999999996,0.27605171352818175,0.17923155580416833
448,Ullapool,-5.161313,57.895419999999994,0.11261913254212891,0.08070176482722417
449,Wadebridge,-4.836456,50.51665,0.16884480737422206,0.2059084804014903
450,Wakefield,-1.505924,53.6833,0.3347031484739856,0.34379180493082634
451,Walsall,-1.9829189999999999,52.586209999999994,0.30599573874588293,0.5632125335955973
452,Warrington,-2.5969501,53.39004,0.41478944062593487,0.7973934097730218
453,Waterford,-7.110070200000001,52.25932,0.29039486828130034,0.26130363907463233
454,Wellingborough,-0.693964,52.30242,0.2381411115802545,0.29135098367371903
455,Wells,-2.6445979,51.20935,0.18593049274482,0.2324125867324341
456,Welshpool,-3.146407,52.66035,0.15595788004116365,0.24119013831304126
457,Welwyn Garden City,-0.208661,51.80317,0.4597580472473955,0.40098594356853334
458,Western Isles,-7.0194034,57.759890000000006,0.11105526616687635,0.08808598950696776
459,Westmeath,-7.4653217000000005,53.534530000000004,0.16516689174646684,0.14791336804360616
460,Weston-super-Mare,-2.977255,51.347409999999996,0.29815625601379214,0.22062933396883758
461,Wetherby,-1.384816,53.92706,0.18932422904495697,0.15304228668465564
462,Wexford,-6.4633381,52.33692,0.273093383854351,0.24673583983571662
463,Weymouth,-2.457621,50.61443,0.22456081798368996,0.32898904890744085
464,Whitby,-0.613347,54.48633,0.16346017056092566,0.40898646939569905
465,Whitchurch,-2.682045,52.96872,0.145468855988463,0.2831730819199194
466,Whitehaven,-3.589233,54.5497,0.18826713824052405,0.33408907330457993
467,Wick,-3.093716,58.43894,0.14234472762146733,0.12801408442093382
468,Wicklow,-6.044589,52.980819999999994,0.26553037310936173,0.1689867129292057
469,Wigan,-2.6325074,53.54506,0.3940747065684417,0.8105783755496719
470,Wincanton,-2.416007,51.055690000000006,0.13527524117194667,0.21330990911073933
471,Wisbech,0.158797,52.66631999999999,0.1590954518975044,0.27724963713830864
472,Witney,-1.4850543999999999,51.785940000000004,0.25831045563309096,0.17263663168795032
473,Woking,-0.5600349,51.31677,0.4045709576557865,0.353488131124106
474,Wolverhampton,-2.12882,52.586969999999994,0.318756565598985,0.542315865394327
475,Worcester,-2.221575,52.19364,0.3746084771514978,0.41282945452184566
476,Workington,-3.5427519999999997,54.64357,0.1838656590579036,0.341968024237407
477,Worksop,-1.122745,53.3093,0.2206371863441888,0.31981214751134895
478,Worthing,-0.372882,50.81787,0.35181631578941897,0.24527258785758171
479,Wrexham,-2.9924939999999998,53.043040000000005,0.2780985381981162,0.4329033220398795
480,Yeovil,-2.633308,50.94206,0.23578054989962863,0.3698468668604272
481,York,-1.0872979,53.95997,0.42580420228534,0.30867817700988115
