,placename,should_have,should_of,longitude,latitude
0,Dingle,0.5614590619117776,0.04369495236963064,-10.2640135,52.14094
1,Tralee,0.6112349191478931,0.0338337694987543,-9.6999325,52.27131
2,Killarney,0.3962084632893085,0.0764330623989737,-9.5044265,52.05994000000001
3,Bantry,0.3187809278293573,0.09177247727721903,-9.4539805,51.68035
4,Mayo,0.43532996829274734,0.06868243635036418,-9.4289369,54.01526
5,Ballycastle,0.13780585261722708,0.12762623473919987,-9.3724643,54.27967
6,Abbeyfeale,0.3789097662699342,0.07986009194606912,-9.2970823,52.38618
7,Ennistymon,0.9259336378899928,0.01,-9.2934951,52.94037
8,Galway,1.0,0.01,-9.0567905,53.27067
9,Claremorris,0.8185356400597191,0.01,-9.0017356,53.72388
10,Clare,0.8239957739826247,0.01,-8.9811351,52.90453
11,Adare,0.3749706696541256,0.08064061936674446,-8.7925892,52.56363
12,Charleville,0.3425502381015201,0.0870632530273692,-8.681017599999999,52.36206
13,Mallow,0.2962029195040047,0.0962454079486714,-8.6539164,52.13898
14,Limerick,0.8756294949691203,0.01,-8.6267343,52.66384
15,Loughrea,0.8721548642909123,0.01,-8.5660931,53.19891
16,Sligo,0.01,0.2515461312253098,-8.476088800000001,54.27661
17,Cork,0.01,0.15978962596401042,-8.4756035,51.89851
18,Nenagh,0.2820491178025588,0.0990496732668516,-8.19834,52.8635
19,Roscommon,0.4005021140559574,0.07558222288793706,-8.1890955,53.62759000000001
20,Tipperary,0.01,0.18055276517517865,-8.161851400000002,52.47379
21,Donegal,0.01,0.30867902451763457,-8.1096143,54.653830000000006
22,Leitrim,0.01,0.2869545553677189,-8.0020132,54.12469
23,Athlone,0.026716946076742614,0.1496339190223195,-7.9406898,53.42393000000001
24,Longford,0.01,0.2311618063031717,-7.7932573,53.72763000000001
25,Offaly,0.01,0.2957002976842106,-7.7122229,53.23569000000001
26,Fermanagh,0.01,0.27823318697266125,-7.6318728,54.34383
27,Enniskillen,0.01,0.27823318697266125,-7.631533599999999,54.34382
28,Doon,0.01,0.26276354370727306,-7.60964,54.185930000000006
29,Westmeath,0.01,0.3156031147347929,-7.4653217,53.53453
30,Strabane,0.01,0.3560136013935021,-7.4633103,54.82739
31,Cavan,0.01,0.2819706152483352,-7.3633319,53.98972
32,Mullingar,0.01,0.3248765138173135,-7.3401868000000015,53.52582
33,Laois,0.01,0.2912655083365007,-7.3323006999999985,52.99429
34,Omagh,0.01,0.33364157264214617,-7.309959700000001,54.59771
35,Derry,0.01,0.34585712179147754,-7.308574799999999,54.99661
36,Kilkenny,0.01,0.3689892375855916,-7.2447879,52.65415
37,Tyrone,0.01,0.2600595135069208,-7.1312320000000025,54.49121
38,Waterford,0.01,0.3667466260881204,-7.110070200000001,52.25932
39,Monaghan,0.01,0.2765695087906334,-6.9683132,54.2492
40,Carlow,0.01,0.3027216728615593,-6.9341358999999985,52.83651
41,Kildare,0.01,0.34800715453260866,-6.8194708,53.21204
42,Dungannon,0.01,0.2141336369029793,-6.7669352,54.50827
43,Cookstown,0.01,0.2218713384514625,-6.7443895000000005,54.64182
44,Coleraine,0.01,0.31163438005196603,-6.6646103000000005,55.13258
45,Meath,0.01,0.20385437454975427,-6.656416900000001,53.60555
46,Armagh,0.05392897715353887,0.14424334884189466,-6.652792,54.35028000000001
47,Magherafelt,0.01,0.2415370190214653,-6.607980499999999,54.75536999999999
48,Louth,0.01,0.2276379132469769,-6.4889423,53.925230000000006
49,Wexford,0.01,0.3638406505732936,-6.4633381,52.33692
50,Craigavon,0.01,0.1840597299458817,-6.4175653,54.44293
51,Drogheda,0.01,0.1997488789878728,-6.3560985,53.71786
52,Rosslare,0.01,0.3402771795874619,-6.3414908,52.25131
53,Newry,0.01,0.19829726094650546,-6.34023,54.1751
54,Ballymena,0.01,0.32240674018175164,-6.2802213,54.86529
55,Banbridge,0.01,0.1687056345212973,-6.2704803,54.34873
56,Dublin,0.3176428090051651,0.09199802385279388,-6.2603097000000005,53.34981
57,Antrim,0.13462550188421382,0.1282563041203605,-6.2072498,54.719530000000006
58,Wicklow,0.01,0.1875572120670357,-6.044589,52.98082
59,Kilkeel,0.01,0.18934184671220275,-6.007004,54.06312
60,Belfast,0.29218936651652355,0.09704089688307993,-5.93012,54.59728000000001
61,Down,0.04166494907606355,0.14667259293086451,-5.7156922,54.32875
62,Balivanich,0.01,0.1927067122233644,-7.3743509,57.47227
63,Western Isles,0.01,0.2277003582503048,-7.0194034,57.75989000000001
64,Dunvegan,0.01,0.1953312286512,-6.5813982000000015,57.4366
65,Stornoway,0.01,0.2845878265239256,-6.3848692000000025,58.20943000000001
66,Scilly Isles,0.01,0.5115391688272303,-6.327496599999999,49.92773
67,Portree,0.01,0.20463307568236824,-6.1960231,57.41246999999999
68,Islay,0.5953367110243271,0.03698334374422387,-6.177067,55.73625
69,Mull,0.7228308381240766,0.011724585744533552,-6.0008870000000005,56.4392
70,Broadford,0.01,0.20001874816985926,-5.9096592,57.24139
71,Kyle of Lochalsh,0.01,0.1811661872382417,-5.7143293,57.28261
72,Campbeltown,0.5783393850331605,0.04035073796193187,-5.6053739999999985,55.42412
73,Penzance,0.01,0.5080735062634527,-5.537592,50.1188
74,Oban,0.7269330296492758,0.010912098282784902,-5.471047,56.41516
75,Lochgilphead,0.6629820974626646,0.02358155025720669,-5.4323449,56.03829
76,Helston,0.01,0.5005442122795073,-5.274996,50.10159
77,Redruth,0.01,0.4997735889594723,-5.226666000000002,50.23302
78,Ullapool,0.01,0.3114800587107832,-5.161313,57.89542
79,Ballachulish,0.3207557944495194,0.09138123018100218,-5.1337199999999985,56.67393000000001
80,Fort William,0.040296370053825886,0.14694400743351824,-5.1052179,56.81981999999999
81,Achnasheen,0.01,0.296495084200134,-5.078765799999998,57.57859000000001
82,Newquay,0.01,0.5031424582559991,-5.0737190000000005,50.4155
83,Falmouth,0.01,0.5005442122795073,-5.0662699999999985,50.15257
84,Rothesay,0.6491828499120589,0.02631571421057101,-5.055793,55.83596
85,Truro,0.01,0.4992527456527492,-5.0510410000000014,50.2632
86,Milford Haven,0.01,0.4881345849027346,-5.0426971,51.71431
87,Stranraer,0.01,0.2123839826983718,-5.0240550000000015,54.90337
88,Fishguard,0.01,0.5081618002670334,-4.975989,51.99393
89,Inchnadamph,0.01,0.3217410581833949,-4.974295,58.15221
90,Haverfordwest,0.01,0.5081394633592062,-4.971319,51.80048
91,Dunoon,0.7075601908474975,0.014749902159983782,-4.926214,55.95097
92,Pembroke,0.01,0.4919405692225572,-4.9086370000000015,51.67404000000001
93,Girvan,0.5276806879614617,0.05038675279375682,-4.8542179,55.24016
94,Wadebridge,0.01,0.4993760903387378,-4.836456,50.51665
95,Invergarry,0.01,0.2170070904419448,-4.800261,57.07095
96,St Austell,0.01,0.4992527456527492,-4.7834252,50.34038
97,Greenock,0.7475184436469187,0.01,-4.7719830000000005,55.956480000000006
98,Helensburgh,0.7517943667060234,0.01,-4.734014,56.00232
99,Bodmin,0.01,0.5001783927324521,-4.7188629,50.4715
100,Tenby,0.01,0.4950750414705965,-4.703579,51.67274000000001
101,Camelford,0.01,0.5003278673860876,-4.682364,50.62206
102,Irvine,0.6305084827874335,0.030015141646199468,-4.6696364,55.61156999999999
103,Cardigan,0.01,0.5072150806327766,-4.660864,52.0837
104,Holyhead,0.01,0.9144754920224614,-4.633038,53.30944
105,Ayr,0.6292072690538584,0.030273069713938783,-4.629179,55.45856
106,Dumbarton,0.7643384925626577,0.01,-4.564554,55.94529
107,Bude,0.01,0.490319036149637,-4.543678,50.82664000000001
108,Isle of Man,0.01,0.7621017465733554,-4.5126331,54.27697
109,Kilmarnock,0.6635671118115416,0.023465791690857447,-4.498792,55.61472
110,Newton Stewart,0.01,0.2902991209846603,-4.483164,54.9603
111,Liskeard,0.01,0.5012188149926251,-4.4647190000000005,50.45552
112,Altnaharra,0.01,0.3205987150010298,-4.442655,58.28023
113,Pwllheli,0.01,0.6691214175854157,-4.417633900000001,52.88882
114,Lairg,0.01,0.3184646271595111,-4.402414,58.02206
115,Launceston,0.01,0.4946366620940275,-4.360451599999998,50.63683
116,Carmarthen,0.01,0.5025704788835587,-4.312131,51.85762
117,Llangefni,0.01,0.9771548923989094,-4.311401999999998,53.25578
118,Caernarfon,0.01,0.9319992176639122,-4.273911,53.13955
119,Cumnock,0.6703603693415999,0.022119747147804864,-4.265828900000002,55.45355
120,Aberaeron,0.01,0.5145918093217521,-4.2581619,52.24279
121,Alness,0.01,0.31524080728016346,-4.256825,57.69595
122,Glasgow,0.8204395958497196,0.01,-4.251806,55.86424
123,Dalwhinnie,0.01,0.23959630698890266,-4.242783,56.9366
124,Inverness,0.01,0.3311684976397041,-4.224721,57.47776999999999
125,Saltash,0.01,0.499041247446877,-4.21643,50.40921
126,Bideford,0.01,0.4858898661498083,-4.206666,51.01668
127,Invergordon,0.01,0.3293494444887659,-4.172882,57.68811
128,Llanelli,0.01,0.5226535365174251,-4.160248,51.68089000000001
129,Plymouth,0.01,0.4983113643989795,-4.1426565,50.37546
130,Tavistock,0.01,0.5045454689381957,-4.141654,50.55112
131,Porthmadog,0.01,0.6865083121059634,-4.133384,52.92784
132,Bangor,0.01,0.9734926931429928,-4.129263,53.22739
133,Tywyn,0.01,0.5423256090956424,-4.087249,52.58701
134,Aberystwyth,0.01,0.4503374462179476,-4.08292,52.4153
135,Lampeter,0.01,0.5130584297687155,-4.078509,52.1129
136,Barnstaple,0.01,0.4717470211609801,-4.058338,51.07816
137,Tain,0.01,0.32113908554163945,-4.05523,57.8115
138,Okehampton,0.01,0.5175708363590321,-4.004263,50.73831
139,Llandeilo,0.01,0.5218068412754506,-3.99143,51.88469
140,Motherwell,0.8507787945369046,0.01,-3.9810968,55.78321
141,Golspie,0.01,0.3218508461926205,-3.976086,57.97341
142,Airdrie,0.8989059749716223,0.01,-3.962566,55.86626999999999
143,Swansea,0.01,0.5209841687456678,-3.943646,51.62144
144,Stirling,0.8383233072179749,0.01,-3.9369029,56.11652
145,Tregaron,0.01,0.4999815048310705,-3.934385,52.22
146,Castle Douglas,0.01,0.42213962879278094,-3.931414,54.94042
147,Dolgellau,0.01,0.6481287982551559,-3.8844,52.74215
148,Aberfeldy,0.01,0.2276394585676441,-3.866969,56.62175
149,Machynlleth,0.01,0.6009953237915808,-3.853485,52.59027
150,Brora,0.01,0.3359958686787527,-3.852548000000001,58.01216
151,Llandudno,0.01,0.9783682500901212,-3.827609,53.32406
152,Aviemore,0.01,0.32100450215988874,-3.823812,57.19449
153,Dalbeattie,0.01,0.5000156423694477,-3.822527,54.93422
154,Falkirk,0.8181172661617301,0.01,-3.7839131,56.00188000000001
155,Kingsbridge,0.01,0.5194888602745252,-3.777493,50.28395
156,Pitlochry,0.01,0.2387283284668289,-3.729711,56.70436
157,Colwyn Bay,0.01,0.9793438391241168,-3.72764,53.29318000000001
158,Totnes,0.01,0.5338269073603706,-3.685797,50.43374
159,Grantown-on-Spey,0.01,0.3063266952527865,-3.609628,57.33041
160,Dumfries,0.01,0.41571917262946,-3.60512,55.07086
161,Whitehaven,0.01,0.8021117844536924,-3.589233,54.5497
162,Dartmouth,0.01,0.5509330452124122,-3.578807,50.35252
163,Bridgend,0.01,0.372073065460853,-3.576945,51.50429000000001
164,Paignton,0.01,0.5620500820928507,-3.564235,50.43508
165,Workington,0.01,0.7806377274937253,-3.542752,54.64357
166,Llanidloes,0.01,0.5679647969468787,-3.540195,52.44779000000001
167,Exeter,0.01,0.5535374022297246,-3.533899,50.71841
168,Torquay,0.01,0.5586257919778471,-3.525315,50.46192
169,Thurso,0.01,0.3360597887608994,-3.5220800000000003,58.59356999999999
170,Livingston,0.7265926576644648,0.01097931973181173,-3.518068,55.90071
171,Rhyl,0.01,0.98007393289756,-3.4916339999999995,53.31914
172,Tiverton,0.01,0.5322707694484161,-3.491207,50.90205
173,Minehead,0.01,0.368686635702198,-3.481152,51.20428
174,Dunfermline,0.5126334097999037,0.05336788708649247,-3.452151,56.07174000000001
175,Perth,0.30798120839483545,0.09391176301552764,-3.4308381000000003,56.39499
176,Prestatyn,0.01,0.993951895875646,-3.407613,53.33651
177,Builth Wells,0.01,0.5543748957895439,-3.404592,52.15002
178,Braemar,0.01,0.3237280595941276,-3.3979439,57.00646999999999
179,Brecon,0.01,0.5464086272659998,-3.391463,51.94895
180,Merthyr Tydfil,0.01,0.3886068024893631,-3.381646,51.74873
181,Llandrindod Wells,0.01,0.535645539060218,-3.377742,52.2417
182,Corwen,0.01,0.8289648919309284,-3.369242,52.98005
183,Cockermouth,0.01,0.7801916215138199,-3.367985,54.66326
184,Lockerbie,0.01,0.4203389087643044,-3.349008,55.12224000000001
185,Blairgowrie,0.01,0.25841360651256673,-3.3378318,56.58941
186,Elgin,0.01,0.3236819809415032,-3.318485,57.64945
187,Newtown,0.01,0.7114854705349655,-3.313106,52.51211
188,Ruthin,0.01,1.0,-3.3103108,53.11487
189,Sidmouth,0.01,0.5380282830454722,-3.23756,50.67865
190,Barrow-in-Furness,0.01,0.7458360524387705,-3.218894,54.10896999999999
191,Peebles,0.6313594127494456,0.02984656120976852,-3.193642,55.65306999999999
192,Edinburgh,0.4765220695370793,0.060521808631984975,-3.188267,55.95325
193,Cardiff,0.01,0.3939693461722312,-3.17909,51.48158
194,Llangollen,0.01,0.9474491229698678,-3.17166,52.96921
195,Kirkcaldy,0.3635079339575393,0.08291146808731772,-3.158137,56.11682
196,Welshpool,0.01,0.7793007441491309,-3.146407,52.66035
197,Mold,0.01,0.9898373391153058,-3.141903,53.1672
198,Taunton,0.01,0.3893021967896407,-3.106849,51.01534
199,Wick,0.01,0.3275741520094511,-3.093716,58.43894
200,John o' Groats,0.01,0.3411379231991389,-3.0688997,58.63734
201,Dalkeith,0.5046949423626484,0.05494067231654465,-3.066606,55.89312
202,Oswestry,0.01,0.7773459837468656,-3.056412,52.85715
203,Blackpool,0.01,0.8022370959114394,-3.0356748,53.81751
204,Birkenhead,0.01,0.9942359539110324,-3.023009,53.38999
205,Cupar,0.26626791254877463,0.1021762784278574,-3.010137,56.32023
206,Southport,0.01,0.977590181134144,-3.010113,53.64571
207,Bridgwater,0.01,0.4365390672542267,-3.003632,51.12789
208,Langholm,0.01,0.6158136143957089,-2.998913,55.15306
209,Newport,0.01,0.3907488979016121,-2.997664,51.58415
210,Axminster,0.01,0.5836909634430361,-2.994937,50.78273
211,Wrexham,0.01,0.9402693524241228,-2.992494,53.04304000000001
212,Liverpool,0.01,0.9925726269382472,-2.9915726,53.40837
213,Weston-super-Mare,0.01,0.42895477390289577,-2.977255,51.34741
214,Dundee,0.2320286182023685,0.1089593932550504,-2.970721,56.46202
215,Kirkwall,0.01,0.3350435296966149,-2.9622491,58.98467
216,Ambleside,0.01,0.8194174793973591,-2.961333,54.42874000000001
217,Orkney Islands,0.01,0.3350435296966149,-2.9605206,58.98094
218,Lyme Regis,0.01,0.5754716135393,-2.936639,50.72516
219,Carlisle,0.01,0.7028588583935518,-2.932931,54.89247
220,Chester,0.01,0.9748489227540802,-2.893075,53.19339
221,Forfar,0.01,0.16345006917371427,-2.889062,56.64356
222,Morecambe,0.01,0.7428853328664409,-2.864968,54.07417
223,Selkirk,0.4140035361198545,0.0729073430547176,-2.838524,55.55066
224,Galashiels,0.3891528356876347,0.07783059421698617,-2.814449,55.62373
225,Lancaster,0.01,0.7570545887903102,-2.8007399,54.04657
226,St Andrews,0.2409137452223661,0.10719920277316587,-2.7967214,56.33978000000001
227,Hawick,0.01,0.17117224727367605,-2.780914,55.42706
228,Bridport,0.01,0.5896264698842237,-2.758301,50.73358
229,Shrewsbury,0.01,0.7563237223565333,-2.7553268,52.7073
230,Penrith,0.01,0.7936315563245795,-2.752708,54.6641
231,Kendal,0.01,0.7405400277864441,-2.74629,54.32801
232,Street,0.01,0.5482570415096165,-2.742919,51.12468
233,Glastonbury,0.01,0.5403645269270111,-2.718454,51.14743
234,Hereford,0.01,0.5898214612556955,-2.715974,52.0564
235,Ludlow,0.01,0.7003928778178096,-2.7139129,52.36775
236,Preston,0.01,0.8043392939537333,-2.70309,53.7632
237,Whitchurch,0.01,0.8053002024413896,-2.682045,52.96872
238,Wells,0.01,0.5474218659307984,-2.6445979,51.20935
239,Yeovil,0.01,0.5705609356679152,-2.633308,50.94206
240,Wigan,0.01,0.8966969991964545,-2.6325074,53.54506
241,Warrington,0.01,0.9015460749666936,-2.5969501,53.39004
242,Arbroath,0.11611068412746815,0.13192440369155214,-2.591543,56.55911
243,Bristol,0.01,0.5351364963840449,-2.58791,51.45451
244,Guernsey,0.01,0.5612225628755203,-2.585278,49.46569
245,Ross-on-Wye,0.01,0.5655037333005325,-2.582446,51.91445
246,Jedburgh,0.01,0.2004808692912256,-2.5549369,55.47772
247,Sedbergh,0.01,0.6748371372826069,-2.5281740000000004,54.32363
248,Nantwich,0.01,0.7859864335324365,-2.524102,53.06718000000001
249,Banff,0.01,0.3178371567267455,-2.524038,57.66651
250,Dunbar,0.2453208533172751,0.10632560490321093,-2.516737,56.00209
251,Cinderford,0.01,0.5484197216307726,-2.5009579,51.8253
252,Banchory,0.01,0.35024365498925913,-2.4909599,57.05386
253,Blackburn,0.01,0.7691964542405514,-2.487529,53.74858
254,Market Drayton,0.01,0.8118225795269026,-2.483485,52.90355
255,Telford,0.01,0.7645753835105853,-2.4672611,52.67759
256,Montrose,0.01,0.16600026972582332,-2.4661150000000003,56.70692
257,Turriff,0.01,0.3190774170459377,-2.4623,57.53893000000001
258,Weymouth,0.01,0.6006129974101253,-2.457621,50.61443
259,Crewe,0.01,0.7507519282069453,-2.4438209,53.1004
260,Fortuneswell,0.01,0.6017549191413992,-2.442219,50.55919
261,Dorchester,0.01,0.6029443946041166,-2.4411810000000003,50.71116
262,Alston,0.01,0.6554803101205151,-2.438685,54.81217
263,Kelso,0.08915747758077712,0.1372640485318052,-2.432207,55.60003
264,Wincanton,0.01,0.5296677470262254,-2.416007,51.05569000000001
265,Clitheroe,0.01,0.6519449676430128,-2.3930830000000003,53.8711
266,Sark,0.01,0.5617965792615677,-2.3666256000000003,49.43007
267,Bath,0.01,0.4827576416409213,-2.3590167,51.38106
268,Kidderminster,0.01,0.6573234562254935,-2.2496839,52.3886
269,Manchester,0.01,0.5757718974416924,-2.2426305,53.48076
270,Burnley,0.01,0.6461628693989773,-2.2405035,53.78929
271,Gloucester,0.01,0.496137308945657,-2.238156,51.86424
272,Newcastle-under-Lyme,0.01,0.7419184538216609,-2.2273002,53.01321
273,Worcester,0.01,0.5737676867780742,-2.221575,52.19364
274,Trowbridge,0.01,0.4833638287935876,-2.208853,51.31966
275,Shaftesbury,0.01,0.5267394346035715,-2.198083,51.0046
276,Alderney,0.01,0.6011119955019608,-2.1973557,49.715
277,Stoke-on-Trent,0.01,0.7412199688800487,-2.179404,53.00267
278,Colne,0.01,0.5562904612403391,-2.176991,53.85564
279,Blandford Forum,0.01,0.5952905618227579,-2.165353,50.85691
280,Rochdale,0.01,0.5862192485384089,-2.1561,53.60971
281,Jersey,0.01,0.5975982172719521,-2.13125,49.21444
282,Wolverhampton,0.01,0.6824004283212324,-2.12882,52.58697
283,Stafford,0.01,0.8227431499570507,-2.12066,52.80669
284,Macclesfield,0.01,0.4638086386512955,-2.119287,53.25866
285,Hexham,0.01,0.6526551127314781,-2.1121439,54.97266
286,Aberdeen,0.01,0.3523810441976579,-2.094278,57.14972
287,Dudley,0.01,0.6556215664778745,-2.081112,52.51225
288,Cheltenham,0.01,0.5112798359225206,-2.0782533,51.89939
289,Bromsgrove,0.01,0.6115975581642683,-2.061906,52.33559
290,Skipton,0.01,0.4045732663492829,-2.0162787,53.96285
291,Fraserburgh,0.01,0.3162473027275046,-2.007631,57.69335
292,Berwick,0.01,0.15836694756423028,-2.005395,55.77024
293,Poole,0.01,0.5170699417372868,-1.987248,50.71505
294,Walsall,0.01,0.6617489736491996,-1.982919,52.58621
295,Cirencester,0.01,0.5268901033686316,-1.968243,51.71849
296,Evesham,0.01,0.4679906978280562,-1.94677,52.09215
297,Buxton,0.01,0.4703128230980438,-1.91483,53.25908
298,Keighley,0.01,0.4057036684174009,-1.912358,53.8678
299,Birmingham,0.01,0.659873586535754,-1.890401,52.48624
300,Bournemouth,0.01,0.5619714814643647,-1.880769,50.71916
301,Halifax,0.01,0.4102338461953913,-1.85754,53.72702
302,Salisbury,0.01,0.4876730959580049,-1.794472,51.06878
303,Ringwood,0.01,0.5494559996218831,-1.788817,50.84495
304,Huddersfield,0.01,0.3825189414787507,-1.7850351000000002,53.64579000000001
305,Peterhead,0.01,0.3218263317874896,-1.784066,57.50812
306,Swindon,0.01,0.4799584337358341,-1.7797176,51.55577
307,Bradford,0.01,0.3815618260509141,-1.759398,53.79598000000001
308,Ashbourne,0.01,0.7648015622627969,-1.732179,53.016630000000006
309,Marlborough,0.01,0.488585748295733,-1.727062,51.42007
310,Stratford-upon-Avon,0.01,0.4898048658185227,-1.708298,52.19173
311,Alnwick,0.01,0.6471364214193659,-1.7062990000000002,55.41274
312,Otley,0.01,0.362919007278956,-1.691786,53.90583
313,Bishop Auckland,0.01,0.7706366228606112,-1.6787880000000002,54.66382
314,Burton upon Trent,0.01,0.67835779921377,-1.6371359,52.81403
315,Newcastle,0.01,0.6846955807213913,-1.61778,54.97825
316,Durham,0.01,0.7621610306935002,-1.584852,54.77525
317,Ashington,0.01,0.6788221680742886,-1.5659829,55.18298000000001
318,Darlington,0.01,0.8756251470610722,-1.559458,54.52361
319,Leeds,0.01,0.40150636675951307,-1.5490774,53.80076
320,Harrogate,0.01,0.3393334101108427,-1.5418120000000002,53.99211999999999
321,Leamington Spa,0.01,0.5516698119614639,-1.5200789,52.28519
322,Coventry,0.01,0.5641770052658209,-1.519693,52.40682
323,Blyth,0.01,0.6900256726702464,-1.510277,55.12696
324,Wakefield,0.01,0.3640620528798063,-1.505924,53.6833
325,Andover,0.01,0.4240143837295899,-1.4919233,51.2112
326,Witney,0.01,0.35074679735015696,-1.4850544,51.78594
327,Barnsley,0.01,0.22207602319802908,-1.479726,53.55263000000001
328,Derby,0.01,0.6259244367962004,-1.4746186,52.92253
329,Sheffield,0.01,0.18890262443345165,-1.470085,53.38113000000001
330,Nuneaton,0.01,0.5797699932171977,-1.465382,52.52049
331,Northallerton,0.01,0.6439246831379624,-1.429959,54.33796
332,South Shields,0.01,0.7020209433826414,-1.427406,54.99941999999999
333,Chesterfield,0.01,0.21095821365725712,-1.421629,53.23505
334,Southampton,0.01,0.5585825229991631,-1.4043508999999998,50.9097
335,Wetherby,0.01,0.32554282799230666,-1.384816,53.92706
336,Sunderland,0.01,0.7575656684800898,-1.383801,54.90687
337,Rotherham,0.01,0.1849473059436907,-1.3635008999999998,53.4326
338,Castleford,0.01,0.3654738437930669,-1.345968,53.72346999999999
339,Thirsk,0.01,0.5812784369140123,-1.341377,54.23385
340,Banbury,0.01,0.2926930334238281,-1.339775,52.0629
341,Stockton,0.01,0.7971213820842455,-1.3289821000000002,54.57046
342,Newbury,0.01,0.4138336004479801,-1.3231138999999998,51.40141
343,Isle of Wight,0.01,0.5736774260027352,-1.304734,50.69385
344,Abingdon,0.01,0.2675494720556989,-1.2879528999999998,51.67078
345,Shetland Islands,0.01,0.3133372531854641,-1.2659409,60.52965
346,Rugby,0.01,0.4866264221733144,-1.265032,52.37088
347,Oxford,0.01,0.2506928332495752,-1.2577263,51.75202
348,Middlesbrough,0.01,0.8802850615332658,-1.234956,54.57423000000001
349,Hartlepool,0.01,0.7813388816255808,-1.212926,54.69174
350,Loughborough,0.01,0.5914762889648107,-1.206166,52.7721
351,Mansfield,0.01,0.584018852391894,-1.198674,53.1472
352,Nottingham,0.01,0.6130863341434989,-1.1581086,52.95478000000001
353,Bicester,0.01,0.2964255447701062,-1.1535898999999998,51.8996
354,Leicester,0.01,0.5273117651852545,-1.1397592,52.63688000000001
355,Doncaster,0.01,0.22654080581505395,-1.128462,53.52282
356,Worksop,0.01,0.2568052086653185,-1.122745,53.3093
357,Basingstoke,0.01,0.3547888645228313,-1.0923964,51.26654
358,Portsmouth,0.01,0.5512079718074917,-1.0879769,50.81977
359,York,0.01,0.33755046127003996,-1.0872979,53.95997
360,Selby,0.01,0.3782459893500145,-1.067189,53.78352
361,Helmsley,0.01,0.6508975211979885,-1.0562636,54.24651
362,Towcester,0.01,0.4607918917413639,-0.989688,52.13511
363,Reading,0.01,0.37666920033459705,-0.9781303,51.45426
364,Retford,0.01,0.2980288852042615,-0.945503,53.32136
365,Petersfield,0.01,0.5347659706331396,-0.93899,51.00759
366,Northampton,0.01,0.4808263420160594,-0.902656,52.24048
367,Melton Mowbray,0.01,0.5183783366495364,-0.887126,52.7664
368,Aylesbury,0.01,0.2920366233494752,-0.8084,51.81561
369,Newark-on-Trent,0.01,0.5780354410100202,-0.80657,53.07004000000001
370,Malton,0.01,0.5823442867233466,-0.7978970000000001,54.13684
371,Chichester,0.01,0.4505207072007178,-0.774936,50.83761
372,Gainsborough,0.01,0.5699770854230761,-0.774465,53.40057
373,Milton Keynes,0.01,0.4265710465317623,-0.7594171,52.04062
374,Aldershot,0.01,0.3990212101591271,-0.7557509,51.24837
375,High Wycombe,0.01,0.24893425833020644,-0.748229,51.62861
376,Midhurst,0.01,0.5567662795221655,-0.737274,50.9869
377,Kettering,0.01,0.5029178248244549,-0.7302489999999999,52.39632
378,Wellingborough,0.01,0.4587473622566992,-0.693964,52.30242
379,Corby,0.01,0.5404059696176338,-0.6842333,52.4923
380,Bognor Regis,0.01,0.4296448298226864,-0.673061,50.783
381,Scunthorpe,0.01,0.7201695405084629,-0.654413,53.58865
382,Grantham,0.01,0.5194284522848042,-0.643582,52.91252
383,Whitby,0.01,0.7167658312550735,-0.613347,54.48634000000001
384,Slough,0.01,0.2662648891300952,-0.5950406,51.51054
385,Guildford,0.01,0.3659188961452445,-0.570409,51.23622
386,Woking,0.01,0.3268021238524458,-0.5600349,51.31677
387,Lincoln,0.01,0.7011259217488901,-0.540579,53.23069
388,Bedford,0.01,0.4520493103080552,-0.4667782,52.13864
389,Heathrow,0.01,0.2139000125148254,-0.4542955,51.47002
390,Driffield,0.01,0.6620816390437567,-0.443377,54.006
391,Beverley,0.01,0.6777046202644486,-0.435093,53.84196
392,Luton,0.01,0.4067338353676909,-0.4200255,51.87867
393,Scarborough,0.01,0.7383321157621382,-0.399752,54.28311
394,Worthing,0.01,0.3476219482353639,-0.372882,50.81787
395,Dorking,0.01,0.3507314846271812,-0.332378,51.2322
396,Hull,0.01,0.6529643173486319,-0.3274198,53.76762
397,Horsham,0.01,0.28177344637955953,-0.325858,51.06288
398,Biggleswade,0.01,0.33750691132396204,-0.26421999999999995,52.08694000000001
399,Peterborough,0.01,0.6138089120391511,-0.2405299,52.5695
400,Welwyn Garden City,0.01,0.4516073485972123,-0.208661,51.80317
401,Bridlington,0.01,0.6668021019893686,-0.198802,54.08535
402,Stevenage,0.01,0.4781139530357341,-0.196612,51.90376
403,Crawley,0.01,0.351556334654268,-0.1872275,51.10914
404,Huntingdon,0.01,0.3902371860351957,-0.182552,52.33146
405,Hove,0.01,0.32051941195405875,-0.168749,50.82793
406,Spalding,0.01,0.6249711846700318,-0.1537024,52.7901
407,Brighton,0.01,0.3328715112568992,-0.137163,50.82253
408,London,0.4144396377253842,0.07282136703213786,-0.12775830000000002,51.50735
409,Grimsby,0.01,0.7718612894894333,-0.08078400000000001,53.56746999999999
410,Boston,0.01,0.6063097518082178,-0.026577,52.97894
411,Royston,0.01,0.3027652930494857,-0.024066,52.04814
412,Louth_Lincs,0.01,0.7383666045097579,-0.007711,53.36596
413,Lewes,0.01,0.31347204729276035,0.00878,50.87387
414,Chatteris,0.01,0.4190951363526865,0.054012,52.4561
415,Uckfield,0.01,0.29981611879782344,0.095913,50.96641
416,Cambridge,0.01,0.29714411888039305,0.121817,52.20534
417,Bishop's Stortford,0.01,0.4704396798764581,0.1536502,51.87216
418,Wisbech,0.01,0.4681796484005558,0.158797,52.66631999999999
419,Sevenoaks,0.01,0.5624474402298881,0.190898,51.27241
420,Tunbridge Wells,0.01,0.4590407624579375,0.263695,51.13238
421,Eastbourne,0.01,0.3654269924801089,0.29047199999999995,50.76803
422,Brentwood,0.01,0.7060616057183455,0.30717490000000003,51.62047000000001
423,Skegness,0.01,0.675210894158544,0.337881,53.1464
424,Downham Market,0.01,0.4604554332869871,0.385472,52.60661
425,King's Lynn,0.01,0.572036576421474,0.4022963,52.75168000000001
426,Bexhill,0.01,0.3568201182981271,0.4662071,50.84991
427,Chelmsford,0.01,0.7193498181363174,0.4685497,51.73559
428,Mildenhall,0.01,0.3845787836863912,0.5156095,52.34757000000001
429,Medway,0.01,0.7402625022429696,0.5417860999999999,51.40474
430,Braintree,0.01,0.6812985444436107,0.5509269,51.88009
431,Gillingham,0.01,0.7317612718011512,0.551438,51.38632
432,Hastings,0.01,0.3577065704263598,0.573453,50.85426
433,Maldon,0.01,0.7220537780948212,0.6714479999999999,51.7318
434,Southend,0.01,0.7222417452814417,0.7077123000000001,51.54593
435,Bury St Edmunds,0.01,0.3858229073072515,0.7104931999999999,52.24292
436,Thetford,0.01,0.4264862646206072,0.751657,52.41286
437,Ashford,0.01,0.5296221600665404,0.8750190000000001,51.14647
438,Faversham,0.01,0.6856475684942864,0.889358,51.31599
439,Colchester,0.01,0.6649989937380428,0.891874,51.89593
440,New Romney,0.01,0.5146719552709051,0.939473,50.98512
441,Canterbury,0.01,0.6920272843854698,1.0789089,51.28023
442,Ipswich,0.01,0.529249737785725,1.14822,52.05674000000001
443,Clacton,0.01,0.6702342591914056,1.153035,51.78953
444,Folkestone,0.01,0.5334792102102319,1.169456,51.0814
445,Sheringham,0.01,0.5109128925058892,1.2109589,52.94442
446,Harwich,0.01,0.5629949051971975,1.260297,51.93473
447,Norwich,0.01,0.5159952414550396,1.297355,52.63089
448,Cromer,0.01,0.5239294796956616,1.301866,52.93145
449,Dover,0.01,0.6657880204223879,1.3134027,51.12788
450,Felixstowe,0.01,0.5494037396865895,1.351255,51.96173
451,Margate,0.01,0.6763257025362919,1.3868339,51.38965
452,Ramsgate,0.01,0.6771991599225499,1.419895,51.33555
453,Great Yarmouth,0.01,0.514668091969237,1.728047,52.59823000000001
454,Lowestoft,0.01,0.4967696963078186,1.7534490000000005,52.48114
455,Swaffham,0.01,0.5004658223765669,0.687481,52.64747
456,Dereham,0.01,0.4984179915250221,0.937827,52.68162
457,Ely,0.01,0.4198386463191955,0.262363,52.39954
458,March,0.01,0.4482963585838601,0.088622,52.55172
459,St Neots,0.01,0.30994267537238146,-0.26510300000000003,52.23008
460,Banham,0.01,0.5035722681270495,1.0402849,52.45125
461,Holt,0.01,0.5154155354792627,1.086747,52.90936
462,Hunstanton,0.01,0.5931225471684075,0.491032,52.93891
463,Horncastle,0.01,0.7897832864119522,-0.11245,53.20731
464,Market Weighton,0.01,0.665373733999859,-0.6677465,53.86484
465,Hawes,0.01,0.5808944949700406,-2.1968695,54.30383000000001
466,Reeth,0.01,0.7229222483098345,-1.9428115,54.38946
467,Aysgarth,0.01,0.5962241462313427,-1.9967434,54.29159
468,Stanhope,0.01,0.6818378613564926,-2.011302,54.74946
469,Keswick,0.01,0.8135613462449909,-3.134706,54.60128
470,Oxenholme,0.01,0.7346480010494857,-2.7243328,54.30134
