index,placename,longitude,latitude,should_have,should_of
0,Abbeyfeale,-9.2970823,52.386179999999996,0.4330689202419227,0.08021006541909877
1,Aberaeron,-4.2581619,52.24279,0.4039795071765002,0.3737998570998866
2,Aberdeen,-2.094278,57.149719999999995,0.6172553104225852,0.38239386035652034
3,Aberfeldy,-3.866969,56.62175,0.5425229125627683,0.2625709942957528
4,Aberystwyth,-4.08292,52.4153,0.5199682071693258,0.37781747372970914
5,Abingdon,-1.2879528999999998,51.67078,0.6661430138084392,0.21884096902940653
6,Achnasheen,-5.078765799999999,57.578590000000005,0.3426495170871759,0.19118313788056832
7,Adare,-8.7925892,52.56363,0.578503383979611,0.0906144644179634
8,Airdrie,-3.9625660000000003,55.86626999999999,0.8643524372747671,0.01
9,Alderney,-2.1973557,49.715,0.07613050880870915,0.5182840299855503
10,Aldershot,-0.7557509,51.24837,0.5891343739428949,0.3689319149073684
11,Alness,-4.256825,57.69595,0.5217864173736468,0.2882265455541137
12,Alnwick,-1.7062990000000002,55.41274,0.3003614083176465,0.5835912913203954
13,Alston,-2.438685,54.812169999999995,0.09250286465470851,0.7061266862839405
14,Altnaharra,-4.442655,58.28023,0.26120180925895814,0.2911446677570234
15,Ambleside,-2.961333,54.428740000000005,0.29583996478412544,0.6359384116254364
16,Andover,-1.4919233,51.2112,0.6291594949957499,0.24607964435009846
17,Antrim,-6.2072498,54.719530000000006,0.6855588101539573,0.16367276456847848
18,Antrim,-6.2072498,54.719530000000006,0.6855588101539573,0.16367276456847848
19,Arbroath,-2.591543,56.55911,0.5404840800334147,0.3231420375431671
20,Armagh,-6.652792,54.350280000000005,0.6368702767326032,0.17607189051210267
21,Armagh,-6.652792,54.350280000000005,0.6368702767326032,0.17607189051210267
22,Ashbourne,-1.7321790000000001,53.016630000000006,0.3678560236813737,0.6241677126088349
23,Ashford,0.8750190000000001,51.14647,0.5109678837066273,0.398036038670043
24,Ashington,-1.5659829,55.18298000000001,0.37664307266661695,0.5241492040183587
25,Athlone,-7.9406898,53.423930000000006,0.6125861830514099,0.1751244087201858
26,Aviemore,-3.823812,57.19449,0.48259920490870833,0.31107986743838734
27,Axminster,-2.9949369999999997,50.78273,0.17558993187226773,0.735059205073755
28,Aylesbury,-0.8084,51.81561,0.6559495549968355,0.28473877340959475
29,Ayr,-4.629179,55.45856,0.649728177058683,0.2770199501733478
30,Aysgarth,-1.9967433999999997,54.29159,0.30936760886009457,0.4263137959181458
31,Balivanich,-7.3743509000000005,57.472269999999995,0.2755607105972172,0.31149853360999663
32,Ballachulish,-5.133719999999999,56.673930000000006,0.2748895725260108,0.27434553932740385
33,Ballycastle,-9.3724643,54.279669999999996,0.38082782428345807,0.1443261383326151
34,Ballymena,-6.2802213,54.86529,0.5484739766771795,0.30963233637169074
35,Banbridge,-6.2704803,54.34873,0.6037208422215682,0.20369080173397766
36,Banbury,-1.339775,52.0629,0.49541648661874443,0.4206307188870721
37,Banchory,-2.4909599,57.05386,0.49533657212048016,0.3349734383072557
38,Banff,-2.524038,57.666509999999995,0.36384955927359397,0.45489455394576017
39,Bangor,-4.129263,53.22739,0.460625149412252,0.47596193748701987
40,Banham,1.0402849,52.45125,0.4479151445140097,0.42751079045389473
41,Bantry,-9.4539805,51.68035,0.5716020311868933,0.12913864535840988
42,Barnsley,-1.479726,53.55263000000001,0.8075991433085197,0.09712120073533168
43,Barnstaple,-4.058338,51.07816,0.4623988090453471,0.4511913811666436
44,Barrow-in-Furness,-3.2188939999999997,54.10896999999999,0.24317309576383625,0.7287332013975879
45,Basingstoke,-1.0923964,51.26654,0.47446153613279923,0.48145276530318637
46,Bath,-2.3590167,51.38106,0.5280436388940395,0.47256571058644514
47,Bedford,-0.46677820000000003,52.13864,0.5396071522470445,0.4310495990972397
48,Belfast,-5.93012,54.597280000000005,0.8425163059371891,0.14921649185079552
49,Berwick,-2.005395,55.77024,0.42511134861895156,0.43315808521672977
50,Beverley,-0.435093,53.84196,0.24722354537509106,0.7414538806092393
51,Bexhill,0.4662071,50.849909999999994,0.4613599138688658,0.4029804272351425
52,Bicester,-1.1535898999999998,51.8996,0.6320283414172935,0.20675926283727977
53,Bideford,-4.206666,51.01668,0.45469732164173954,0.398267577743901
54,Biggleswade,-0.26421999999999995,52.086940000000006,0.4542166546751566,0.41887655612078584
55,Birkenhead,-3.023009,53.389990000000004,0.12279375897607549,0.9593818335624572
56,Birmingham,-1.8904009999999998,52.48624,0.5320880272344876,0.5919563976089848
57,Bishop Auckland,-1.6787880000000002,54.663819999999994,0.3029590639289304,0.631314619891326
58,Bishop's Stortford,0.15365020000000001,51.87216,0.3921946774793713,0.5716424794653338
59,Blackburn,-2.487529,53.748580000000004,0.3896053030219111,0.6159910313813798
60,Blackpool,-3.0356748,53.81751,0.21084448147265408,0.8572888614200757
61,Blairgowrie,-3.3378318,56.58941,0.5178691645595301,0.2754779497481436
62,Blandford Forum,-2.165353,50.85691,0.2889497254233865,0.5448262543615481
63,Blyth,-1.510277,55.12696,0.30546213390099103,0.6242525637411145
64,Bodmin,-4.7188629,50.4715,0.34651738894235046,0.49638207023597497
65,Bognor Regis,-0.673061,50.783,0.3098189926472375,0.6401990724945995
66,Boston,-0.026576999999999996,52.97894,0.3389481053294622,0.6483890996553893
67,Bournemouth,-1.880769,50.719159999999995,0.4534487485770059,0.5651378149715974
68,Bradford,-1.759398,53.79598000000001,0.5186378065554337,0.5023728183541386
69,Braemar,-3.3979439,57.00646999999999,0.3561628912746435,0.17459776591156353
70,Braintree,0.5509269,51.88009,0.4287600917923754,0.4848302496289307
71,Brecon,-3.391463,51.94895,0.33253629211482016,0.5463833621346619
72,Brentwood,0.30717490000000003,51.620470000000005,0.31208656450526034,0.8066531113755707
73,Bridgend,-3.576945,51.504290000000005,0.47391374903318595,0.4888703855000037
74,Bridgwater,-3.003632,51.12789,0.35759740621051606,0.645763034123969
75,Bridlington,-0.198802,54.08535,0.18086974298317707,0.7437482013688536
76,Bridport,-2.758301,50.733579999999996,0.19325000198086686,0.6998240877176418
77,Brighton,-0.137163,50.82253,0.7825746917240897,0.22096959002179622
78,Bristol,-2.58791,51.45451,0.5567969426814464,0.5299805775856511
79,Broadford,-5.9096592,57.24139,0.2382981169799355,0.31925416102170723
80,Bromsgrove,-2.061906,52.33559,0.34017353313658355,0.6333875545993535
81,Brora,-3.8525480000000005,58.012159999999994,0.40666548189305013,0.311821043646618
82,Bude,-4.543678,50.826640000000005,0.4189242852414493,0.41994110540194884
83,Builth Wells,-3.4045919999999996,52.15002,0.3580743410749401,0.47788848862342453
84,Burnley,-2.2405035,53.78929,0.3564385912613907,0.6356963321474325
85,Burton upon Trent,-1.6371358999999999,52.81403,0.26864012536373294,0.7332440860766859
86,Bury St Edmunds,0.7104931999999999,52.24292,0.5311978260572144,0.444191993703109
87,Buxton,-1.91483,53.259080000000004,0.47113653588168886,0.4529218545439483
88,Caernarfon,-4.273911,53.13955,0.40500058169684033,0.4664552133551721
89,Cambridge,0.12181700000000001,52.20534,0.7975724626973303,0.19054724474357423
90,Camelford,-4.682364,50.62206,0.26215679138816783,0.5235843624337828
91,Campbeltown,-5.605373999999999,55.424119999999995,0.4772096705313976,0.29748548451998436
92,Canterbury,1.0789089,51.280229999999996,0.5309241508631887,0.43262589293499903
93,Cardiff,-3.17909,51.48158,0.7979243823679403,0.22141673610171597
94,Cardigan,-4.660864,52.0837,0.33562135911504093,0.47680491848057305
95,Carlisle,-2.932931,54.892469999999996,0.2615420781710258,0.7790398822538898
96,Carlow,-6.934135899999999,52.83651,0.5643719856533581,0.3096096173765569
97,Carmarthen,-4.312131,51.857620000000004,0.516915667043117,0.3591135541048751
98,Castle Douglas,-3.9314139999999997,54.940419999999996,0.18824449001567528,0.6580877601373926
99,Castleford,-1.345968,53.72346999999999,0.4558834660803919,0.48715976186351456
100,Cavan,-7.3633319,53.98972,0.5483462888969464,0.29560342836330017
101,Charleville,-8.681017599999999,52.36206,0.40323726588028763,0.11682297086489872
102,Chatteris,0.054012,52.4561,0.25477798629064713,0.5764303068164603
103,Chelmsford,0.4685497,51.73559,0.2410154663772623,0.7596459125381262
104,Cheltenham,-2.0782533,51.899390000000004,0.5234571770370167,0.4631371900799798
105,Chester,-2.893075,53.19339,0.3599427152927882,0.6751864404500616
106,Chesterfield,-1.421629,53.23505,0.486254998771305,0.48582025241764837
107,Chichester,-0.774936,50.83761,0.29057399691126623,0.6775033595716418
108,Cinderford,-2.5009579,51.8253,0.3068574107894239,0.6072985597382792
109,Cirencester,-1.968243,51.71849,0.5860475435451089,0.3648252693483205
110,Clacton,1.153035,51.78953,0.3269596834089983,0.5664795706875014
111,Clare,-8.9811351,52.90453,0.7648029954053032,0.05733475009118296
112,Claremorris,-9.0017356,53.72388,0.7604992182198418,0.06777983503624373
113,Clitheroe,-2.3930830000000003,53.8711,0.2997401202010959,0.6274571978418482
114,Cockermouth,-3.367985,54.66326,0.13675035424745594,0.7448667484463243
115,Colchester,0.891874,51.89593,0.44696845966737275,0.5481573691664946
116,Coleraine,-6.6646103000000005,55.132580000000004,0.570346118514236,0.32591030425919365
117,Colne,-2.176991,53.85564,0.3242790437342182,0.5858370955623957
118,Colwyn Bay,-3.72764,53.29318000000001,0.1977270098538474,0.7377007588049056
119,Cookstown,-6.7443895000000005,54.641819999999996,0.5751516256732642,0.23057799746155516
120,Corby,-0.6842333,52.4923,0.34480743871257596,0.6114518464917458
121,Cork,-8.4756035,51.898509999999995,0.7685219934740641,0.20726975628167202
122,Corwen,-3.369242,52.98005,0.041367343894801255,0.7852145771614919
123,Coventry,-1.519693,52.40682,0.4938998255128421,0.5316484630122615
124,Craigavon,-6.4175653,54.442930000000004,0.6265283782680727,0.22265604526275504
125,Crawley,-0.18722750000000002,51.109140000000004,0.5378231316111985,0.4067430631670536
126,Crewe,-2.4438209,53.10041,0.3429883754349731,0.633579909261002
127,Cromer,1.301866,52.93145,0.40872944074201917,0.44990214308087456
128,Cromer,1.301866,52.93145,0.40872944074201917,0.44990214308087456
129,Cumnock,-4.265828900000001,55.45355,0.6076119032076328,0.22460025991206126
130,Cupar,-3.010137,56.32023,0.4983050631274007,0.30676719668856633
131,Dalbeattie,-3.8225269999999996,54.934219999999996,0.1414789752191522,0.6499290832121399
132,Dalkeith,-3.066606,55.893119999999996,0.8207660030626897,0.03592214510005298
133,Dalwhinnie,-4.242783,56.9366,0.3971674582224726,0.12427234256781085
134,Darlington,-1.559458,54.52361,0.14070605058685207,0.8812344385940767
135,Dartmouth,-3.578807,50.35252,0.3514067924015248,0.4671484677141247
136,Derby,-1.4746186000000001,52.92253,0.3096125887117763,0.7517093577360401
137,Dereham,0.9378270000000001,52.681619999999995,0.5249237647512703,0.4422328524169705
138,Derry,-7.308574799999999,54.99661,0.5820241173498063,0.3487720283049529
139,Derry,-7.308574799999999,54.99661,0.5820241173498063,0.3487720283049529
140,Dingle,-10.264013499999999,52.14094,0.5967714127028355,0.08446766668544164
141,Dolgellau,-3.8844,52.74215,0.36860142961802567,0.3793858064888897
142,Doncaster,-1.128462,53.522819999999996,0.5257149920242649,0.45725993997401726
143,Donegal,-8.1096143,54.653830000000006,0.5787201686436179,0.3240294968011102
144,Doon,-7.60964,54.185930000000006,0.44138262022773694,0.2642906248911771
145,Dorchester,-2.4411810000000003,50.71116,0.34857942867811226,0.6432845822583279
146,Dorking,-0.332378,51.2322,0.619453484805429,0.31896332332009725
147,Dover,1.3134027,51.12788,0.42194632407107785,0.4734611794465364
148,Down,-5.7156921999999994,54.32875,0.6805002530101344,0.17318748375635795
149,Downham Market,0.385472,52.606609999999996,0.14975834602965446,0.7176509510845369
150,Driffield,-0.443377,54.006,0.1491650461806549,0.7401880366110362
151,Drogheda,-6.3560985,53.717859999999995,0.597111714316477,0.22232137289733128
152,Dublin,-6.2603097000000005,53.34981,0.8906629278261147,0.15000259571436714
153,Dudley,-2.081112,52.51226,0.30966216878923064,0.7103554593983927
154,Dumbarton,-4.564554,55.94529,0.7328839372246545,0.11724133686476029
155,Dumfries,-3.60512,55.070859999999996,0.20356011302665572,0.7646459005340311
156,Dunbar,-2.516737,56.00209,0.6569297356344126,0.20216856456159157
157,Dundee,-2.9707209999999997,56.462019999999995,0.6845573398359716,0.2748011099847449
158,Dunfermline,-3.452151,56.071740000000005,0.6291934310073146,0.2928218173378463
159,Dungannon,-6.7669352,54.508269999999996,0.5393162534913802,0.22431431754567532
160,Dunoon,-4.926214,55.95097,0.621342923349968,0.1453550411257677
161,Dunvegan,-6.581398200000001,57.4366,0.24498673894821896,0.3110455853379908
162,Durham,-1.5848520000000001,54.77525,0.36999107864499675,0.6495448473100084
163,Eastbourne,0.29047199999999995,50.768029999999996,0.636825058088356,0.27037669979779827
164,Edinburgh,-3.1882669999999997,55.95325,0.9573695370315715,0.04316522090798333
165,Elgin,-3.318485,57.64945,0.5858770243974641,0.3224801576090235
166,Ely,0.262363,52.39954,0.4652233532935899,0.41277438468381644
167,Enniskillen,-7.631533599999999,54.343819999999994,0.5260118086831389,0.2830405073353645
168,Ennistymon,-9.2934951,52.940369999999994,0.4744111435963987,0.029470560594553573
169,Evesham,-1.9467700000000001,52.09215,0.47316637046790105,0.41487200711737915
170,Exeter,-3.533899,50.71841,0.5612027965641393,0.45949456849822956
171,Falkirk,-3.7839131,56.00188000000001,0.8087992263132926,0.08907329688303652
172,Falmouth,-5.066269999999999,50.152570000000004,0.40852352667103,0.5145484425677888
173,Faversham,0.889358,51.31599,0.4522411035658211,0.4567126357687472
174,Felixstowe,1.3512549999999999,51.961729999999996,0.33911976944612093,0.5562934424674969
175,Fermanagh,-7.6318728,54.343830000000004,0.4825363678994025,0.2779494311962732
176,Fishguard,-4.975989,51.99393,0.3004318590939348,0.4739609100063012
177,Folkestone,1.169456,51.0814,0.47987957291701233,0.4270188891064715
178,Forfar,-2.889062,56.64356,0.534935296232491,0.30854398808801226
179,Fort William,-5.1052179,56.81981999999999,0.49409887663883556,0.33369978371849107
180,Fortuneswell,-2.4422189999999997,50.55919,0.2401875561558489,0.5713224514027476
181,Fraserburgh,-2.007631,57.69335,0.4725527691682649,0.3446231491684785
182,Gainsborough,-0.774465,53.400580000000005,0.09069242445258321,0.8333358135465436
183,Galashiels,-2.814449,55.62373,0.6127731225460005,0.20663451219352322
184,Galway,-9.0567905,53.270669999999996,0.8646989852730187,0.04204253634056228
185,Gillingham,0.551438,51.38632,0.45616919845263887,0.5934210487662525
186,Girvan,-4.8542179,55.240159999999996,0.4941300644154371,0.2930059172814281
187,Glasgow,-4.251806,55.86424,0.9746574525198742,0.04440057173942496
188,Glastonbury,-2.718454,51.14743,0.23114480272638005,0.6465500707681
189,Gloucester,-2.238156,51.86424,0.485043414483342,0.5255089119869996
190,Golspie,-3.976086,57.97341,0.2704737919036513,0.2797649071463675
191,Grantham,-0.643582,52.912519999999994,0.42726792760139976,0.4918670617042198
192,Grantown-on-Spey,-3.609628,57.33041,0.3444070493233925,0.406852969618264
193,Great Yarmouth,1.728047,52.59823000000001,0.4634059112122583,0.4489280356999803
194,Greenock,-4.7719830000000005,55.956480000000006,0.7216446599199745,0.1471693452489281
195,Grimsby,-0.08078400000000001,53.56746999999999,0.19407940808498797,0.8244154877514845
196,Guernsey,-2.5852779999999997,49.46569,0.07941898859517717,0.514248264329662
197,Guildford,-0.570409,51.23622,0.5440548568042617,0.42018461213242303
198,Halifax,-1.8575400000000002,53.727019999999996,0.43954931664619834,0.49383945693308334
199,Harrogate,-1.5418120000000002,53.99211999999999,0.619662622751455,0.34773048230763487
200,Hartlepool,-1.212926,54.69174,0.03644640222262555,1.0
201,Harwich,1.260297,51.93473,0.2892986938384836,0.5584449898490852
202,Hastings,0.573453,50.85426,0.47487858478912315,0.4529872711992253
203,Haverfordwest,-4.971319,51.800470000000004,0.34331350139510797,0.5116092459440664
204,Hawes,-2.1968695,54.303830000000005,0.07818892276595901,0.5157581001931054
205,Hawick,-2.780914,55.42706,0.4198678075171485,0.4165011805301074
206,Heathrow,-0.4542955,51.47002,0.7260259600218507,0.26684332481973727
207,Helensburgh,-4.734014,56.00232,0.657923997556848,0.11623057781432174
208,Helmsley,-1.0562636,54.24651,0.4027999368270161,0.31811602462445965
209,Helston,-5.274996,50.10159,0.34050779893106475,0.5025922031905583
210,Hereford,-2.715974,52.0564,0.3719538746117129,0.6065511573798757
211,Hexham,-2.1121439,54.97266,0.4295090572153845,0.5189740567083714
212,High Wycombe,-0.748229,51.628609999999995,0.6692713980708035,0.2500625638307823
213,Holt,1.086747,52.90936,0.42025658812543465,0.43561577135177615
214,Holyhead,-4.633038,53.30944,0.36936552835757447,0.4574601643530645
215,Horncastle,-0.11245,53.20731,0.3496708632859579,0.48107246213121835
216,Horsham,-0.325858,51.06288,0.5309774101986386,0.36983412331462634
217,Hove,-0.168749,50.82793,0.6629177407322352,0.22792778894448185
218,Huddersfield,-1.7850351000000002,53.645790000000005,0.5128067246312316,0.48808582992941657
219,Hull,-0.3274198,53.767619999999994,0.2941840294746747,0.782287939004027
220,Hunstanton,0.49103199999999997,52.93891,0.09644115014245044,0.7350066394274084
221,Huntingdon,-0.182552,52.33146,0.5899991648733895,0.26066693981399836
222,Inchnadamph,-4.974295,58.15221,0.32051589495295546,0.21834746177368056
223,Invergarry,-4.800261,57.07095,0.20972544500408336,0.3543221232211326
224,Invergordon,-4.1728819999999995,57.688109999999995,0.5221612890839838,0.29114889342556916
225,Inverness,-4.224721,57.47776999999999,0.6592383295389551,0.25855214364700907
226,Ipswich,1.14822,52.056740000000005,0.4849062665262712,0.5080049839966689
227,Irvine,-4.6696364,55.61156999999999,0.6481043628009094,0.25768570821779235
228,Islay,-6.177067,55.73625,0.5591300874796744,0.17866554205219506
229,Isle of Man,-4.5126330999999995,54.27697,0.281744725350892,0.712523736275433
230,Isle of Wight,-1.304734,50.69385,0.3716656368559397,0.6113366731563867
231,Isle of Wight,-1.304734,50.69385,0.3716656368559397,0.6113366731563867
232,Jedburgh,-2.5549369,55.47772,0.35220251109551365,0.44673120296072916
233,Jersey,-2.13125,49.21444,0.07821605984211849,0.5157244669926612
234,John o' Groats,-3.0688997000000002,58.63734,0.2719827912861864,0.27791262415112944
235,Keighley,-1.9123580000000002,53.8678,0.49363524459251795,0.43127984356781507
236,Kelso,-2.432207,55.600030000000004,0.42967610106124443,0.3945508926134762
237,Kendal,-2.74629,54.32801,0.3787250105563284,0.569689394670551
238,Keswick,-3.134706,54.60128,0.09888258976164965,0.7859885991593147
239,Kettering,-0.7302489999999999,52.39632,0.3181395979187311,0.6553787489635604
240,Kidderminster,-2.2496839,52.3886,0.37998241322047477,0.5556146661351136
241,Kildare,-6.8194707999999995,53.21204,0.5768721627140466,0.3514376055605826
242,Kilkeel,-6.007004,54.06312,0.5296628894324723,0.2040550399654283
243,Kilkenny,-7.2447879,52.65415,0.5377824252670381,0.3660723206717842
244,Killarney,-9.5044265,52.059940000000005,0.7283969316758703,0.13038365792816253
245,Kilmarnock,-4.498792,55.61472,0.6509388685423281,0.23934515855555297
246,King's Lynn,0.4022963,52.75168000000001,0.27469846913296614,0.6787930950218735
247,Kingsbridge,-3.777493,50.28395,0.33131649199844715,0.52614275686193
248,Kirkcaldy,-3.158137,56.11682,0.7881016950634009,0.1242297456876715
249,Kirkwall,-2.9622491,58.984669999999994,0.49173723286503634,0.3089180992419503
250,Kyle of Lochalsh,-5.7143293,57.28261,0.2277987377266293,0.3321404815347243
251,Lairg,-4.402414,58.022059999999996,0.27896903135202766,0.26933834201193463
252,Lampeter,-4.0785089999999995,52.1129,0.43573396886636717,0.35671629677686184
253,Lancaster,-2.8007399,54.046569999999996,0.3942511787208292,0.5825149154794219
254,Langholm,-2.998913,55.153059999999996,0.1347369179352412,0.6630360977571949
255,Laois,-7.332300699999999,52.9943,0.5590754739415402,0.30445324219743714
256,Launceston,-4.360451599999999,50.636829999999996,0.33545612651342965,0.507602998695793
257,Leamington Spa,-1.5200789,52.28519,0.5772903415008482,0.3940591258258759
258,Leeds,-1.5490774,53.80076,0.7186248510506265,0.33082294073432555
259,Leicester,-1.1397591999999999,52.636880000000005,0.4962110006961742,0.5516494020150687
260,Leitrim,-8.0020132,54.12469,0.5168139430215125,0.2830656759918267
261,Lewes,0.00878,50.873870000000004,0.6862659544798474,0.18168760714797857
262,Limerick,-8.6267343,52.66384,0.7989516560773462,0.10561665785418385
263,Lincoln,-0.540579,53.23069,0.5305596533626522,0.46313730343022047
264,Liskeard,-4.4647190000000005,50.45552,0.32173819475859955,0.5462403959866694
265,Liverpool,-2.9915726,53.40837,0.1936842967932522,0.9891300517107416
266,Livingston,-3.518068,55.90071,0.8137863288595651,0.0789635725008368
267,Llandeilo,-3.9914300000000003,51.88469,0.4915136445396928,0.3503402579035814
268,Llandrindod Wells,-3.377742,52.2417,0.3554201399035383,0.45168656176433525
269,Llandudno,-3.827609,53.324059999999996,0.2528066062222961,0.6897333124318147
270,Llandudno,-3.827609,53.324059999999996,0.2528066062222961,0.6897333124318147
271,Llanelli,-4.160248,51.680890000000005,0.432729216615702,0.49601263338214063
272,Llangefni,-4.311401999999999,53.255790000000005,0.4230366875585952,0.45963098203985725
273,Llangollen,-3.1716599999999997,52.96921,0.10595987147037664,0.7508408569944093
274,Llanidloes,-3.5401949999999998,52.447790000000005,0.37360502104783366,0.3933207441938283
275,Lochgilphead,-5.4323449,56.03829,0.5638553907326239,0.13154274786321016
276,Lockerbie,-3.349008,55.122240000000005,0.1864870234479056,0.7577587003777623
277,London,-0.12775830000000002,51.50735,1.0,0.14201737350716115
278,Longford,-7.7932573000000005,53.727630000000005,0.5679215096394711,0.2458892202617485
279,Loughborough,-1.206166,52.7721,0.540230362696163,0.4388986657603574
280,Loughrea,-8.5660931,53.19891,0.4711124317976073,0.033519047899311365
281,Louth,-6.4889423,53.925230000000006,0.6298887015849317,0.25476211571030377
282,Louth_Lincs,-0.007711,53.36596,0.3306220014180216,0.560496621706063
283,Lowestoft,1.7534490000000003,52.48114,0.4806305991273641,0.43970586001037987
284,Ludlow,-2.7139129,52.36775,0.19230824724714504,0.7355002923077727
285,Luton,-0.4200255,51.87867,0.5566976457907541,0.4261242071011571
286,Lyme Regis,-2.936639,50.725159999999995,0.1997096174580591,0.6818522837288111
287,Macclesfield,-2.119287,53.25866,0.5393734572718069,0.4215142106416985
288,Machynlleth,-3.853485,52.59027,0.4025780691867152,0.3834424474841494
289,Magherafelt,-6.607980499999999,54.75536999999999,0.5714442674711934,0.25224078091233576
290,Maldon,0.6714479999999999,51.731809999999996,0.3671373101776256,0.5682391043083556
291,Mallow,-8.6539164,52.13898,0.604082701682805,0.13513819561110094
292,Malton,-0.7978970000000001,54.13684,0.4769429174916329,0.36406856492267975
293,Manchester,-2.2426305,53.48076,0.5730277763308765,0.5749470077340583
294,Mansfield,-1.198674,53.1472,0.32369282057998155,0.6630312652494325
295,March,0.088622,52.551719999999996,0.2648762344449294,0.6022928474638582
296,Margate,1.3868339,51.38965,0.4809092347612878,0.4261248769317076
297,Market Drayton,-2.483485,52.90355,0.09721994532487478,0.7702058427382334
298,Market Weighton,-0.6677465,53.86484,0.14681302562868573,0.7235086458409222
299,Marlborough,-1.7270619999999999,51.42007,0.37031518667378094,0.5267228253546404
300,Mayo,-9.4289369,54.01526,0.6435316356132776,0.11228755944949297
301,Meath,-6.656416900000001,53.60555,0.6577404321179248,0.21853292891841786
302,Medway,0.5417860999999999,51.404740000000004,0.3816612533662522,0.576967881000818
303,Melton Mowbray,-0.887126,52.7664,0.4845331122335463,0.3940585162258434
304,Merthyr Tydfil,-3.381646,51.74873,0.43674388015435134,0.5672546406587697
305,Middlesbrough,-1.234956,54.57423000000001,0.09724576737062546,0.9907662454897854
306,Midhurst,-0.737274,50.9869,0.4090840368762964,0.46537168233106957
307,Mildenhall,0.5156095,52.347570000000005,0.45376917913630754,0.44736503263730104
308,Milford Haven,-5.0426971,51.71431,0.343536222977968,0.4842279126350168
309,Milton Keynes,-0.7594171,52.040620000000004,0.575187434483843,0.4196684596090375
310,Minehead,-3.481152,51.20428,0.39476535875123875,0.41596263421863583
311,Mold,-3.1419029999999997,53.1672,0.2478719955608559,0.7156220149100555
312,Mold,-3.1419029999999997,53.1672,0.2478719955608559,0.7156220149100555
313,Monaghan,-6.9683132,54.2492,0.5798443010093043,0.2476579829956581
314,Montrose,-2.4661150000000003,56.70692,0.5227816970525798,0.3200671611569366
315,Morecambe,-2.864968,54.074169999999995,0.2561580774472282,0.673754825357657
316,Motherwell,-3.9810968,55.78321,0.8594200675914287,0.04536038188216198
317,Mull,-6.0008870000000005,56.4392,0.5875264334171622,0.14622051826363341
318,Mullingar,-7.340186800000001,53.525819999999996,0.504253395711915,0.3052762271986931
319,Nantwich,-2.524102,53.067190000000004,0.27889727935505576,0.6462906242867418
320,Nenagh,-8.19834,52.8635,0.6849438002295609,0.09671763597583066
321,New Romney,0.939473,50.98512,0.37676691584397737,0.45109448348719383
322,Newark-on-Trent,-0.80657,53.070040000000006,0.34397335964991577,0.6403222095009126
323,Newbury,-1.3231138999999998,51.40141,0.5796024578632986,0.37254259533463185
324,Newcastle,-1.61778,54.97825,0.5031888490191202,0.5875878477230833
325,Newcastle-under-Lyme,-2.2273002,53.01321,0.11749541728874935,0.8821284479277139
326,Newport,-2.997664,51.58415,0.35254122188037246,0.6747555702659612
327,Newquay,-5.0737190000000005,50.4155,0.40910350654311606,0.4918376593624072
328,Newry,-6.34023,54.1751,0.6217450100319647,0.22824620024631925
329,Newton Stewart,-4.483164,54.9603,0.34114179669600025,0.4423954676295799
330,Newtown,-3.313106,52.51211,0.3270248550903476,0.46291271823416846
331,Northallerton,-1.429959,54.337959999999995,0.17477444965136432,0.7452871139194069
332,Northampton,-0.9026559999999999,52.24048,0.5596533727674315,0.44543169443581
333,Norwich,1.297355,52.63089,0.592257936509951,0.4292011357223316
334,Nottingham,-1.1581086,52.95478000000001,0.5270326573268064,0.5497130255025653
335,Nuneaton,-1.465382,52.52049,0.4221348935290836,0.5725557301313865
336,Oban,-5.471047,56.41516,0.6283990830229811,0.17875630459765024
337,Offaly,-7.7122229,53.235690000000005,0.5726681489690635,0.29556354458885864
338,Okehampton,-4.004263,50.73831,0.4335292876723733,0.3541474294807532
339,Omagh,-7.309959700000001,54.59771,0.5085711400568207,0.3304655864573377
340,Orkney Islands,-2.9605206,58.980940000000004,0.49638156113329,0.309856681144831
341,Oswestry,-3.056412,52.85715,0.23602990584393468,0.6989754802377959
342,Otley,-1.691786,53.90583,0.47091155476861674,0.39550480065380156
343,Oxenholme,-2.7243327999999996,54.30134,0.28657734257309725,0.49935520406191447
344,Oxford,-1.2577263,51.75202,0.75814327377332,0.23815060331501156
345,Paignton,-3.564235,50.43508,0.4862711285913945,0.43110114788654824
346,Peebles,-3.1936419999999996,55.65306999999999,0.7156510066968222,0.0496765535120971
347,Pembroke,-4.908637000000001,51.674040000000005,0.4146752166694331,0.49304140816165143
348,Penrith,-2.752708,54.6641,0.2709705102582093,0.7328773558009222
349,Penzance,-5.537592,50.1188,0.4016874811841851,0.5089222684282347
350,Perth,-3.4308381000000003,56.39499,0.522973021964082,0.32344478050608166
351,Peterborough,-0.2405299,52.5695,0.3869363549765358,0.6327418673110838
352,Peterhead,-1.784066,57.50812,0.5056280865156917,0.3490582628247365
353,Petersfield,-0.93899,51.00759,0.28802893571666505,0.6209970344331569
354,Pitlochry,-3.729711,56.70436,0.45636195449959954,0.295480526537263
355,Plymouth,-4.1426565,50.37546,0.4973697061952387,0.5175507547192654
356,Poole,-1.987248,50.71505,0.4258300162639323,0.5459616694156633
357,Porthmadog,-4.1333839999999995,52.92784,0.45605874205627894,0.3785060257553312
358,Portree,-6.1960231,57.41246999999999,0.4703622963711751,0.3483987726862585
359,Portsmouth,-1.0879769,50.81977,0.3611850484376232,0.705258198390912
360,Prestatyn,-3.4076129999999996,53.33651,0.06542549933907243,0.8606502280762602
361,Preston,-2.70309,53.7632,0.41026962153013863,0.6462652401487459
362,Pwllheli,-4.417633900000001,52.888819999999996,0.4576085782301509,0.3270887873125553
363,Ramsgate,1.4198950000000001,51.33555,0.4716013533023918,0.4342813574223844
364,Reading,-0.9781303,51.45426,0.6535933265131231,0.3374852130637108
365,Redruth,-5.226666000000001,50.23302,0.3637691407028892,0.5061793267140405
366,Reeth,-1.9428115000000001,54.38946,0.1759132571316871,0.726197099722059
367,Retford,-0.9455030000000001,53.32136,0.284502125770019,0.6012492084240685
368,Rhyl,-3.4916339999999995,53.319140000000004,0.12044364874360333,0.8290614031269101
369,Ringwood,-1.7888169999999999,50.84495,0.3691429437341712,0.556674301202103
370,Rochdale,-2.1561,53.60971,0.4277681481828284,0.5953847182823847
371,Roscommon,-8.1890955,53.627590000000005,0.6746539431888393,0.12141590836581721
372,Ross-on-Wye,-2.582446,51.91445,0.2942686124083197,0.6416342237748579
373,Rosslare,-6.3414908,52.25131,0.249008364661108,0.3061095309773571
374,Rotherham,-1.3635008999999998,53.4326,0.8560125144438554,0.04142826781345712
375,Rothesay,-5.055793,55.83596,0.6186908634549516,0.17401508481970382
376,Royston,-0.024066,52.048140000000004,0.46391698039406565,0.37711286748369083
377,Rugby,-1.265032,52.37088,0.47644233820221177,0.487105521027107
378,Ruthin,-3.3103108,53.114869999999996,0.08310130885279264,0.8330254891275418
379,Ruthin,-3.3103108,53.114869999999996,0.08310130885279264,0.8330254891275418
380,Salisbury,-1.794472,51.06878,0.5380202387846286,0.38979075020935866
381,Saltash,-4.21643,50.409209999999995,0.3157869613088286,0.5354664661470429
382,Sark,-2.3666256000000003,49.43007,0.07858886098674243,0.515267088226232
383,Scarborough,-0.399752,54.28311,0.3146307340386702,0.6484206936278737
384,Scilly Isles,-6.327496599999999,49.92773,0.30193416137929785,0.48918808311999484
385,Scunthorpe,-0.654413,53.58865,0.26951826803624934,0.7115590874342008
386,Sedbergh,-2.5281740000000004,54.32363,0.2693386918417326,0.5597594199647916
387,Sedbergh,-2.5281740000000004,54.32363,0.2693386918417326,0.5597594199647916
388,Selby,-1.067189,53.783519999999996,0.4495247435982874,0.43447059590292547
389,Selkirk,-2.838524,55.55066,0.5503420646224257,0.2964741019985744
390,Sevenoaks,0.190898,51.27241,0.6542564913208669,0.29219824573785996
391,Shaftesbury,-2.198083,51.0046,0.40710758428610216,0.43254833666928905
392,Sheffield,-1.470085,53.381130000000006,0.9312604872518512,0.05513740113999624
393,Sheringham,1.2109589,52.944419999999994,0.36290331744364746,0.4359559766001978
394,Shetland Islands,-1.2659409,60.52965,0.38622440501789745,0.33690897738964787
395,Shrewsbury,-2.7553267999999997,52.7073,0.29184636776891226,0.7450781268943951
396,Sidmouth,-3.2375599999999998,50.67865,0.3793207843952137,0.46965544663392755
397,Skegness,0.337881,53.1464,0.17831985751370552,0.737212463632148
398,Skipton,-2.0162787,53.96285,0.4218879350436519,0.4658003341856677
399,Sligo,-8.476088800000001,54.27661,0.6102979277637698,0.263322664359449
400,Slough,-0.5950406,51.51054,0.5886134433282805,0.3780730747049628
401,South Shields,-1.427406,54.99941999999999,0.32984068071396705,0.6700540575780929
402,Southampton,-1.4043508999999998,50.9097,0.6042664417951472,0.44120669589479367
403,Southend,0.7077123000000001,51.54593,0.24995929152461585,0.7866640059200265
404,Southport,-3.010113,53.64571,0.2094348207141145,0.8088431674167601
405,Spalding,-0.1537024,52.7901,0.28365877111458365,0.654597887181614
406,St Andrews,-2.7967214,56.339780000000005,0.5429645538422228,0.3279512369830859
407,St Austell,-4.7834252,50.340379999999996,0.3748351983557041,0.5048165298002492
408,St Neots,-0.26510300000000003,52.23008,0.5186317746756554,0.3272197819990242
409,Stafford,-2.12066,52.80669,0.41217062782894526,0.5949485690561669
410,Stanhope,-2.011302,54.74946,0.33997417982340894,0.6040429518356184
411,Stevenage,-0.19661199999999998,51.90376,0.5520555829050472,0.3971375683078433
412,Stirling,-3.9369029,56.116519999999994,0.7834366045311082,0.11967583189813885
413,Stockton,-1.3289821000000002,54.57046,0.0768738072848002,0.9633235536018345
414,Stoke-on-Trent,-2.179404,53.002669999999995,0.22295323489476976,0.8441981705250851
415,Stornoway,-6.384869200000001,58.209430000000005,0.5894532575546889,0.2081726353954177
416,Strabane,-7.4633103,54.82739,0.47922844045569163,0.3512729899258356
417,Stranraer,-5.024055000000001,54.903369999999995,0.5216586911891004,0.27509646215924666
418,Stratford-upon-Avon,-1.7082979999999999,52.19173,0.5657173396296545,0.3479417387487494
419,Street,-2.7429189999999997,51.12468,0.22157060716533725,0.6171864561627731
420,Sunderland,-1.383801,54.90687,0.3107123448983302,0.7232197425265147
421,Swaffham,0.687481,52.64747,0.21940527495580978,0.6294985717832894
422,Swansea,-3.9436459999999998,51.62144,0.5068345288672058,0.5170668340966762
423,Swindon,-1.7797176,51.55577,0.44895056794654425,0.5474590187024231
424,Tain,-4.05523,57.8115,0.4596590758812189,0.28288806907543773
425,Taunton,-3.106849,51.01534,0.3143961890260024,0.6591829591148203
426,Tavistock,-4.141654,50.551120000000004,0.36150095506976904,0.5127760161216879
427,Telford,-2.4672611,52.67759,0.33682523528612635,0.6565989731327012
428,Tenby,-4.703579,51.672740000000005,0.3622268809020343,0.48839660875201923
429,Thetford,0.751657,52.412859999999995,0.44465920011638344,0.4140548668530946
430,Thirsk,-1.341377,54.23385,0.43077231072823985,0.40502617738694263
431,Thurso,-3.5220800000000003,58.59356999999999,0.4966595943914936,0.30260598283950646
432,Tipperary,-8.161851400000002,52.47379,0.6506432704409806,0.20795662572078158
433,Tiverton,-3.491207,50.90205,0.4459345709573259,0.4072084070063428
434,Tiverton,-3.491207,50.90205,0.4459345709573259,0.4072084070063428
435,Torquay,-3.525315,50.46192,0.4974534144834293,0.42332472968896884
436,Totnes,-3.685797,50.43374,0.3819729043363088,0.4731349313073766
437,Towcester,-0.9896879999999999,52.13511,0.502014616845988,0.37685721516664134
438,Tralee,-9.6999325,52.27131,0.6734014861139728,0.08755996551317655
439,Tregaron,-3.934385,52.22,0.4117453306590804,0.3808834413425182
440,Tregaron,-3.934385,52.22,0.4117453306590804,0.3808834413425182
441,Trowbridge,-2.208853,51.31966,0.571000843683045,0.4099414689992515
442,Truro,-5.051041000000001,50.2632,0.48017205225283105,0.5223850161663384
443,Tunbridge Wells,0.26369499999999996,51.13238,0.7204304898946269,0.18637323508690862
444,Turriff,-2.4623,57.53893000000001,0.46830534875232943,0.33874822096986495
445,Tyrone,-7.131232000000001,54.491209999999995,0.5079651551667721,0.2555620984719546
446,Tywyn,-4.087249,52.58701,0.3704363162105304,0.3636505343604069
447,Uckfield,0.095913,50.966409999999996,0.6585844041641508,0.22732412501058663
448,Ullapool,-5.161313,57.895419999999994,0.5256267373427169,0.20750791916901526
449,Wadebridge,-4.836456,50.51665,0.38943470004416103,0.4643023521619506
450,Wakefield,-1.505924,53.6833,0.5266915825357915,0.44690106608643304
451,Walsall,-1.9829189999999999,52.586209999999994,0.2098964103311445,0.8368362951027437
452,Warrington,-2.5969501,53.39004,0.2033812500605983,0.9247548349499642
453,Waterford,-7.110070200000001,52.25932,0.5608108580636104,0.36672675230428026
454,Wellingborough,-0.693964,52.30242,0.41318291112355904,0.5106120259469826
455,Wells,-2.6445979,51.20935,0.38499206832905675,0.4908988455703214
456,Welshpool,-3.146407,52.66035,0.28006735445000014,0.5899878160920107
457,Welwyn Garden City,-0.208661,51.80317,0.6395021585817897,0.38443361926757685
458,Western Isles,-7.0194034,57.759890000000006,0.5003639036333777,0.2377480748358746
459,Westmeath,-7.4653217000000005,53.534530000000004,0.4997145351264455,0.3163305010323895
460,Weston-super-Mare,-2.977255,51.347409999999996,0.631350585797952,0.2816952759129381
461,Wetherby,-1.384816,53.92706,0.5453108885567278,0.28654400425515925
462,Wexford,-6.4633381,52.33692,0.5514662688364369,0.36374084313683847
463,Weymouth,-2.457621,50.61443,0.32211377178310213,0.6154153424809458
464,Whitby,-0.613347,54.48633,0.01,0.9654042269132993
465,Whitchurch,-2.682045,52.96872,0.16003982735883918,0.7322013982567614
466,Whitehaven,-3.589233,54.5497,0.21199685433316118,0.7189887845581069
467,Wick,-3.093716,58.43894,0.4855397580606812,0.3042211177896998
468,Wicklow,-6.044589,52.980819999999994,0.6581979452489298,0.2183632091853134
469,Wigan,-2.6325074,53.54506,0.15156936593137163,0.9787642956026711
470,Wincanton,-2.416007,51.055690000000006,0.2688727174233305,0.5758630628885693
471,Wisbech,0.158797,52.66631999999999,0.21980088337179715,0.6726576016008892
472,Witney,-1.4850543999999999,51.785940000000004,0.640694195432611,0.23441265413217444
473,Woking,-0.5600349,51.31677,0.6188378233056502,0.3767596162830386
474,Wolverhampton,-2.12882,52.586969999999994,0.26198741598612735,0.7791918784714976
475,Worcester,-2.221575,52.19364,0.510228832936233,0.4975647330712913
476,Workington,-3.5427519999999997,54.64357,0.18484965296348993,0.7492004996826218
477,Worksop,-1.122745,53.3093,0.32645480179124564,0.6056729067546819
478,Worthing,-0.372882,50.81787,0.6753657873383416,0.2666457431487156
479,Wrexham,-2.9924939999999998,53.043040000000005,0.3039654117782753,0.6902668355188418
480,Yeovil,-2.633308,50.94206,0.2889837937087213,0.6700009207339254
481,York,-1.0872979,53.95997,0.694005585318328,0.29285701565885797
