,placename,should_have,should_of,longitude,latitude
0,Dingle,0.9167159887821648,0.08328417392498791,-10.264013499999999,52.14094
1,Tralee,0.926169001471247,0.07383122538733022,-9.6999325,52.27131
2,Killarney,0.8853329831968139,0.11466698807414412,-9.5044265,52.05994000000001
3,Bantry,0.8706285960535578,0.12937138016792418,-9.4539805,51.68035
4,Mayo,0.8927626108064249,0.1072372232952638,-9.4289369,54.01526
5,Ballycastle,0.8362593299599018,0.16374085983458064,-9.3724643,54.279669999999996
6,Abbeyfeale,0.8820477599679493,0.11795214507507565,-9.2970823,52.386179999999996
7,Ennistymon,0.9859339386655092,0.04139811,-9.2934951,52.940369999999994
8,Galway,1.0,0.04139811,-9.0567905,53.270669999999996
9,Claremorris,0.9655378130607654,0.04139811,-9.0017356,53.72388
10,Clare,0.9665747558302786,0.04139811,-8.9811351,52.90453
11,Adare,0.8812996798270865,0.11870036013573185,-8.7925892,52.56363
12,Charleville,0.8751426637982407,0.12485710890158433,-8.681017599999999,52.36206
13,Mallow,0.8663407703676768,0.13365913996341744,-8.6539164,52.13898
14,Limerick,0.9763805983967776,0.04139811,-8.6267343,52.66384
15,Loughrea,0.97572072572527,0.04139811,-8.5660931,53.19891
16,Sligo,0.8100884,0.28253070681476994,-8.476088800000001,54.27661
17,Cork,0.8100884,0.19457274745149344,-8.4756035,51.898509999999995
18,Nenagh,0.8636527992404724,0.1363473139974864,-8.19834,52.8635
19,Roscommon,0.8861483972837494,0.11385137171077772,-8.1890955,53.62759000000001
20,Tipperary,0.8100884,0.2144763319416524,-8.161851400000002,52.47379
21,Donegal,0.8100884,0.3372984063059608,-8.1096143,54.653830000000006
22,Leitrim,0.8100884,0.316473289119605,-8.0020132,54.12469
23,Athlone,0.815162257976548,0.18483746758290245,-7.9406898,53.42393000000001
24,Longford,0.8100884,0.26299025441803425,-7.7932573000000005,53.72763000000001
25,Offaly,0.8100884,0.32485697423364684,-7.7122229,53.23569000000001
26,Fermanagh,0.8100884,0.30811296889271644,-7.6318728,54.343830000000004
27,Enniskillen,0.8100884,0.30811296889271644,-7.631533599999999,54.343819999999994
28,Doon,0.8100884,0.29328373962088955,-7.60964,54.185930000000006
29,Westmeath,0.8100884,0.3439358522746593,-7.4653217000000005,53.534530000000004
30,Strabane,0.8100884,0.3826734211615177,-7.4633103,54.82739
31,Cavan,0.8100884,0.3116956747015169,-7.3633319,53.98972
32,Mullingar,0.8100884,0.35282535016188776,-7.3401868000000015,53.525819999999996
33,Laois,0.8100884,0.32060577678318025,-7.3323006999999985,52.99429
34,Omagh,0.8100884,0.3612275521173336,-7.309959700000001,54.59771
35,Derry,0.8100884,0.37293740061927055,-7.308574799999999,54.99661
36,Kilkenny,0.8100884,0.3951118905392071,-7.2447879,52.65415
37,Tyrone,0.8100884,0.2906916511602148,-7.1312320000000025,54.491209999999995
38,Waterford,0.8100884,0.3929621189191955,-7.110070200000001,52.25932
39,Monaghan,0.8100884,0.3065181638430728,-6.9683132,54.2492
40,Carlow,0.8100884,0.3315876777490524,-6.934135899999999,52.83651
41,Kildare,0.8100884,0.3749984260684807,-6.8194707999999995,53.21204
42,Dungannon,0.8100884,0.2466670190477697,-6.7669352,54.508269999999996
43,Cookstown,0.8100884,0.2540843943764016,-6.7443895000000005,54.641819999999996
44,Coleraine,0.8100884,0.3401314157067929,-6.6646103000000005,55.132580000000004
45,Meath,0.8100884,0.23681329872816234,-6.656416900000001,53.60555
46,Armagh,0.820330138337592,0.17967005681976952,-6.652792,54.35028000000001
47,Magherafelt,0.8100884,0.27293595293894257,-6.607980499999999,54.75536999999999
48,Louth,0.8100884,0.2596122438742081,-6.4889423,53.925230000000006
49,Wexford,0.8100884,0.3901764452983888,-6.4633381,52.33692
50,Craigavon,0.8100884,0.21783811499901184,-6.4175653,54.442930000000004
51,Drogheda,0.8100884,0.2328777629231561,-6.3560985,53.717859999999995
52,Rosslare,0.8100884,0.3675884574764104,-6.3414908,52.25131
53,Newry,0.8100884,0.2314862391251433,-6.34023,54.1751
54,Ballymena,0.8100884,0.35045782048696605,-6.2802213,54.86529
55,Banbridge,0.8100884,0.20311965010576485,-6.2704803,54.34873
56,Dublin,0.8704124540866653,0.1295875895415533,-6.2603097000000005,53.34981
57,Antrim,0.8356553444636341,0.16434484553419235,-6.2072498,54.719530000000006
58,Wicklow,0.8100884,0.2211908079705912,-6.044589,52.980819999999994
59,Kilkeel,0.8100884,0.22290156211440784,-6.007004,54.06312
60,Belfast,0.8655785500981394,0.13442169715941552,-5.93012,54.59728000000001
61,Down,0.8180010571429538,0.18199873479472736,-5.7156921999999994,54.32875
62,Balivanich,0.8100884,0.22612712855300315,-7.3743509000000005,57.472269999999995
63,Western Isles,0.8100884,0.2596721037724193,-7.0194034,57.75989000000001
64,Dunvegan,0.8100884,0.22864299496106244,-6.5813982000000015,57.4366
65,Stornoway,0.8100884,0.3142045383768272,-6.3848692000000025,58.20943000000001
66,Scilly Isles,0.8100884,0.531760524046812,-6.327496599999999,49.92773
67,Portree,0.8100884,0.2375597631056312,-6.1960231,57.41246999999999
68,Islay,0.9231497473293676,0.07685041321173268,-6.177067,55.73625
69,Mull,0.9473623609974844,0.05263732005417692,-6.0008870000000005,56.4392
70,Broadford,0.8100884,0.2331364600310612,-5.9096592,57.24139
71,Kyle of Lochalsh,0.8100884,0.2150643594906724,-5.7143293,57.28261
72,Campbeltown,0.9199217579546636,0.08007840367320264,-5.605373999999999,55.424119999999995
73,Penzance,0.8100884,0.5284383333630726,-5.537592,50.1188
74,Oban,0.9481414147535414,0.05185846803774336,-5.471047,56.41516
75,Lochgilphead,0.9359963909004906,0.06400342864568832,-5.4323449,56.03829
76,Helston,0.8100884,0.5212207379196969,-5.274996,50.10159
77,Redruth,0.8100884,0.5204820169486333,-5.226666000000002,50.23302
78,Ullapool,0.8100884,0.3399834829774677,-5.161313,57.895419999999994
79,Ballachulish,0.8710036461331794,0.12899632996203372,-5.133719999999999,56.67393000000001
80,Fort William,0.8177411481111142,0.18225891324994467,-5.1052179,56.81981999999999
81,Achnasheen,0.8100884,0.32561885808995755,-5.078765799999998,57.57859000000001
82,Newquay,0.8100884,0.5237114214234468,-5.0737190000000005,50.4155
83,Falmouth,0.8100884,0.5212207379196969,-5.066269999999999,50.152570000000004
84,Rothesay,0.933375753719359,0.06662440337895323,-5.055793,55.83596
85,Truro,0.8100884,0.5199827355704146,-5.0510410000000014,50.2632
86,Milford Haven,0.8100884,0.5093248456621269,-5.0426971,51.71431
87,Stranraer,0.8100884,0.2449897972203865,-5.0240550000000015,54.903369999999995
88,Fishguard,0.8100884,0.5285229721617807,-4.975989,51.99393
89,Inchnadamph,0.8100884,0.3498196964652023,-4.974295,58.15221
90,Haverfordwest,0.8100884,0.5285015599597208,-4.971319,51.80048
91,Dunoon,0.9444622879401536,0.05553739408787554,-4.926214,55.95097
92,Pembroke,0.8100884,0.5129732694244191,-4.9086370000000015,51.67404000000001
93,Girvan,0.910301083739862,0.08969894645905807,-4.8542179,55.240159999999996
94,Wadebridge,0.8100884,0.5201009740195248,-4.836456,50.51665
95,Invergarry,0.8100884,0.2494215170410492,-4.800261,57.07095
96,St Austell,0.8100884,0.5199827355704146,-4.7834252,50.340379999999996
97,Greenock,0.9520508236624962,0.04794932714848387,-4.7719830000000005,55.956480000000006
98,Helensburgh,0.9528628710521276,0.047136942815617006,-4.734014,56.00232
99,Bodmin,0.8100884,0.5208700626104908,-4.7188629,50.4715
100,Tenby,0.8100884,0.5159779804455421,-4.703579,51.67274000000001
101,Camelford,0.8100884,0.5210133492959729,-4.682364,50.62206
102,Irvine,0.929829274779734,0.07017068151066452,-4.6696364,55.61156999999999
103,Cardigan,0.8100884,0.527615444931082,-4.660864,52.0837
104,Holyhead,0.8100884,0.9180160450114114,-4.633038,53.30944
105,Ayr,0.9295821591976487,0.07041793184388348,-4.629179,55.45856
106,Dumbarton,0.9552451460641624,0.04475513833932212,-4.564554,55.94529
107,Bude,0.8100884,0.5114188647560204,-4.543678,50.82664000000001
108,Isle of Man,0.8100884,0.7719502846375195,-4.5126330999999995,54.27697
109,Kilmarnock,0.9361074919115088,0.06389246226520225,-4.498792,55.61472
110,Newton Stewart,0.8100884,0.319679396041234,-4.483164,54.9603
111,Liskeard,0.8100884,0.5218674133554907,-4.4647190000000005,50.45552
112,Altnaharra,0.8100884,0.3487246441315585,-4.442655,58.28023
113,Pwllheli,0.8100884,0.6828191655368587,-4.417633900000001,52.888819999999996
114,Lairg,0.8100884,0.34667890349325264,-4.402414,58.022059999999996
115,Launceston,0.8100884,0.5155577491466261,-4.360451599999998,50.636829999999996
116,Carmarthen,0.8100884,0.5231631209159844,-4.312131,51.857620000000004
117,Llangefni,0.8100884,0.9781006366763412,-4.311401999999998,53.25578
118,Caernarfon,0.8100884,0.9348143215311476,-4.273911,53.13955
119,Cumnock,0.9373976103182542,0.06260214142220785,-4.265828900000002,55.45355
120,Aberaeron,0.8100884,0.534686790994351,-4.2581619,52.24279
121,Alness,0.8100884,0.3435885436638904,-4.256825,57.69595
122,Glasgow,0.9658993963511736,0.04139811,-4.251806,55.86424
123,Dalwhinnie,0.8100884,0.2710755827165823,-4.242783,56.9366
124,Inverness,0.8100884,0.3588568577458809,-4.224721,57.47776999999999
125,Saltash,0.8100884,0.5197799929905339,-4.21643,50.409209999999995
126,Bideford,0.8100884,0.5071730540230532,-4.206666,51.01668
127,Invergordon,0.8100884,0.35711310995738105,-4.1728819999999995,57.688109999999995
128,Llanelli,0.8100884,0.5424147779207877,-4.160248,51.68089000000001
129,Plymouth,0.8100884,0.5190803257213404,-4.1426565,50.37546
130,Tavistock,0.8100884,0.5250563501150907,-4.141654,50.551120000000004
131,Porthmadog,0.8100884,0.6994862754854865,-4.1333839999999995,52.92784
132,Bangor,0.8100884,0.9745900455480632,-4.129263,53.22739
133,Tywyn,0.8100884,0.561272463874484,-4.087249,52.58701
134,Aberystwyth,0.8100884,0.4730924370822979,-4.08292,52.4153
135,Lampeter,0.8100884,0.5332168904567229,-4.0785089999999995,52.1129
136,Barnstaple,0.8100884,0.4936156960867855,-4.058338,51.07816
137,Tain,0.8100884,0.3492426443530872,-4.05523,57.8115
138,Okehampton,0.8100884,0.5375424919426489,-4.004263,50.73831
139,Llandeilo,0.8100884,0.541603134261577,-3.9914300000000003,51.88469
140,Motherwell,0.9716611621165748,0.04139811,-3.9810968,55.78321
141,Golspie,0.8100884,0.3499249394583453,-3.976086,57.97341
142,Airdrie,0.9808010719564207,0.04139811,-3.9625660000000003,55.86626999999999
143,Swansea,0.8100884,0.540814518819676,-3.9436459999999998,51.62144
144,Stirling,0.9692957205910572,0.04139811,-3.9369029,56.116519999999994
145,Tregaron,0.8100884,0.5206813254961082,-3.934385,52.22
146,Castle Douglas,0.8100884,0.4460619560046582,-3.9314139999999997,54.940419999999996
147,Dolgellau,0.8100884,0.6626956009708211,-3.8844,52.74215
148,Aberfeldy,0.8100884,0.2596137252215203,-3.866969,56.62175
149,Machynlleth,0.8100884,0.6175133632677714,-3.853485,52.59027
150,Brora,0.8100884,0.3634843847476441,-3.852548000000001,58.012159999999994
151,Llandudno,0.8100884,0.9792637636523828,-3.827609,53.324059999999996
152,Aviemore,0.8100884,0.3491136324689784,-3.823812,57.19449
153,Dalbeattie,0.8100884,0.5207140498049166,-3.8225269999999996,54.934219999999996
154,Falkirk,0.9654583590044,0.04139811,-3.7839131,56.00188000000001
155,Kingsbridge,0.8100884,0.5393811132931058,-3.777493,50.28395
156,Pitlochry,0.8100884,0.2702435368648429,-3.729711,56.70436
157,Colwyn Bay,0.8100884,0.9801989651442344,-3.72764,53.29318000000001
158,Totnes,0.8100884,0.5531255923285062,-3.685797,50.43374
159,Grantown-on-Spey,0.8100884,0.3350434590267751,-3.609628,57.33041
160,Dumfries,0.8100884,0.4399072945918366,-3.60512,55.070859999999996
161,Whitehaven,0.8100884,0.8103039825685822,-3.589233,54.5497
162,Dartmouth,0.8100884,0.5695235684040738,-3.578807,50.35252
163,Bridgend,0.8100884,0.3980680537688674,-3.576945,51.50429000000001
164,Paignton,0.8100884,0.5801803809688618,-3.564235,50.43508
165,Workington,0.8100884,0.7897189109807901,-3.5427519999999997,54.64357
166,Llanidloes,0.8100884,0.5858502378067442,-3.5401949999999998,52.44779000000001
167,Exeter,0.8100884,0.5720201099631043,-3.533899,50.71841
168,Torquay,0.8100884,0.5768978499927111,-3.525315,50.46192
169,Thurso,0.8100884,0.3635456586591989,-3.5220800000000003,58.59356999999999
170,Livingston,0.9480767741653108,0.05192290664582902,-3.518068,55.90071
171,Rhyl,0.8100884,0.9808988344153342,-3.4916339999999995,53.319140000000004
172,Tiverton,0.8100884,0.551633875585006,-3.491207,50.90205
173,Minehead,0.8100884,0.3948218158018685,-3.481152,51.20428
174,Dunfermline,0.9074434310685554,0.09255666742641827,-3.452151,56.07174000000001
175,Perth,0.8685776040561967,0.13142210351991687,-3.4308381000000003,56.39499
176,Prestatyn,0.8100884,0.9942022759554776,-3.4076129999999996,53.33651
177,Builth Wells,0.8100884,0.5728229328724098,-3.4045919999999996,52.15002
178,Braemar,0.8100884,0.3517244397729633,-3.3979439,57.00646999999999
179,Brecon,0.8100884,0.565186452809493,-3.391463,51.94895
180,Merthyr Tydfil,0.8100884,0.4139173253331601,-3.381646,51.74873
181,Llandrindod Wells,0.8100884,0.5548689361131938,-3.377742,52.2417
182,Corwen,0.8100884,0.8360454221486336,-3.369242,52.98005
183,Cockermouth,0.8100884,0.7892912729453124,-3.367985,54.66326
184,Lockerbie,0.8100884,0.4443357823819997,-3.349008,55.12224000000001
185,Blairgowrie,0.8100884,0.2891138816046627,-3.3378318,56.58941
186,Elgin,0.8100884,0.3516802686894689,-3.318485,57.64945
187,Newtown,0.8100884,0.7234294267623572,-3.313106,52.51211
188,Ruthin,0.8100884,1.0,-3.3103108,53.114869999999996
189,Sidmouth,0.8100884,0.5571530390008447,-3.2375599999999998,50.67865
190,Barrow-in-Furness,0.8100884,0.7563579594979445,-3.2188939999999997,54.10896999999999
191,Peebles,0.9299908762503076,0.07000907998568479,-3.1936419999999996,55.65306999999999
192,Edinburgh,0.900585468661098,0.0994144301408391,-3.1882669999999997,55.95325
193,Cardiff,0.8100884,0.4190578698427651,-3.17909,51.48158
194,Llangollen,0.8100884,0.9496246299577579,-3.1716599999999997,52.96921
195,Kirkcaldy,0.8791227733505707,0.12087720001117745,-3.158137,56.11682
196,Welshpool,0.8100884,0.7884372762197633,-3.146407,52.66035
197,Mold,0.8100884,0.9902580540685034,-3.1419029999999997,53.1672
198,Taunton,0.8100884,0.41458393162370144,-3.106849,51.01534
199,Wick,0.8100884,0.3554113112314071,-3.093716,58.43894
200,John o' Groats,0.8100884,0.36841356792936936,-3.0688997000000002,58.63734
201,Dalkeith,0.9059358240159984,0.09406434232051038,-3.066606,55.893119999999996
202,Oswestry,0.8100884,0.7865634392036547,-3.056412,52.85715
203,Blackpool,0.8100884,0.8104241063688171,-3.0356748,53.81751
204,Birkenhead,0.8100884,0.9944745745250684,-3.023009,53.389990000000004
205,Cupar,0.8606557653007979,0.13934448361411034,-3.010137,56.32023
206,Southport,0.8100884,0.9785179052806328,-3.010113,53.64571
207,Bridgwater,0.8100884,0.4598652849287388,-3.003632,51.12789
208,Langholm,0.8100884,0.6317182046474579,-2.998913,55.153059999999996
209,Newport,0.8100884,0.4159707420439024,-2.997664,51.58415
210,Axminster,0.8100884,0.6009253707324151,-2.9949369999999997,50.78273
211,Wrexham,0.8100884,0.9427420883428402,-2.9924939999999998,53.04304000000001
212,Liverpool,0.8100884,0.9928801061452684,-2.9915726,53.40837
213,Weston-super-Mare,0.8100884,0.4525949669878385,-2.977255,51.347409999999996
214,Dundee,0.854153326128601,0.14584679030754455,-2.9707209999999997,56.462019999999995
215,Kirkwall,0.8100884,0.3625714707994462,-2.9622491,58.984669999999994
216,Ambleside,0.8100884,0.8268932544493445,-2.961333,54.42874000000001
217,Orkney Islands,0.8100884,0.3625714707994462,-2.9605206,58.980940000000004
218,Lyme Regis,0.8100884,0.5930462863801226,-2.936639,50.725159999999995
219,Carlisle,0.8100884,0.7151599400593011,-2.932931,54.892469999999996
220,Chester,0.8100884,0.9758901298165252,-2.893075,53.19339
221,Forfar,0.8100884,0.1980816552305532,-2.889062,56.64356
222,Morecambe,0.8100884,0.7535293941390494,-2.864968,54.074169999999995
223,Selkirk,0.8887124739501794,0.11128722684713067,-2.838524,55.55066
224,Galashiels,0.8839930376699758,0.11600666471622602,-2.814449,55.62373
225,Lancaster,0.8100884,0.7671120696475642,-2.8007399,54.046569999999996
226,St Andrews,0.8558407148171719,0.14415946838485005,-2.7967214,56.33978000000001
227,Hawick,0.8100884,0.2054841497520932,-2.780914,55.42706
228,Bridport,0.8100884,0.606615158425045,-2.758301,50.733579999999996
229,Shrewsbury,0.8100884,0.7664114597028081,-2.7553267999999997,52.7073
230,Penrith,0.8100884,0.8021748198563834,-2.752708,54.6641
231,Kendal,0.8100884,0.7512811802567377,-2.74629,54.32801
232,Street,0.8100884,0.5669583461969269,-2.7429189999999997,51.12468
233,Glastonbury,0.8100884,0.5593925668011888,-2.718454,51.14743
234,Hereford,0.8100884,0.6068020775222714,-2.715974,52.0564
235,Ludlow,0.8100884,0.7127960464186913,-2.7139129,52.36775
236,Preston,0.8100884,0.8124392773853143,-2.70309,53.7632
237,Whitchurch,0.8100884,0.8133604060776987,-2.682045,52.96872
238,Wells,0.8100884,0.56615774530859,-2.6445979,51.20935
239,Yeovil,0.8100884,0.588338901291432,-2.633308,50.94206
240,Wigan,0.8100884,0.9009735481870498,-2.6325074,53.54506
241,Warrington,0.8100884,0.9056218813851542,-2.5969501,53.39004
242,Arbroath,0.8321391657997421,0.1678610927158449,-2.591543,56.55911
243,Bristol,0.8100884,0.5543809668417238,-2.58791,51.45451
244,Guernsey,0.8100884,0.5793871194831176,-2.5852779999999997,49.46569
245,Ross-on-Wye,0.8100884,0.5834910575439464,-2.582446,51.91445
246,Jedburgh,0.8100884,0.2335794502114118,-2.5549369,55.47772
247,Sedbergh,0.8100884,0.6882982652412964,-2.5281740000000004,54.32363
248,Nantwich,0.8100884,0.794846190698553,-2.524102,53.06718000000001
249,Banff,0.8100884,0.3460774091504844,-2.524038,57.666509999999995
250,Dunbar,0.8566776757668491,0.14332203581561126,-2.516737,56.00209
251,Cinderford,0.8100884,0.5671142916685324,-2.5009579,51.8253
252,Banchory,0.8100884,0.3771423396332117,-2.4909599,57.05386
253,Blackburn,0.8100884,0.7787512848162911,-2.487529,53.748580000000004
254,Market Drayton,0.8100884,0.8196127690791641,-2.483485,52.90355
255,Telford,0.8100884,0.7743215176807219,-2.4672611,52.67759
256,Montrose,0.8100884,0.200526282299684,-2.4661150000000003,56.70692
257,Turriff,0.8100884,0.34726632503655397,-2.4623,57.53893000000001
258,Weymouth,0.8100884,0.6171468644759113,-2.457621,50.61443
259,Crewe,0.8100884,0.7610703273003221,-2.4438209,53.1004
260,Fortuneswell,0.8100884,0.6182415128057425,-2.4422189999999997,50.55919
261,Dorchester,0.8100884,0.619381746232412,-2.4411810000000003,50.71116
262,Alston,0.8100884,0.6697427741393119,-2.438685,54.812169999999995
263,Kelso,0.8270204392193296,0.17297968635164018,-2.432207,55.600030000000004
264,Wincanton,0.8100884,0.5491386133713816,-2.416007,51.05569000000001
265,Clitheroe,0.8100884,0.6663537881585809,-2.3930830000000003,53.8711
266,Sark,0.8100884,0.5799373726756736,-2.3666256000000003,49.43007
267,Bath,0.8100884,0.5041704976889299,-2.3590167,51.38106
268,Kidderminster,0.8100884,0.6715096174790903,-2.2496839,52.3886
269,Manchester,0.8100884,0.5933341390964926,-2.2426305,53.48076
270,Burnley,0.8100884,0.6608110578536828,-2.2405035,53.78929
271,Gloucester,0.8100884,0.5169962720548207,-2.238156,51.86424
272,Newcastle-under-Lyme,0.8100884,0.7526025420593219,-2.2273002,53.01321
273,Worcester,0.8100884,0.5914128989663899,-2.221575,52.19364
274,Trowbridge,0.8100884,0.5047515898391695,-2.208853,51.31966
275,Shaftesbury,0.8100884,0.5463315275485151,-2.198083,51.0046
276,Alderney,0.8100884,0.6176252049898512,-2.1973557,49.715
277,Stoke-on-Trent,0.8100884,0.7519329730741559,-2.179404,53.002669999999995
278,Colne,0.8100884,0.5746591975339608,-2.176991,53.85564
279,Blandford Forum,0.8100884,0.6120447676624575,-2.165353,50.85691
280,Rochdale,0.8100884,0.6033489896032985,-2.1561,53.60971
281,Jersey,0.8100884,0.6142568905375237,-2.13125,49.21444
282,Wolverhampton,0.8100884,0.6955484503255429,-2.12882,52.586969999999994
283,Stafford,0.8100884,0.8300812485333822,-2.12066,52.80669
284,Macclesfield,0.8100884,0.4860059476094589,-2.119287,53.25866
285,Hexham,0.8100884,0.667034534582558,-2.1121439,54.97266
286,Aberdeen,0.8100884,0.3791912449680484,-2.094278,57.149719999999995
287,Dudley,0.8100884,0.6698781827504512,-2.081112,52.51225
288,Cheltenham,0.8100884,0.5315119270342181,-2.0782533,51.899390000000004
289,Bromsgrove,0.8100884,0.6276766851756526,-2.061906,52.33559
290,Skipton,0.8100884,0.429222807765896,-2.0162787,53.96285
291,Fraserburgh,0.8100884,0.34455337210198805,-2.007631,57.69335
292,Berwick,0.8100884,0.19320896524860207,-2.005395,55.77024
293,Poole,0.8100884,0.537062333411553,-1.987248,50.71505
294,Walsall,0.8100884,0.675751926845683,-1.9829189999999999,52.586209999999994
295,Cirencester,0.8100884,0.5464759589114656,-1.968243,51.71849
296,Evesham,0.8100884,0.4900148774403935,-1.9467700000000001,52.09215
297,Buxton,0.8100884,0.4922408711130204,-1.91483,53.259080000000004
298,Keighley,0.8100884,0.4303064133248538,-1.9123580000000002,53.8678
299,Birmingham,0.8100884,0.6739541772142523,-1.8904009999999998,52.48624
300,Bournemouth,0.8100884,0.58010503425784,-1.880769,50.719159999999995
301,Halifax,0.8100884,0.4346490503048714,-1.8575400000000002,53.727019999999996
302,Salisbury,0.8100884,0.5088824614874948,-1.794472,51.06878
303,Ringwood,0.8100884,0.5681076697093764,-1.7888169999999999,50.84495
304,Huddersfield,0.8100884,0.4080814902623298,-1.7850351000000002,53.64579000000001
305,Peterhead,0.8100884,0.34990143990325456,-1.784066,57.50812
306,Swindon,0.8100884,0.5014871717006103,-1.7797176,51.55577
307,Bradford,0.8100884,0.4071639976042574,-1.759398,53.79598000000001
308,Ashbourne,0.8100884,0.7745383330600698,-1.7321790000000001,53.016630000000006
309,Marlborough,0.8100884,0.5097573317433539,-1.7270619999999999,51.42007
310,Stratford-upon-Avon,0.8100884,0.5109259801048323,-1.7082979999999999,52.19173
311,Alnwick,0.8100884,0.6617443066604406,-1.7062990000000002,55.41274
312,Otley,0.8100884,0.3892929562945309,-1.691786,53.90583
313,Bishop Auckland,0.8100884,0.7801318331773991,-1.6787880000000002,54.663819999999994
314,Burton upon Trent,0.8100884,0.6916731784225605,-1.6371358999999999,52.81403
315,Newcastle,0.8100884,0.6977485877541733,-1.61778,54.97825
316,Durham,0.8100884,0.7720071145071373,-1.5848520000000001,54.77525
317,Ashington,0.8100884,0.6921183232899107,-1.5659829,55.18298000000001
318,Darlington,0.8100884,0.8807740309042718,-1.559458,54.52361
319,Leeds,0.8100884,0.4262828720227024,-1.5490774,53.80076
320,Harrogate,0.8100884,0.3666837582723989,-1.5418120000000002,53.99211999999999
321,Leamington Spa,0.8100884,0.570229834402204,-1.5200789,52.28519
322,Coventry,0.8100884,0.5822192535423559,-1.519693,52.40682
323,Blyth,0.8100884,0.7028580239702196,-1.510277,55.12696
324,Wakefield,0.8100884,0.3903886819678622,-1.505924,53.6833
325,Andover,0.8100884,0.4478590996303701,-1.4919233,51.2112
326,Witney,0.8100884,0.3776246528513074,-1.4850543999999999,51.785940000000004
327,Barnsley,0.8100884,0.2542806055613145,-1.479726,53.55263000000001
328,Derby,0.8100884,0.6414104581100232,-1.4746186000000001,52.92253
329,Sheffield,0.8100884,0.2224805228078669,-1.470085,53.38113000000001
330,Nuneaton,0.8100884,0.597166721263293,-1.465382,52.52049
331,Northallerton,0.8100884,0.6586655282737018,-1.429959,54.337959999999995
332,South Shields,0.8100884,0.7143567131461831,-1.427406,54.99941999999999
333,Chesterfield,0.8100884,0.2436230523228705,-1.421629,53.23505
334,Southampton,0.8100884,0.5768563722679663,-1.4043508999999998,50.9097
335,Wetherby,0.8100884,0.35346408018937003,-1.384816,53.92706
336,Sunderland,0.8100884,0.7676019916041275,-1.383801,54.90687
337,Rotherham,0.8100884,0.21868894702803013,-1.3635008999999998,53.4326
338,Castleford,0.8100884,0.39174202740559866,-1.345968,53.72346999999999
339,Thirsk,0.8100884,0.5986127182420179,-1.341377,54.23385
340,Banbury,0.8100884,0.3219742050299148,-1.339775,52.0629
341,Stockton,0.8100884,0.80552017342537,-1.3289821000000002,54.57046
342,Newbury,0.8100884,0.4380997815349385,-1.3231138999999998,51.40141
343,Isle of Wight,0.8100884,0.5913263748165571,-1.304734,50.69385
344,Abingdon,0.8100884,0.29787153958109513,-1.2879528999999998,51.67078
345,Shetland Islands,0.8100884,0.3417637931109944,-1.2659409,60.52965
346,Rugby,0.8100884,0.5078791180192771,-1.265032,52.37088
347,Oxford,0.8100884,0.2817127337624976,-1.2577263,51.75202
348,Middlesbrough,0.8100884,0.8852410337245549,-1.234956,54.57423000000001
349,Hartlepool,0.8100884,0.7903910386567681,-1.212926,54.69174
350,Loughborough,0.8100884,0.6083883984918538,-1.206166,52.7721
351,Mansfield,0.8100884,0.6012396856985006,-1.198674,53.1472
352,Nottingham,0.8100884,0.6291038286431296,-1.1581086,52.95478000000001
353,Bicester,0.8100884,0.32555219746090336,-1.1535898999999998,51.8996
354,Leicester,0.8100884,0.5468801647258211,-1.1397591999999999,52.63688000000001
355,Doncaster,0.8100884,0.2585605546164337,-1.128462,53.522819999999996
356,Worksop,0.8100884,0.28757206838841864,-1.122745,53.3093
357,Basingstoke,0.8100884,0.38149938608254,-1.0923964,51.26654
358,Portsmouth,0.8100884,0.5697871135577283,-1.0879769,50.81977
359,York,0.8100884,0.3649746201438321,-1.0872979,53.95997
360,Selby,0.8100884,0.4039854302758437,-1.067189,53.783519999999996
361,Helmsley,0.8100884,0.6653497040167069,-1.0562636,54.24651
362,Towcester,0.8100884,0.4831140883199468,-0.9896879999999999,52.13511
363,Reading,0.8100884,0.4024739173455333,-0.9781303,51.45426
364,Retford,0.8100884,0.3270891626313981,-0.9455030000000001,53.32136
365,Petersfield,0.8100884,0.5540257801566121,-0.93899,51.00759
366,Northampton,0.8100884,0.5023191502183809,-0.9026559999999999,52.24048
367,Melton Mowbray,0.8100884,0.5383165632473018,-0.887126,52.7664
368,Aylesbury,0.8100884,0.32134496909202503,-0.8084,51.81561
369,Newark-on-Trent,0.8100884,0.5955039762391889,-0.80657,53.07004000000001
370,Malton,0.8100884,0.599634443883702,-0.7978970000000001,54.13684
371,Chichester,0.8100884,0.4732681114067447,-0.774936,50.83761
372,Gainsborough,0.8100884,0.5877792213432521,-0.774465,53.400569999999995
373,Milton Keynes,0.8100884,0.4503099214246252,-0.7594171,52.040620000000004
374,Aldershot,0.8100884,0.4239005962086263,-0.7557509,51.24837
375,High Wycombe,0.8100884,0.2800269605210841,-0.748229,51.628609999999995
376,Midhurst,0.8100884,0.5751153178382161,-0.737274,50.9869
377,Kettering,0.8100884,0.5234960873914114,-0.7302489999999999,52.39632
378,Wellingborough,0.8100884,0.4811541984917864,-0.693964,52.30242
379,Corby,0.8100884,0.5594322938427463,-0.6842333,52.4923
380,Bognor Regis,0.8100884,0.4532564558967555,-0.673061,50.783
381,Scunthorpe,0.8100884,0.7317539926518442,-0.654413,53.58865
382,Grantham,0.8100884,0.5393232060799881,-0.643582,52.912519999999994
383,Whitby,0.8100884,0.7284911905285346,-0.613347,54.48634000000001
384,Slough,0.8100884,0.2966401359607497,-0.5950406,51.51054
385,Guildford,0.8100884,0.3921686554315451,-0.570409,51.23622
386,Woking,0.8100884,0.3546712435809686,-0.5600349,51.31677
387,Lincoln,0.8100884,0.7134987437164781,-0.540579,53.23069
388,Bedford,0.8100884,0.4747334332344982,-0.46677820000000003,52.13864
389,Heathrow,0.8100884,0.2464430662677353,-0.4542955,51.47002
390,Driffield,0.8100884,0.676070820521643,-0.443377,54.006
391,Beverley,0.8100884,0.6910470398472327,-0.435093,53.84196
392,Luton,0.8100884,0.4312939333104173,-0.4200255,51.87867
393,Scarborough,0.8100884,0.7491646716172845,-0.399752,54.28311
394,Worthing,0.8100884,0.374629166583902,-0.372882,50.81787
395,Dorking,0.8100884,0.3776099740461218,-0.332378,51.2322
396,Hull,0.8100884,0.6673309387129583,-0.3274198,53.767619999999994
397,Horsham,0.8100884,0.3115066682512594,-0.325858,51.06288
398,Biggleswade,0.8100884,0.3649328730832124,-0.26421999999999995,52.08694000000001
399,Peterborough,0.8100884,0.629796493179574,-0.2405299,52.5695
400,Welwyn Garden City,0.8100884,0.4743097679031765,-0.208661,51.80317
401,Bridlington,0.8100884,0.6805958652229815,-0.198802,54.08535
402,Stevenage,0.8100884,0.4997190490154259,-0.19661199999999998,51.90376
403,Crawley,0.8100884,0.3784006768410538,-0.18722750000000002,51.109140000000004
404,Huntingdon,0.8100884,0.41548021408162017,-0.182552,52.33146
405,Hove,0.8100884,0.3486486240808493,-0.168749,50.82793
406,Spalding,0.8100884,0.6404966688202315,-0.1537024,52.7901
407,Brighton,0.8100884,0.3604893698180198,-0.137163,50.82253
408,London,0.8887952947038481,0.11120481006939104,-0.12775830000000002,51.50735
409,Grimsby,0.8100884,0.781305800922408,-0.08078400000000001,53.56746999999999
410,Boston,0.8100884,0.6226077840087885,-0.026576999999999996,52.97894
411,Royston,0.8100884,0.33162949214364085,-0.024066,52.048140000000004
412,Louth_Lincs,0.8100884,0.7491977325959366,-0.007711,53.36596
413,Lewes,0.8100884,0.3418930069970094,0.00878,50.873870000000004
414,Chatteris,0.8100884,0.44314349979749307,0.054012,52.4561
415,Uckfield,0.8100884,0.3288024081320581,0.095913,50.966409999999996
416,Cambridge,0.8100884,0.3262410239611294,0.12181700000000001,52.20534
417,Bishop's Stortford,0.8100884,0.4923624762605676,0.15365020000000001,51.87216
418,Wisbech,0.8100884,0.4901960058163082,0.158797,52.66631999999999
419,Sevenoaks,0.8100884,0.5805612892300328,0.190898,51.27241
420,Tunbridge Wells,0.8100884,0.4814354524792199,0.26369499999999996,51.13238
421,Eastbourne,0.8100884,0.3916971156484481,0.29047199999999995,50.768029999999996
422,Brentwood,0.8100884,0.7182300996980409,0.30717490000000003,51.62047000000001
423,Skegness,0.8100884,0.6886565492889702,0.337881,53.1464
424,Downham Market,0.8100884,0.4827915586096747,0.385472,52.606609999999996
425,King's Lynn,0.8100884,0.5897534533067544,0.4022963,52.75168000000001
426,Bexhill,0.8100884,0.3834465497906082,0.4662071,50.849909999999994
427,Chelmsford,0.8100884,0.7309682052366301,0.4685497,51.73559
428,Mildenhall,0.8100884,0.41005605889567576,0.5156095,52.34757000000001
429,Medway,0.8100884,0.7510151437462399,0.5417860999999999,51.404740000000004
430,Braintree,0.8100884,0.6944921823578942,0.5509269,51.88009
431,Gillingham,0.8100884,0.7428658481773873,0.551438,51.38632
432,Hastings,0.8100884,0.38429630447612656,0.573453,50.85426
433,Maldon,0.8100884,0.7335602263633362,0.6714479999999999,51.7318
434,Southend,0.8100884,0.7337404120636886,0.7077123000000001,51.54593
435,Bury St Edmunds,0.8100884,0.4112486781500261,0.7104931999999999,52.24292
436,Thetford,0.8100884,0.4502286493243542,0.751657,52.412859999999995
437,Ashford,0.8100884,0.5490949136256682,0.8750190000000001,51.14647
438,Faversham,0.8100884,0.6986611650325274,0.889358,51.31599
439,Colchester,0.8100884,0.678867402245386,0.891874,51.89593
440,New Romney,0.8100884,0.5347636190526851,0.939473,50.98512
441,Canterbury,0.8100884,0.7047767727434788,1.0789089,51.280229999999996
442,Ipswich,0.8100884,0.5487379089234005,1.14822,52.05674000000001
443,Clacton,0.8100884,0.6838859376036313,1.153035,51.78953
444,Folkestone,0.8100884,0.5527922891832356,1.169456,51.0814
445,Sheringham,0.8100884,0.5311601743815122,1.2109589,52.944419999999994
446,Harwich,0.8100884,0.5810860901824044,1.260297,51.93473
447,Norwich,0.8100884,0.5360321236898072,1.297355,52.63089
448,Cromer,0.8100884,0.5436378994629779,1.301866,52.93145
449,Dover,0.8100884,0.6796237647162597,1.3134027,51.12788
450,Felixstowe,0.8100884,0.5680575732366328,1.3512549999999999,51.961729999999996
451,Margate,0.8100884,0.6897252067068672,1.3868339,51.38965
452,Ramsgate,0.8100884,0.6905625046081686,1.4198950000000001,51.33555
453,Great Yarmouth,0.8100884,0.5347599156844044,1.728047,52.59823000000001
454,Lowestoft,0.8100884,0.5176024797754009,1.7534490000000005,52.48114
455,Swaffham,0.8100884,0.5211455932105813,0.687481,52.64747
456,Dereham,0.8100884,0.5191825386858901,0.9378270000000001,52.681619999999995
457,Ely,0.8100884,0.4438562298566224,0.262363,52.39954
458,March,0.8100884,0.471135846618606,0.088622,52.551719999999996
459,St Neots,0.8100884,0.3385097444036213,-0.26510300000000003,52.23008
460,Banham,0.8100884,0.5241234379781764,1.0402849,52.45125
461,Holt,0.8100884,0.5354764164457833,1.086747,52.90936
462,Hunstanton,0.8100884,0.6099665047172496,0.49103199999999997,52.93891
463,Horncastle,0.8100884,0.7984858610449087,-0.11245,53.20731
464,Market Weighton,0.8100884,0.6792266289686221,-0.6677465,53.86484
465,Hawes,0.8100884,0.5982446707688764,-2.1968695,54.30383000000001
466,Reeth,0.8100884,0.7343927435528567,-1.9428115000000001,54.38946
467,Aysgarth,0.8100884,0.6129397034410015,-1.9967433999999997,54.29159
468,Stanhope,0.8100884,0.6950091725698918,-2.011302,54.74946
469,Keswick,0.8100884,0.8212795541413926,-3.134706,54.60128
470,Oxenholme,0.8100884,0.7456330722907589,-2.7243327999999996,54.30134
