index,placename,longitude,latitude,want,wanting
0,Dingle,-10.264013499999999,52.14094,0.0884974233066246,0.01
1,Tralee,-9.6999325,52.27131,0.15657374984069317,0.010906536842919158
2,Killarney,-9.5044265,52.059940000000005,0.26549132680890264,0.018287310114957666
3,Bantry,-9.4539805,51.68035,0.09686003770641848,0.01
4,Mayo,-9.4289369,54.01526,0.147021715870708,0.01
5,Ballycastle,-9.3724643,54.279669999999996,0.01,0.01
6,Abbeyfeale,-9.2970823,52.386179999999996,0.01,0.01
7,Ennistymon,-9.2934951,52.940369999999994,0.01,0.01
8,Galway,-9.0567905,53.270669999999996,0.37112049059839686,0.025610285625657384
9,Claremorris,-9.0017356,53.72388,0.23921083522790082,0.01767929409585652
10,Clare,-8.9811351,52.90453,0.2337140433293896,0.01
11,Adare,-8.7925892,52.56363,0.07909952576405858,0.01
12,Charleville,-8.681017599999999,52.36206,0.01,0.01
13,Mallow,-8.6539164,52.13898,0.12765543595057263,0.010236306157884028
14,Limerick,-8.6267343,52.66384,0.34594056651946886,0.01884024673878698
15,Loughrea,-8.5660931,53.19891,0.01,0.01
16,Sligo,-8.476088800000001,54.27661,0.25160331291975063,0.022496232607163845
17,Cork,-8.4756035,51.898509999999995,0.44805487997512167,0.04930217416776799
18,Nenagh,-8.19834,52.8635,0.17645356582896174,0.011166746339524072
19,Roscommon,-8.1890955,53.627590000000005,0.18730908446063504,0.016014398151778644
20,Tipperary,-8.161851400000002,52.47379,0.24508844515555964,0.01852078028194371
21,Donegal,-8.1096143,54.653830000000006,0.2770371614194608,0.05275786129318927
22,Leitrim,-8.0020132,54.12469,0.15916965331039717,0.025636185088070182
23,Athlone,-7.9406898,53.423930000000006,0.16735987068179675,0.015319139191666175
24,Longford,-7.7932573000000005,53.727630000000005,0.18131989599413553,0.0205817125234353
25,Offaly,-7.7122229,53.235690000000005,0.23620518881963237,0.020409179821146456
26,Fermanagh,-7.6318728,54.343830000000004,0.12298013528240391,0.02172664312579872
27,Enniskillen,-7.631533599999999,54.343819999999994,0.16867089853605002,0.027042947916077562
28,Doon,-7.60964,54.185930000000006,0.0820648554196617,0.015646930574756114
29,Westmeath,-7.4653217000000005,53.534530000000004,0.16965996796172805,0.01548426762019929
30,Strabane,-7.4633103,54.82739,0.17797996714835895,0.043772905463913346
31,Balivanich,-7.3743509000000005,57.472269999999995,0.012160190630880807,0.06123393638198099
32,Cavan,-7.3633319,53.98972,0.20536220375333433,0.0336782161200325
33,Mullingar,-7.340186800000001,53.525819999999996,0.1650037078263333,0.0118044955869515
34,Laois,-7.332300699999999,52.9943,0.2279267558803256,0.016323928481087945
35,Omagh,-7.309959700000001,54.59771,0.19195139029188155,0.03662002022187983
36,Derry,-7.308574799999999,54.99661,0.3135861453453291,0.0625790317424435
37,Derry,-7.308574799999999,54.99661,0.3135861453453291,0.0625790317424435
38,Kilkenny,-7.2447879,52.65415,0.267401047667952,0.03333017686711265
39,Tyrone,-7.131232000000001,54.491209999999995,0.12935746896987335,0.01895568778093108
40,Waterford,-7.110070200000001,52.25932,0.30322687117522396,0.03535069355479563
41,Western Isles,-7.0194034,57.759890000000006,0.10935118251455925,0.1253757080859762
42,Monaghan,-6.9683132,54.2492,0.19638164614793505,0.0343042017001967
43,Carlow,-6.934135899999999,52.83651,0.24038595351235992,0.022742200270271937
44,Kildare,-6.8194707999999995,53.21204,0.3090151728253758,0.03479889688466809
45,Dungannon,-6.7669352,54.508269999999996,0.13450513401284708,0.038916414994087094
46,Cookstown,-6.7443895000000005,54.641819999999996,0.17502659334750817,0.07624121623285231
47,Coleraine,-6.6646103000000005,55.132580000000004,0.26627976429898714,0.12365289818281877
48,Meath,-6.656416900000001,53.60555,0.2670747575856573,0.02883654527773254
49,Armagh,-6.652792,54.350280000000005,0.19487746448917576,0.03305488594121359
50,Armagh,-6.652792,54.350280000000005,0.19487746448917576,0.03305488594121359
51,Magherafelt,-6.607980499999999,54.75536999999999,0.1904300943354939,0.09038700972427834
52,Dunvegan,-6.581398200000001,57.4366,0.01,0.05292114806574727
53,Louth,-6.4889423,53.925230000000006,0.26959035622429484,0.019741036441956444
54,Wexford,-6.4633381,52.33692,0.2849677957421921,0.02754266731503751
55,Craigavon,-6.4175653,54.442930000000004,0.22824690232364397,0.08975146852446346
56,Stornoway,-6.384869200000001,58.209430000000005,0.17000132263794968,0.1548530503460998
57,Drogheda,-6.3560985,53.717859999999995,0.19257980100348737,0.02261291942211879
58,Rosslare,-6.3414908,52.25131,0.01,0.01
59,Newry,-6.34023,54.1751,0.22864005615003208,0.019731382234118997
60,Scilly Isles,-6.327496599999999,49.92773,0.11542922678617175,0.05103685208967305
61,Ballymena,-6.2802213,54.86529,0.2188959917902958,0.10565658752772082
62,Banbridge,-6.2704803,54.34873,0.1823393549279589,0.07670383401721018
63,Dublin,-6.2603097000000005,53.34981,0.6372575010457812,0.07220187526857899
64,Antrim,-6.2072498,54.719530000000006,0.2424026448672347,0.1302025030174983
65,Antrim,-6.2072498,54.719530000000006,0.2424026448672347,0.1302025030174983
66,Portree,-6.1960231,57.41246999999999,0.164782283557877,0.16611435655960147
67,Islay,-6.177067,55.73625,0.11752485027428544,0.198622529817652
68,Wicklow,-6.044589,52.980819999999994,0.2675158608843709,0.03105374937196796
69,Kilkeel,-6.007004,54.06312,0.11159196947601611,0.051990719529140195
70,Mull,-6.0008870000000005,56.4392,0.11863977735419878,0.2563764410141325
71,Belfast,-5.93012,54.597280000000005,0.5065807493474237,0.2782574060231143
72,Broadford,-5.9096592,57.24139,0.01,0.05381320101331089
73,Down,-5.7156921999999994,54.32875,0.2459409043437804,0.14378790173198547
74,Kyle of Lochalsh,-5.7143293,57.28261,0.01,0.05147723335511627
75,Campbeltown,-5.605373999999999,55.424119999999995,0.13025533504811418,0.2396482344974503
76,Penzance,-5.537592,50.1188,0.23938749814573904,0.0850255198082592
77,Oban,-5.471047,56.41516,0.1839907832526099,0.40628982626019955
78,Lochgilphead,-5.4323449,56.03829,0.0900170485608245,0.25970031875063704
79,Helston,-5.274996,50.10159,0.16141330062282966,0.06391381253369127
80,Redruth,-5.226666000000001,50.23302,0.18973446177899547,0.07170538569616867
81,Ullapool,-5.161313,57.895419999999994,0.11000362133879706,0.11105203692437517
82,Ballachulish,-5.133719999999999,56.673930000000006,0.01,0.0817074553865935
83,Fort William,-5.1052179,56.81981999999999,0.17754701902836625,0.1490504517629199
84,Achnasheen,-5.078765799999999,57.578590000000005,0.01,0.047980592773622203
85,Newquay,-5.0737190000000005,50.4155,0.23080191513040546,0.08186216056666862
86,Falmouth,-5.066269999999999,50.152570000000004,0.2550249563090824,0.08928408621186104
87,Rothesay,-5.055793,55.83596,0.1695826893202861,0.3499948334121031
88,Truro,-5.051041000000001,50.2632,0.3830620567936257,0.12454690103770374
89,Milford Haven,-5.0426971,51.71431,0.1497911303230269,0.02754925201763938
90,Stranraer,-5.024055000000001,54.903369999999995,0.1562087971499932,0.15647864503551132
91,Fishguard,-4.975989,51.99393,0.10427050187108486,0.02958999016756851
92,Inchnadamph,-4.974295,58.15221,0.01,0.0542527434609435
93,Haverfordwest,-4.971319,51.800470000000004,0.17239517004555122,0.03092059771596228
94,Dunoon,-4.926214,55.95097,0.14827583881601353,0.3506488310421069
95,Pembroke,-4.908637000000001,51.674040000000005,0.23990140921413142,0.03938493967500987
96,Girvan,-4.8542179,55.240159999999996,0.1420234278913503,0.30310756958750706
97,Wadebridge,-4.836456,50.51665,0.1802706486658978,0.06807972980034879
98,Invergarry,-4.800261,57.07095,0.01,0.04799800540606569
99,St Austell,-4.7834252,50.340379999999996,0.20131338143985503,0.07459951378316451
100,Greenock,-4.7719830000000005,55.956480000000006,0.2724451894526241,0.34086948000596673
101,Helensburgh,-4.734014,56.00232,0.1611103696255615,0.3687862924743581
102,Bodmin,-4.7188629,50.4715,0.16238867391678155,0.06422123727360339
103,Tenby,-4.703579,51.672740000000005,0.1724037740171989,0.03004862477657529
104,Camelford,-4.682364,50.62206,0.10582101359367432,0.04695419517097504
105,Irvine,-4.6696364,55.61156999999999,0.2963557129920794,0.48252408038346517
106,Cardigan,-4.660864,52.0837,0.1363989204836282,0.036876162688706665
107,Holyhead,-4.633038,53.30944,0.15268592043708612,0.1367207847363958
108,Ayr,-4.629179,55.45856,0.3246126804275481,0.5055902729559894
109,Dumbarton,-4.564554,55.94529,0.2535784039684608,0.32722159280262414
110,Bude,-4.543678,50.826640000000005,0.17320584397626748,0.048941131624668836
111,Isle of Man,-4.5126330999999995,54.27697,0.3042425588842312,0.3689214426855601
112,Kilmarnock,-4.498792,55.61472,0.27805540641903287,0.43948434906157924
113,Newton Stewart,-4.483164,54.9603,0.11440419922243991,0.24761115152534321
114,Liskeard,-4.4647190000000005,50.45552,0.17925192868700818,0.06694379940470735
115,Altnaharra,-4.442655,58.28023,0.01,0.05619591634917464
116,Pwllheli,-4.417633900000001,52.888819999999996,0.13584912486997722,0.09268002216631878
117,Lairg,-4.402414,58.022059999999996,0.01,0.05439625972928271
118,Launceston,-4.360451599999999,50.636829999999996,0.16054604335106515,0.050996796086884746
119,Carmarthen,-4.312131,51.857620000000004,0.2307887770364908,0.03940350629491265
120,Llangefni,-4.311401999999999,53.255790000000005,0.21419186597019121,0.1736314613296996
121,Caernarfon,-4.273911,53.13955,0.19928734179105934,0.14884226137176068
122,Cumnock,-4.265828900000001,55.45355,0.204052783704459,0.3396985989589915
123,Aberaeron,-4.2581619,52.24279,0.12246571911188345,0.03341687777676716
124,Alness,-4.256825,57.69595,0.16719391970716171,0.17695305067476302
125,Glasgow,-4.251806,55.86424,0.6260318869621285,0.6125640496096048
126,Dalwhinnie,-4.242783,56.9366,0.01,0.0613450599912891
127,Inverness,-4.224721,57.47776999999999,0.31770085542998916,0.2642115388862298
128,Saltash,-4.21643,50.409209999999995,0.1637070668373689,0.047498424157682184
129,Bideford,-4.206666,51.01668,0.19353721881438982,0.03613867898169279
130,Invergordon,-4.1728819999999995,57.688109999999995,0.17010091910037975,0.17898429070007663
131,Llanelli,-4.160248,51.680890000000005,0.2684688214569086,0.046091453122756275
132,Plymouth,-4.1426565,50.37546,0.40934115133420973,0.0962014564367013
133,Tavistock,-4.141654,50.551120000000004,0.19343758516339565,0.058443939740645
134,Porthmadog,-4.1333839999999995,52.92784,0.17621644466077116,0.11403139252025907
135,Bangor,-4.129263,53.22739,0.28401714045911947,0.21606022355213306
136,Tywyn,-4.087249,52.58701,0.08894561575405054,0.046066318091059516
137,Aberystwyth,-4.08292,52.4153,0.2552674853846687,0.07005318304037761
138,Lampeter,-4.0785089999999995,52.1129,0.13847826112285586,0.03968253007527773
139,Barnstaple,-4.058338,51.07816,0.2586433856620924,0.044544226783069886
140,Tain,-4.05523,57.8115,0.10611660791462985,0.12994535755968262
141,Okehampton,-4.004263,50.73831,0.13446622287673812,0.0428637926093849
142,Llandeilo,-3.9914300000000003,51.88469,0.19089762268777316,0.042935108249159804
143,Motherwell,-3.9810968,55.78321,0.3626166366539177,0.404863177026283
144,Golspie,-3.976086,57.97341,0.01,0.05446580659299998
145,Airdrie,-3.9625660000000003,55.86626999999999,0.3067585046204909,0.4500168782176105
146,Swansea,-3.9436459999999998,51.62144,0.42801976786928636,0.08606725368237907
147,Stirling,-3.9369029,56.116519999999994,0.3341261283676673,0.4981033831697136
148,Tregaron,-3.934385,52.22,0.13441727292491856,0.04783306384217646
149,Tregaron,-3.934385,52.22,0.13441727292491856,0.04783306384217646
150,Castle Douglas,-3.9314139999999997,54.940419999999996,0.13428918304676019,0.28207662886620627
151,Dolgellau,-3.8844,52.74215,0.09715623303866,0.047836008098418085
152,Aberfeldy,-3.866969,56.62175,0.16684296429274298,0.19465876779156008
153,Machynlleth,-3.853485,52.59027,0.12802890667454425,0.04566818296110844
154,Brora,-3.8525480000000005,58.012159999999994,0.08394299547965883,0.11337062397667556
155,Llandudno,-3.827609,53.324059999999996,0.2369479722637284,0.12108435409364422
156,Llandudno,-3.827609,53.324059999999996,0.2369479722637284,0.12108435409364422
157,Aviemore,-3.823812,57.19449,0.14684275047400355,0.12710281737913462
158,Dalbeattie,-3.8225269999999996,54.934219999999996,0.09047197920393964,0.21352607684850244
159,Falkirk,-3.7839131,56.00188000000001,0.33474865719553076,0.5102327879059579
160,Kingsbridge,-3.777493,50.28395,0.17203581819535468,0.05052443820333937
161,Pitlochry,-3.729711,56.70436,0.1112161939321662,0.19018587246064328
162,Colwyn Bay,-3.72764,53.29318000000001,0.21603024386446174,0.14649938137287533
163,Totnes,-3.685797,50.43374,0.18014458743376183,0.051176880314737744
164,Grantown-on-Spey,-3.609628,57.33041,0.09495250506930575,0.13094791601197991
165,Dumfries,-3.60512,55.070859999999996,0.2499129329547091,0.4394437105230911
166,Whitehaven,-3.589233,54.5497,0.21295989350464622,0.3344048453321952
167,Dartmouth,-3.578807,50.35252,0.14377998952347787,0.04377732917402859
168,Bridgend,-3.576945,51.504290000000005,0.3236003966496957,0.060751251771973644
169,Paignton,-3.564235,50.43508,0.26918999334003363,0.06953769276397476
170,Workington,-3.5427519999999997,54.64357,0.20987823133301522,0.3286144570851221
171,Llanidloes,-3.5401949999999998,52.447790000000005,0.11015088892190722,0.04420730157462242
172,Exeter,-3.533899,50.71841,0.4440642512333888,0.05890603959261027
173,Torquay,-3.525315,50.46192,0.2763170879724651,0.07113212235353934
174,Thurso,-3.5220800000000003,58.59356999999999,0.15340498749107911,0.1772129187790282
175,Livingston,-3.518068,55.90071,0.3295956697739017,0.4642104740079558
176,Rhyl,-3.4916339999999995,53.319140000000004,0.21274179247711486,0.12119200491662573
177,Tiverton,-3.491207,50.90205,0.1918924704217009,0.030099460091105174
178,Tiverton,-3.491207,50.90205,0.1918924704217009,0.030099460091105174
179,Minehead,-3.481152,51.20428,0.14546889017388145,0.03330299832886442
180,Dunfermline,-3.452151,56.071740000000005,0.3125080838963299,0.4353680537736976
181,Perth,-3.4308381000000003,56.39499,0.19888404756474387,0.3644436166452197
182,Prestatyn,-3.4076129999999996,53.33651,0.17868767141537548,0.10914642724444008
183,Builth Wells,-3.4045919999999996,52.15002,0.1593301914254141,0.01
184,Braemar,-3.3979439,57.00646999999999,0.01,0.07547491166305538
185,Brecon,-3.391463,51.94895,0.1917665974823687,0.042877090090504305
186,Merthyr Tydfil,-3.381646,51.74873,0.37064058446313924,0.07101872228488719
187,Llandrindod Wells,-3.377742,52.2417,0.13583579894311715,0.03137060473041549
188,Corwen,-3.369242,52.98005,0.09939708326661445,0.08901941096962043
189,Cockermouth,-3.367985,54.66326,0.15285502054577985,0.27782325677777936
190,Lockerbie,-3.349008,55.122240000000005,0.22020868301318042,0.3770727727936595
191,Blairgowrie,-3.3378318,56.58941,0.15163869294573987,0.265883124183019
192,Elgin,-3.318485,57.64945,0.28390621024362805,0.2577898538705286
193,Newtown,-3.313106,52.51211,0.11849527277737323,0.056478391003083335
194,Ruthin,-3.3103108,53.114869999999996,0.17325949866490709,0.1259011359159237
195,Ruthin,-3.3103108,53.114869999999996,0.17325949866490709,0.1259011359159237
196,Sidmouth,-3.2375599999999998,50.67865,0.17439984903250938,0.026512805183545672
197,Barrow-in-Furness,-3.2188939999999997,54.10896999999999,0.26670365468446294,0.23450256637162786
198,Peebles,-3.1936419999999996,55.65306999999999,0.16588652702739187,0.25574616846108955
199,Edinburgh,-3.1882669999999997,55.95325,0.5745334328426644,0.6946251781843822
200,Cardiff,-3.17909,51.48158,0.5434327248090316,0.09799871419237051
201,Llangollen,-3.1716599999999997,52.96921,0.12992285383575464,0.10240866804752956
202,Kirkcaldy,-3.158137,56.11682,0.34904766148954314,0.4814210879246083
203,Welshpool,-3.146407,52.66035,0.1724735070199319,0.09001377584536994
204,Mold,-3.1419029999999997,53.1672,0.25899681416438464,0.14254249198061641
205,Mold,-3.1419029999999997,53.1672,0.25899681416438464,0.14254249198061641
206,Taunton,-3.106849,51.01534,0.29022242928877023,0.06224292153684706
207,Wick,-3.093716,58.43894,0.14385959154134442,0.17013342172378862
208,John o' Groats,-3.0688997000000002,58.63734,0.01,0.059855112653899346
209,Dalkeith,-3.066606,55.893119999999996,0.28492939198282285,0.37193810815117073
210,Oswestry,-3.056412,52.85715,0.2246709757341518,0.13834715175628656
211,Blackpool,-3.0356748,53.81751,0.38887087876844234,0.2278880669050057
212,Birkenhead,-3.023009,53.389990000000004,0.3802035542024721,0.15981343558130234
213,Cupar,-3.010137,56.32023,0.1575212565243972,0.2760371821680777
214,Southport,-3.010113,53.64571,0.31679053174306165,0.11618315898114973
215,Bridgwater,-3.003632,51.12789,0.3431365435625924,0.08084471528987199
216,Langholm,-2.998913,55.153059999999996,0.09373024213562847,0.18302925570534703
217,Newport,-2.997664,51.58415,0.37703366573821573,0.06589758294430291
218,Axminster,-2.9949369999999997,50.78273,0.18814711513974652,0.03747526663400037
219,Wrexham,-2.9924939999999998,53.043040000000005,0.3126491376774394,0.18886578104018167
220,Liverpool,-2.9915726,53.40837,0.5982359890548868,0.2365195825295185
221,Weston-super-Mare,-2.977255,51.347409999999996,0.30488874080595263,0.07039655429088004
222,Dundee,-2.9707209999999997,56.462019999999995,0.38350490356064193,0.5974076185872867
223,Kirkwall,-2.9622491,58.984669999999994,0.1536151529326335,0.17831686822542972
224,Ambleside,-2.961333,54.428740000000005,0.2338922894987595,0.3233423068305036
225,Orkney Islands,-2.9605206,58.980940000000004,0.15904939370887342,0.18251491041213871
226,Lyme Regis,-2.936639,50.725159999999995,0.16704799655833444,0.04697575007018117
227,Carlisle,-2.932931,54.892469999999996,0.36147981026904874,0.5047371332244335
228,Chester,-2.893075,53.19339,0.39028447370201047,0.22680260160677979
229,Forfar,-2.889062,56.64356,0.19866267643578317,0.365309587466501
230,Morecambe,-2.864968,54.074169999999995,0.22343097227172085,0.20924196375451412
231,Selkirk,-2.838524,55.55066,0.2061232081413645,0.28880663783118254
232,Galashiels,-2.814449,55.62373,0.19330198494123166,0.2880872822463945
233,Lancaster,-2.8007399,54.046569999999996,0.31630999054527253,0.2330733642676186
234,St Andrews,-2.7967214,56.339780000000005,0.22813460752389506,0.39614623496212137
235,Hawick,-2.780914,55.42706,0.16869581048118776,0.3045038607595981
236,Bridport,-2.758301,50.733579999999996,0.1757118648385587,0.05466273371295651
237,Shrewsbury,-2.7553267999999997,52.7073,0.36978239067281926,0.15647405512064066
238,Penrith,-2.752708,54.6641,0.3124117644058654,0.500301702312033
239,Kendal,-2.74629,54.32801,0.2744946699120155,0.33595634347354075
240,Street,-2.7429189999999997,51.12468,0.13648759744733963,0.058938098821766545
241,Glastonbury,-2.718454,51.14743,0.16975623743522167,0.0584208135879422
242,Hereford,-2.715974,52.0564,0.31306945885117654,0.1093432686266382
243,Ludlow,-2.7139129,52.36775,0.2079180926375791,0.06713837889633327
244,Preston,-2.70309,53.7632,0.44525040792036913,0.21052544360029254
245,Whitchurch,-2.682045,52.96872,0.1678372753103279,0.11165492006439794
246,Wells,-2.6445979,51.20935,0.19997385658959527,0.06810273591746678
247,Yeovil,-2.633308,50.94206,0.2649789194394946,0.10864571557793103
248,Wigan,-2.6325074,53.54506,0.471882613131381,0.2458098463019374
249,Warrington,-2.5969501,53.39004,0.48972429211160884,0.25368243291787435
250,Arbroath,-2.591543,56.55911,0.21993215708434202,0.38903506216363076
251,Bristol,-2.58791,51.45451,0.5693251537443462,0.16706169833380502
252,Guernsey,-2.5852779999999997,49.46569,0.01,0.025573730508723407
253,Ross-on-Wye,-2.582446,51.91445,0.24044546568251982,0.07493716154327609
254,Jedburgh,-2.5549369,55.47772,0.12746896057290613,0.21063800769735658
255,Sedbergh,-2.5281740000000004,54.32363,0.13583355325484062,0.21747727602371797
256,Sedbergh,-2.5281740000000004,54.32363,0.13583355325484062,0.21747727602371797
257,Nantwich,-2.524102,53.067190000000004,0.22470145442063488,0.12742447775215793
258,Banff,-2.524038,57.666509999999995,0.14430258983502292,0.23048734375650412
259,Dunbar,-2.516737,56.00209,0.2440120772707963,0.3455329844455921
260,Cinderford,-2.5009579,51.8253,0.22057268367632346,0.05329098583489899
261,Banchory,-2.4909599,57.05386,0.1785202274918757,0.30474676609274376
262,Blackburn,-2.487529,53.748580000000004,0.35596602023622964,0.1783280526632679
263,Market Drayton,-2.483485,52.90355,0.13648951864202083,0.0896336136017504
264,Telford,-2.4672611,52.67759,0.32206691387650743,0.14423708238641875
265,Montrose,-2.4661150000000003,56.70692,0.19594875552232702,0.30864509046675526
266,Turriff,-2.4623,57.53893000000001,0.15373972881631975,0.2545890140222641
267,Weymouth,-2.457621,50.61443,0.24879684927563497,0.1242881080757634
268,Crewe,-2.4438209,53.10041,0.3014525707205545,0.15188955344392455
269,Fortuneswell,-2.4422189999999997,50.55919,0.11964530941623233,0.06957684130614296
270,Dorchester,-2.4411810000000003,50.71116,0.32347601460270825,0.15522805852332122
271,Alston,-2.438685,54.812169999999995,0.08810083490152007,0.21468898840490427
272,Kelso,-2.432207,55.600030000000004,0.16048794724623475,0.2768156654450055
273,Wincanton,-2.416007,51.055690000000006,0.14928298931489006,0.07912707998012612
274,Clitheroe,-2.3930830000000003,53.8711,0.23188596224128027,0.12322450140818882
275,Sark,-2.3666256000000003,49.43007,0.01,0.026788961163471247
276,Bath,-2.3590167,51.38106,0.3971504952546442,0.12642838817090352
277,Kidderminster,-2.2496839,52.3886,0.26216994939385435,0.07222381225014347
278,Manchester,-2.2426305,53.48076,0.7221824022228218,0.32403209591468235
279,Burnley,-2.2405035,53.78929,0.32636638372184773,0.14827284760488804
280,Gloucester,-2.238156,51.86424,0.3971884519483154,0.150011328498514
281,Newcastle-under-Lyme,-2.2273002,53.01321,0.2667057340068927,0.1320058768815162
282,Worcester,-2.221575,52.19364,0.40178331966380687,0.168443746061437
283,Trowbridge,-2.208853,51.31966,0.3812177124444458,0.15889471786518725
284,Shaftesbury,-2.198083,51.0046,0.17097167988524528,0.10765342586411991
285,Alderney,-2.1973557,49.715,0.01,0.02633234646721895
286,Stoke-on-Trent,-2.179404,53.002669999999995,0.3921563118343167,0.17889549652190057
287,Colne,-2.176991,53.85564,0.21945020753109337,0.15886758977535048
288,Blandford Forum,-2.165353,50.85691,0.14417657860788985,0.08456522336669935
289,Rochdale,-2.1561,53.60971,0.3960626007256035,0.19623533665045947
290,Jersey,-2.13125,49.21444,0.01,0.029091376935112483
291,Wolverhampton,-2.12882,52.586969999999994,0.3666513798677031,0.08626092351437914
292,Stafford,-2.12066,52.80669,0.36617799707554555,0.1462608373310087
293,Macclesfield,-2.119287,53.25866,0.340574747529832,0.17406637778918974
294,Hexham,-2.1121439,54.97266,0.28947086968061675,0.27531170430971835
295,Aberdeen,-2.094278,57.149719999999995,0.42455153621379815,0.5843573706007916
296,Dudley,-2.081112,52.51226,0.3514341136994325,0.08130474549028856
297,Cheltenham,-2.0782533,51.899390000000004,0.3734250651127522,0.1444319000063158
298,Bromsgrove,-2.061906,52.33559,0.2976034544671775,0.06554224057044221
299,Skipton,-2.0162787,53.96285,0.21708002448844788,0.3743182090375077
300,Fraserburgh,-2.007631,57.69335,0.16289927231206122,0.2633551295804838
301,Berwick,-2.005395,55.77024,0.18974045935330974,0.28596196015074876
302,Poole,-1.987248,50.71505,0.3200440317395331,0.15636064248672246
303,Walsall,-1.9829189999999999,52.586209999999994,0.35739644370548473,0.0759937923348636
304,Cirencester,-1.968243,51.71849,0.34210147160172155,0.10496309740355919
305,Evesham,-1.9467700000000001,52.09215,0.23241149350066262,0.09839497387715113
306,Buxton,-1.91483,53.259080000000004,0.2721794694466767,0.16005407746342246
307,Keighley,-1.9123580000000002,53.8678,0.27587513286055515,0.5205370603179187
308,Birmingham,-1.8904009999999998,52.48624,0.6409188465366134,0.14931759377361523
309,Bournemouth,-1.880769,50.719159999999995,0.3982265889611725,0.1834754366550814
310,Halifax,-1.8575400000000002,53.727019999999996,0.27129924028976765,0.5126446181092348
311,Salisbury,-1.794472,51.06878,0.2958209566846662,0.14544654054833397
312,Ringwood,-1.7888169999999999,50.84495,0.24771869147676384,0.11724140575739672
313,Huddersfield,-1.7850351000000002,53.645790000000005,0.3864590523628069,0.6972563367429375
314,Peterhead,-1.784066,57.50812,0.20361480177250674,0.3133705752141775
315,Swindon,-1.7797176,51.55577,0.3624925772349647,0.16314076285811382
316,Bradford,-1.759398,53.79598000000001,0.4217167638792019,0.6900200766013935
317,Ashbourne,-1.7321790000000001,53.016630000000006,0.32953959347184986,0.17460362834387896
318,Marlborough,-1.7270619999999999,51.42007,0.2173648482552299,0.09819037589628617
319,Stratford-upon-Avon,-1.7082979999999999,52.19173,0.2866250007620053,0.07266400119340972
320,Alnwick,-1.7062990000000002,55.41274,0.1885480417863733,0.15350329817410513
321,Otley,-1.691786,53.90583,0.20676481817357795,0.3795474927311536
322,Bishop Auckland,-1.6787880000000002,54.663819999999994,0.23840151108651308,0.32099368262204314
323,Burton upon Trent,-1.6371358999999999,52.81403,0.3125328503574368,0.14959706497270162
324,Newcastle,-1.61778,54.97825,0.5497221934876765,0.3957705458760238
325,Durham,-1.5848520000000001,54.77525,0.3677422692164275,0.4211993567388038
326,Ashington,-1.5659829,55.18298000000001,0.22194976207808562,0.17618584138800306
327,Darlington,-1.559458,54.52361,0.29792277748372514,0.4301290682073553
328,Leeds,-1.5490774,53.80076,0.5606613917612198,0.9278387244354291
329,Harrogate,-1.5418120000000002,53.99211999999999,0.3734476049977671,0.5572235858948769
330,Leamington Spa,-1.5200789,52.28519,0.3698218870277215,0.04627971165085386
331,Coventry,-1.519693,52.40682,0.42600916494894414,0.06758972948743883
332,Blyth,-1.510277,55.12696,0.23536768770140107,0.18715593717613047
333,Wakefield,-1.505924,53.6833,0.34981351342428174,0.677025021493386
334,Andover,-1.4919233,51.2112,0.25735623086331116,0.12314149770274832
335,Witney,-1.4850543999999999,51.785940000000004,0.2605288068361055,0.09367373305213547
336,Barnsley,-1.479726,53.55263000000001,0.34192234563170526,0.7360813314251349
337,Derby,-1.4746186000000001,52.92253,0.4142237075595737,0.22378627260362793
338,Sheffield,-1.470085,53.381130000000006,0.5296537331032712,0.9471188889201434
339,Nuneaton,-1.465382,52.52049,0.3519766100256196,0.06152772430364724
340,Northallerton,-1.429959,54.337959999999995,0.1940098911539856,0.3217244244035991
341,South Shields,-1.427406,54.99941999999999,0.32764259799958695,0.2587639586164351
342,Chesterfield,-1.421629,53.23505,0.33578471652180497,0.5323348960427178
343,Southampton,-1.4043508999999998,50.9097,0.506415000970368,0.212547934244746
344,Wetherby,-1.384816,53.92706,0.1899948175931318,0.34670777856252183
345,Sunderland,-1.383801,54.90687,0.37023838308452856,0.3099189920799507
346,Rotherham,-1.3635008999999998,53.4326,0.34752035368034767,0.7174298062594126
347,Castleford,-1.345968,53.72346999999999,0.28787154506911894,0.5088433008745539
348,Thirsk,-1.341377,54.23385,0.17063613938371142,0.27650307409747515
349,Banbury,-1.339775,52.0629,0.26974203033362654,0.10458003342635068
350,Stockton,-1.3289821000000002,54.57046,0.30285229181811457,0.4248545338491472
351,Newbury,-1.3231138999999998,51.40141,0.3408710991945538,0.20201931040755358
352,Isle of Wight,-1.304734,50.69385,0.3185644992295617,0.15517323097322447
353,Isle of Wight,-1.304734,50.69385,0.3185644992295617,0.15517323097322447
354,Abingdon,-1.2879528999999998,51.67078,0.27912702088407537,0.10120681612616202
355,Shetland Islands,-1.2659409,60.52965,0.08348433981511953,0.15992379416709968
356,Rugby,-1.265032,52.37088,0.3257060266090126,0.032811417450108134
357,Oxford,-1.2577263,51.75202,0.4798765178412789,0.1569416851372266
358,Middlesbrough,-1.234956,54.57423000000001,0.37679299826837154,0.5105015985042726
359,Hartlepool,-1.212926,54.69174,0.2865518885754052,0.39483134762950484
360,Loughborough,-1.206166,52.7721,0.3676561049896786,0.16733521898026077
361,Mansfield,-1.198674,53.1472,0.3067390744881263,0.38147855234721184
362,Nottingham,-1.1581086,52.95478000000001,0.5329316343058854,0.2959574249690309
363,Bicester,-1.1535898999999998,51.8996,0.2188509738462741,0.07622632733109154
364,Leicester,-1.1397591999999999,52.636880000000005,0.46471543726593684,0.20546560793137625
365,Doncaster,-1.128462,53.522819999999996,0.3602776894459508,1.0
366,Worksop,-1.122745,53.3093,0.24027179086754064,0.48899930326202534
367,Basingstoke,-1.0923964,51.26654,0.3139834685589414,0.11268634064834272
368,Portsmouth,-1.0879769,50.81977,0.4430682593828045,0.20962775335086178
369,York,-1.0872979,53.95997,0.431852492661336,0.6547538417626687
370,Selby,-1.067189,53.783519999999996,0.2194725658336073,0.4033717810285768
371,Helmsley,-1.0562636,54.24651,0.0839446080189862,0.2050504944011506
372,Towcester,-0.9896879999999999,52.13511,0.2296582595088784,0.09538134676508724
373,Reading,-0.9781303,51.45426,0.4291126620333494,0.06776154352709647
374,Retford,-0.9455030000000001,53.32136,0.18454140308737138,0.3902304343275774
375,Petersfield,-0.93899,51.00759,0.21062036307308793,0.0934857947694374
376,Northampton,-0.9026559999999999,52.24048,0.41578970539607246,0.16594114425165493
377,Melton Mowbray,-0.887126,52.7664,0.224762197776601,0.1369071151005711
378,Aylesbury,-0.8084,51.81561,0.3505690647854457,0.07841624096782454
379,Newark-on-Trent,-0.80657,53.070040000000006,0.3114313648847203,0.198616396223102
380,Malton,-0.7978970000000001,54.13684,0.18440498482290354,0.31078045450890435
381,Chichester,-0.774936,50.83761,0.2758271401909048,0.1545679399585499
382,Gainsborough,-0.774465,53.400580000000005,0.18021192024422578,0.2926362719780874
383,Milton Keynes,-0.7594171,52.040620000000004,0.4049281966427817,0.1502738514673624
384,Aldershot,-0.7557509,51.24837,0.3532057414397556,0.134601563916141
385,High Wycombe,-0.748229,51.628609999999995,0.3254006975741131,0.01070190067419932
386,Midhurst,-0.737274,50.9869,0.20343728830352248,0.11479624475595943
387,Kettering,-0.7302489999999999,52.39632,0.2906545234764479,0.1193676674486025
388,Wellingborough,-0.693964,52.30242,0.25698265557597916,0.09818325211924332
389,Corby,-0.6842333,52.4923,0.27678598212826816,0.1201137576288082
390,Bognor Regis,-0.673061,50.783,0.2597851468343707,0.13375743615676636
391,Scunthorpe,-0.654413,53.58865,0.28331127590868954,0.4202932173462136
392,Grantham,-0.643582,52.912519999999994,0.25481125392582915,0.14861161968577152
393,Whitby,-0.613347,54.48633,0.19902108514707503,0.3613098614923973
394,Slough,-0.5950406,51.51054,0.36645120813627696,0.06892677088732668
395,Guildford,-0.570409,51.23622,0.3472438216347446,0.1392499972237069
396,Woking,-0.5600349,51.31677,0.42246298827987777,0.1618480490796615
397,Lincoln,-0.540579,53.23069,0.38608026343025786,0.22968699914431479
398,Bedford,-0.46677820000000003,52.13864,0.35470869045182735,0.18016808430383335
399,Heathrow,-0.4542955,51.47002,0.46071268871083126,0.10599524148727796
400,Driffield,-0.443377,54.006,0.16187551645338097,0.2527023874351479
401,Beverley,-0.435093,53.84196,0.2877497225564651,0.29144137104016377
402,Luton,-0.4200255,51.87867,0.3797189476508124,0.09543979431507324
403,Scarborough,-0.399752,54.28311,0.2742698985950819,0.36713782923326616
404,Worthing,-0.372882,50.81787,0.35847962418530915,0.12849160314742183
405,Dorking,-0.332378,51.2322,0.33545716664711445,0.0814196943812971
406,Hull,-0.3274198,53.767619999999994,0.4319408158746979,0.42277035452346534
407,Horsham,-0.325858,51.06288,0.2608476708424245,0.15167159812962724
408,Biggleswade,-0.26421999999999995,52.086940000000006,0.21241810247319895,0.09866569906405864
409,Peterborough,-0.2405299,52.5695,0.376402672232764,0.1611319289841337
410,Welwyn Garden City,-0.208661,51.80317,0.48129179224616986,0.14091885446650232
411,Bridlington,-0.198802,54.08535,0.20041418306302047,0.25214226944519
412,Stevenage,-0.19661199999999998,51.90376,0.3289780463577177,0.09654918260633158
413,Crawley,-0.18722750000000002,51.109140000000004,0.3181106649764257,0.10987094739418846
414,Huntingdon,-0.182552,52.33146,0.2212694141734238,0.07388316080682329
415,Hove,-0.168749,50.82793,0.28539205637579435,0.10697897175707571
416,Spalding,-0.1537024,52.7901,0.2394355086906672,0.17099730665405985
417,Brighton,-0.137163,50.82253,0.5040418603322415,0.1774809468602834
418,London,-0.12775830000000002,51.50735,1.0,0.18326608735916974
419,Grimsby,-0.08078400000000001,53.56746999999999,0.31118372631213126,0.2409143650302787
420,Boston,-0.026576999999999996,52.97894,0.3138126925312375,0.21406992193798194
421,Royston,-0.024066,52.048140000000004,0.18428434700984372,0.04914202114010925
422,Louth_Lincs,-0.007711,53.36596,0.20174410141558105,0.17055564997267278
423,Lewes,0.00878,50.873870000000004,0.2643786923328722,0.08304334727635665
424,Chatteris,0.054012,52.4561,0.1364695476410603,0.06077026661509638
425,Uckfield,0.095913,50.966409999999996,0.2782722837226777,0.08957749981639256
426,Cambridge,0.12181700000000001,52.20534,0.4821024880795535,0.08047720264967671
427,Bishop's Stortford,0.15365020000000001,51.87216,0.3001052060357183,0.08568735033522594
428,Wisbech,0.158797,52.66631999999999,0.1797508078342769,0.135641995489958
429,Sevenoaks,0.190898,51.27241,0.35864972485421814,0.05795665985253335
430,Tunbridge Wells,0.26369499999999996,51.13238,0.32347950285754434,0.08072237499120992
431,Eastbourne,0.29047199999999995,50.768029999999996,0.29874368771765897,0.08947374067329242
432,Brentwood,0.30717490000000003,51.620470000000005,0.5204348290015736,0.16059287447555962
433,Skegness,0.337881,53.1464,0.19213810041813045,0.1536997205297433
434,Downham Market,0.385472,52.606609999999996,0.1459001661554058,0.06833383292675481
435,King's Lynn,0.4022963,52.75168000000001,0.25457378165445427,0.1350775108832398
436,Bexhill,0.4662071,50.849909999999994,0.20569399786597983,0.06157536456041653
437,Chelmsford,0.4685497,51.73559,0.30312171994671055,0.10286456057331057
438,Mildenhall,0.5156095,52.347570000000005,0.24221440956829715,0.06133156849679267
439,Medway,0.5417860999999999,51.404740000000004,0.2901311627021615,0.11491788677705211
440,Braintree,0.5509269,51.88009,0.2499793779531548,0.038892224255411535
441,Gillingham,0.551438,51.38632,0.45190840430801543,0.16031111652898752
442,Hastings,0.573453,50.85426,0.27870537530156364,0.07031358030021209
443,Maldon,0.6714479999999999,51.731809999999996,0.25835289019227786,0.08958191136878337
444,Southend,0.7077123000000001,51.54593,0.3555268280254888,0.11599380946421493
445,Bury St Edmunds,0.7104931999999999,52.24292,0.3600816515103486,0.05714358967245886
446,Thetford,0.751657,52.412859999999995,0.19679473244760373,0.039064232036069416
447,Ashford,0.8750190000000001,51.14647,0.2655526152127631,0.10762739414072325
448,Faversham,0.889358,51.31599,0.2502518730262041,0.09148622206497302
449,Colchester,0.891874,51.89593,0.36087399082936905,0.06543076834733642
450,New Romney,0.939473,50.98512,0.15571730767662564,0.05386591275201167
451,Canterbury,1.0789089,51.280229999999996,0.34222873002174037,0.11340562109072833
452,Ipswich,1.14822,52.056740000000005,0.3702552929592113,0.08863923903843782
453,Clacton,1.153035,51.78953,0.20430806410477045,0.05775701568821848
454,Folkestone,1.169456,51.0814,0.2552060082738299,0.07629455427716553
455,Sheringham,1.2109589,52.944419999999994,0.13051314045549334,0.07713116515519922
456,Harwich,1.260297,51.93473,0.15590078635076238,0.03524387302639889
457,Norwich,1.297355,52.63089,0.45696509088945586,0.15486303315056818
458,Cromer,1.301866,52.93145,0.18850729801470112,0.09277542683528778
459,Cromer,1.301866,52.93145,0.18850729801470112,0.09277542683528778
460,Dover,1.3134027,51.12788,0.228073247491927,0.07726195870220642
461,Felixstowe,1.3512549999999999,51.961729999999996,0.20911822847781952,0.04365153276721696
462,Margate,1.3868339,51.38965,0.2555484747790443,0.08450414517301272
463,Ramsgate,1.4198950000000001,51.33555,0.2517869580236518,0.08830933635520014
464,Great Yarmouth,1.728047,52.59823000000001,0.2570307802600636,0.0880360402582981
465,Lowestoft,1.7534490000000003,52.48114,0.2709820414264833,0.09126776272187996
466,Swaffham,0.687481,52.64747,0.14373912013026083,0.0750668782433659
467,Dereham,0.9378270000000001,52.681619999999995,0.3450879974620549,0.14893819037435818
468,Ely,0.262363,52.39954,0.2204374950186895,0.0502914677409944
469,March,0.088622,52.551719999999996,0.16685207764678178,0.10337107742878567
470,St Neots,-0.26510300000000003,52.23008,0.20040331911152082,0.057640495238535414
471,Banham,1.0402849,52.45125,0.2135864516351149,0.0721551829274771
472,Holt,1.086747,52.90936,0.1883024014527723,0.10052603817946489
473,Hunstanton,0.49103199999999997,52.93891,0.11081718659142964,0.0798219675103053
474,Horncastle,-0.11245,53.20731,0.1524252325963937,0.11717727566118083
475,Market Weighton,-0.6677465,53.86484,0.14623466107839594,0.21416663872295322
476,Hawes,-2.1968695,54.303830000000005,0.01,0.06296493762972061
477,Reeth,-1.9428115000000001,54.38946,0.17822415835680605,0.26096392552949904
478,Aysgarth,-1.9967433999999997,54.29159,0.08068564832999056,0.1556354393843499
479,Stanhope,-2.011302,54.74946,0.2587899540225258,0.3355220449487726
480,Keswick,-3.134706,54.60128,0.1486409558316324,0.26571611963719777
481,Oxenholme,-2.7243327999999996,54.30134,0.10831952413320027,0.1776279169715761
