index,placename,longitude,latitude,want,wanting
0,Dingle,-10.264013499999999,52.14094,0.32142599383533604,0.013273655640002109
1,Tralee,-9.6999325,52.27131,0.4422569950176565,0.01414510035443562
2,Killarney,-9.5044265,52.059940000000005,0.5792543403847239,0.016540924976141708
3,Bantry,-9.4539805,51.68035,0.3383093565997656,0.014990268988668537
4,Mayo,-9.4289369,54.01526,0.4286344885363974,0.01
5,Ballycastle,-9.3724643,54.279669999999996,0.0654410067840175,0.016260175636236954
6,Abbeyfeale,-9.2970823,52.386179999999996,0.0659822349015511,0.012902728237717017
7,Ennistymon,-9.2934951,52.940369999999994,0.06806079564941173,0.01
8,Galway,-9.0567905,53.270669999999996,0.6773196614969723,0.018057535558126683
9,Claremorris,-9.0017356,53.72388,0.5501657497315715,0.017729048320319397
10,Clare,-8.9811351,52.90453,0.5457012068637289,0.01
11,Adare,-8.7925892,52.56363,0.3012025297042208,0.013003994569245392
12,Charleville,-8.681017599999999,52.36206,0.06556271511697853,0.015503523366562773
13,Mallow,-8.6539164,52.13898,0.39528382514159466,0.01586337755337076
14,Limerick,-8.6267343,52.66384,0.6569097809554996,0.012422814641668495
15,Loughrea,-8.5660931,53.19891,0.06614201958448986,0.011907478344760317
16,Sligo,-8.476088800000001,54.27661,0.5632244130185128,0.02324270902199125
17,Cork,-8.4756035,51.898509999999995,0.7334019959977415,0.03470629399716504
18,Nenagh,-8.19834,52.8635,0.4715111238584154,0.012843208539704266
19,Roscommon,-8.1890955,53.627590000000005,0.4853906633393638,0.01998857846417797
20,Tipperary,-8.161851400000002,52.47379,0.5567172392181953,0.01841448368968271
21,Donegal,-8.1096143,54.653830000000006,0.584807373579912,0.058952724360078215
22,Leitrim,-8.0020132,54.12469,0.442078815077336,0.04094461972308773
23,Athlone,-7.9406898,53.423930000000006,0.45724614685995035,0.021011629877758828
24,Longford,-7.7932573000000005,53.727630000000005,0.47592476574660986,0.02834054392871831
25,Offaly,-7.7122229,53.235690000000005,0.5460905799415996,0.02181951364417795
26,Fermanagh,-7.6318728,54.343830000000004,0.383296446751112,0.04107972503908724
27,Enniskillen,-7.631533599999999,54.343819999999994,0.45600051723312013,0.04159707173796089
28,Doon,-7.60964,54.185930000000006,0.3040440856685409,0.03700596885563696
29,Westmeath,-7.4653217000000005,53.534530000000004,0.4605769487876695,0.021035091770103622
30,Strabane,-7.4633103,54.82739,0.4651518097557239,0.06839125218940106
31,Balivanich,-7.3743509000000005,57.472269999999995,0.07083056443442863,0.2763696729084333
32,Cavan,-7.3633319,53.98972,0.5051325209557893,0.045620519718257826
33,Mullingar,-7.340186800000001,53.525819999999996,0.45472328000491247,0.014981720673912421
34,Laois,-7.332300699999999,52.9943,0.5372077080614142,0.016720439618816575
35,Omagh,-7.309959700000001,54.59771,0.4865696791143096,0.05297699313761316
36,Derry,-7.308574799999999,54.99661,0.6198382184988048,0.06411105550495788
37,Derry,-7.308574799999999,54.99661,0.6198382184988048,0.06411105550495788
38,Kilkenny,-7.2447879,52.65415,0.5783297030006911,0.035769383072272766
39,Tyrone,-7.131232000000001,54.491209999999995,0.39544795131453564,0.033840289996258335
40,Waterford,-7.110070200000001,52.25932,0.6146101722690686,0.03410411317684003
41,Western Isles,-7.0194034,57.759890000000006,0.32185671262728965,0.2808267464351767
42,Monaghan,-6.9683132,54.2492,0.49313119867045535,0.04832278833313458
43,Carlow,-6.934135899999999,52.83651,0.5504433409774812,0.024674557571193963
44,Kildare,-6.8194707999999995,53.21204,0.6203201034071663,0.03284928220894437
45,Dungannon,-6.7669352,54.508269999999996,0.3980700695756975,0.07345282122681043
46,Cookstown,-6.7443895000000005,54.641819999999996,0.45230987456591315,0.125162422040366
47,Coleraine,-6.6646103000000005,55.132580000000004,0.5593279822152712,0.1522076427301773
48,Meath,-6.656416900000001,53.60555,0.5788650342842371,0.03002166525231309
49,Armagh,-6.652792,54.350280000000005,0.49141667761302893,0.046615952259833816
50,Armagh,-6.652792,54.350280000000005,0.49141667761302893,0.046615952259833816
51,Magherafelt,-6.607980499999999,54.75536999999999,0.47108840464764573,0.14088057943858878
52,Dunvegan,-6.581398200000001,57.4366,0.023978581398138226,0.2736328049843604
53,Louth,-6.4889423,53.925230000000006,0.5833324758536415,0.018111140130011784
54,Wexford,-6.4633381,52.33692,0.5978201002510017,0.026587306985280532
55,Craigavon,-6.4175653,54.442930000000004,0.5214118508779448,0.12240949170681102
56,Stornoway,-6.384869200000001,58.209430000000005,0.4237210765744698,0.2651127382194628
57,Drogheda,-6.3560985,53.717859999999995,0.49089911934777747,0.030144576422167484
58,Rosslare,-6.3414908,52.25131,0.06346307638966615,0.028540216918802725
59,Newry,-6.34023,54.1751,0.5373075954259131,0.021573010056798375
60,Scilly Isles,-6.327496599999999,49.92773,0.3595401083680163,0.10802187652435022
61,Ballymena,-6.2802213,54.86529,0.5060096414462842,0.14983297425960315
62,Banbridge,-6.2704803,54.34873,0.46294154372253343,0.12237264974659398
63,Dublin,-6.2603097000000005,53.34981,0.8481809344851949,0.038334664078933
64,Antrim,-6.2072498,54.719530000000006,0.5301052738564301,0.17253557590943042
65,Antrim,-6.2072498,54.719530000000006,0.5301052738564301,0.17253557590943042
66,Portree,-6.1960231,57.41246999999999,0.4122146813251243,0.29065411518896966
67,Islay,-6.177067,55.73625,0.3142980735269737,0.42856079945405656
68,Wicklow,-6.044589,52.980819999999994,0.5789009284995121,0.032826634335684675
69,Kilkeel,-6.007004,54.06312,0.3518103577354198,0.11241124051070851
70,Mull,-6.0008870000000005,56.4392,0.2976858938612693,0.5502779600552082
71,Belfast,-5.93012,54.597280000000005,0.7461312700827846,0.2089336125165625
72,Broadford,-5.9096592,57.24139,0.02323541263876151,0.2782452323249983
73,Down,-5.7156921999999994,54.32875,0.5315506052215012,0.18912465654138072
74,Kyle of Lochalsh,-5.7143293,57.28261,0.025181386096524244,0.26616693459286245
75,Campbeltown,-5.605373999999999,55.424119999999995,0.3276233962491782,0.48713991888577135
76,Penzance,-5.537592,50.1188,0.536021594435294,0.11147460179788378
77,Oban,-5.471047,56.41516,0.38236305260870745,0.6639316073116149
78,Lochgilphead,-5.4323449,56.03829,0.2277156090898877,0.6465708254367103
79,Helston,-5.274996,50.10159,0.4348672250196665,0.11001368308921375
80,Redruth,-5.226666000000001,50.23302,0.47476195128677007,0.11078467844163412
81,Ullapool,-5.161313,57.895419999999994,0.32818248387798027,0.24747859941434225
82,Ballachulish,-5.133719999999999,56.673930000000006,0.01,0.4224745876221641
83,Fort William,-5.1052179,56.81981999999999,0.43711404364605316,0.24766211302402086
84,Achnasheen,-5.078765799999999,57.578590000000005,0.028093546934957702,0.24808728958690604
85,Newquay,-5.0737190000000005,50.4155,0.5262960364113961,0.11013284952412544
86,Falmouth,-5.066269999999999,50.152570000000004,0.5534289606321092,0.1117645175585794
87,Rothesay,-5.055793,55.83596,0.3713308831958737,0.6036557809164389
88,Truro,-5.051041000000001,50.2632,0.6723137888089477,0.11413034293786004
89,Milford Haven,-5.0426971,51.71431,0.42685065802697114,0.04654701900204829
90,Stranraer,-5.024055000000001,54.903369999999995,0.4005258887328385,0.28324058749332964
91,Fishguard,-4.975989,51.99393,0.3453033512806553,0.06443647265602932
92,Inchnadamph,-4.974295,58.15221,0.022868927770231025,0.2805179198469315
93,Haverfordwest,-4.971319,51.800470000000004,0.46043292869032576,0.04763890816314328
94,Dunoon,-4.926214,55.95097,0.3308728940180534,0.658409892802778
95,Pembroke,-4.908637000000001,51.674040000000005,0.5463384987683826,0.04788610780184969
96,Girvan,-4.8542179,55.240159999999996,0.33218277795933343,0.5847359671908039
97,Wadebridge,-4.836456,50.51665,0.4621573300955539,0.10881181129681149
98,Invergarry,-4.800261,57.07095,0.028079268303717025,0.2481773229220059
99,St Austell,-4.7834252,50.340379999999996,0.49000544664856843,0.11061824482966119
100,Greenock,-4.7719830000000005,55.956480000000006,0.5244614145063228,0.422348991025575
101,Helensburgh,-4.734014,56.00232,0.35070842995080764,0.657199421175253
102,Bodmin,-4.7188629,50.4715,0.4363026031209276,0.11011243394260406
103,Tenby,-4.703579,51.672740000000005,0.4606784280692648,0.04611732416724794
104,Camelford,-4.682364,50.62206,0.3421808670440728,0.1042879048812309
105,Irvine,-4.6696364,55.61156999999999,0.5271532717852084,0.5622518001885234
106,Cardigan,-4.660864,52.0837,0.40194972751110164,0.06865023189759087
107,Holyhead,-4.633038,53.30944,0.40012501869186134,0.2505752490461351
108,Ayr,-4.629179,55.45856,0.5557183164574809,0.5497988753522504
109,Dumbarton,-4.564554,55.94529,0.5035602703828458,0.42736999180742435
110,Bude,-4.543678,50.826640000000005,0.4568273200561023,0.07875608144508686
111,Isle of Man,-4.5126330999999995,54.27697,0.5564049485554159,0.42088101540417605
112,Kilmarnock,-4.498792,55.61472,0.5127114728011106,0.5370117511901037
113,Newton Stewart,-4.483164,54.9603,0.2911872683626969,0.5425714029916042
114,Liskeard,-4.4647190000000005,50.45552,0.4609683154345037,0.10732810663071071
115,Altnaharra,-4.442655,58.28023,0.021250682896200808,0.29056524246577686
116,Pwllheli,-4.417633900000001,52.888819999999996,0.3837967843712357,0.1813314440619983
117,Lairg,-4.402414,58.022059999999996,0.0227499391765527,0.2812599815840986
118,Launceston,-4.360451599999999,50.636829999999996,0.43710841084329577,0.08690745039744453
119,Carmarthen,-4.312131,51.857620000000004,0.5355577354109625,0.049510939286048376
120,Llangefni,-4.311401999999999,53.255790000000005,0.4843103920822037,0.2539774013797241
121,Caernarfon,-4.273911,53.13955,0.4693711467526543,0.22835116115710113
122,Cumnock,-4.265828900000001,55.45355,0.43122619357374525,0.5177857341625447
123,Aberaeron,-4.2581619,52.24279,0.37852774100275577,0.06632474027194944
124,Alness,-4.256825,57.69595,0.4132516759436647,0.3069491396676453
125,Glasgow,-4.251806,55.86424,0.7882670029362349,0.39080108502997724
126,Dalwhinnie,-4.242783,56.9366,0.0169616540451976,0.31718927972794486
127,Inverness,-4.224721,57.47776999999999,0.5890757684820883,0.290200371191681
128,Saltash,-4.21643,50.409209999999995,0.4429506165054316,0.07942482190114053
129,Bideford,-4.206666,51.01668,0.48884541964164463,0.051855662836440476
130,Invergordon,-4.1728819999999995,57.688109999999995,0.41745575876485785,0.3070044025770329
131,Llanelli,-4.160248,51.680890000000005,0.576968972563332,0.05200507287012689
132,Plymouth,-4.1426565,50.37546,0.6978261556686987,0.08155296720380656
133,Tavistock,-4.141654,50.551120000000004,0.48320290970366125,0.0878665842708025
134,Porthmadog,-4.1333839999999995,52.92784,0.4441911874260142,0.1891960576533199
135,Bangor,-4.129263,53.22739,0.5615005740371127,0.257683997351548
136,Tywyn,-4.087249,52.58701,0.3071347475292921,0.11279682417968662
137,Aberystwyth,-4.08292,52.4153,0.5576126285990616,0.08615210297272281
138,Lampeter,-4.0785089999999995,52.1129,0.4046226495850897,0.07354855575690608
139,Barnstaple,-4.058338,51.07816,0.5665540444707935,0.05166132986484076
140,Tain,-4.05523,57.8115,0.31339225563643325,0.29612786527595925
141,Okehampton,-4.004263,50.73831,0.3967746576127979,0.08148963977659335
142,Llandeilo,-3.9914300000000003,51.88469,0.48355598891756296,0.06349331828622602
143,Motherwell,-3.9810968,55.78321,0.6113093665005526,0.40336896735145494
144,Golspie,-3.976086,57.97341,0.02269146478194434,0.281619578911299
145,Airdrie,-3.9625660000000003,55.86626999999999,0.5450536144772627,0.51079567626066
146,Swansea,-3.9436459999999998,51.62144,0.7136636408274223,0.06930034227142831
147,Stirling,-3.9369029,56.116519999999994,0.5673660224794967,0.5297350870678567
148,Tregaron,-3.934385,52.22,0.39514503793289857,0.09160702278748847
149,Tregaron,-3.934385,52.22,0.39514503793289857,0.09160702278748847
150,Castle Douglas,-3.9314139999999997,54.940419999999996,0.32281493933650574,0.5629987677453011
151,Dolgellau,-3.8844,52.74215,0.32410071880751146,0.11171459722123583
152,Aberfeldy,-3.866969,56.62175,0.40790980457344445,0.33852442591789444
153,Machynlleth,-3.853485,52.59027,0.3845754583306479,0.09002780784325427
154,Brora,-3.8525480000000005,58.012159999999994,0.26909245892940237,0.29200797916039545
155,Llandudno,-3.827609,53.324059999999996,0.5253764044255157,0.16277159640376987
156,Llandudno,-3.827609,53.324059999999996,0.5253764044255157,0.16277159640376987
157,Aviemore,-3.823812,57.19449,0.39284339008832353,0.23851317498293476
158,Dalbeattie,-3.8225269999999996,54.934219999999996,0.24637649344047613,0.530738893090675
159,Falkirk,-3.7839131,56.00188000000001,0.5660618687980646,0.5418900709439448
160,Kingsbridge,-3.777493,50.28395,0.4546757090967892,0.08190463853956333
161,Pitlochry,-3.729711,56.70436,0.3035416009722024,0.4233361407880395
162,Colwyn Bay,-3.72764,53.29318000000001,0.4929786027924481,0.21211372750240395
163,Totnes,-3.685797,50.43374,0.46634571227046906,0.08029936327845347
164,Grantown-on-Spey,-3.609628,57.33041,0.28825836896265566,0.31698244137970694
165,Dumfries,-3.60512,55.070859999999996,0.4760803820204975,0.5806358107628206
166,Whitehaven,-3.589233,54.5497,0.44593910224517896,0.49484088294717343
167,Dartmouth,-3.578807,50.35252,0.41227517051418183,0.07967035304931976
168,Bridgend,-3.576945,51.504290000000005,0.6296780745818255,0.06033776621004581
169,Paignton,-3.564235,50.43508,0.5731558706720824,0.08186843391221482
170,Workington,-3.5427519999999997,54.64357,0.442656893690902,0.4912030576406214
171,Llanidloes,-3.5401949999999998,52.447790000000005,0.35170187575307416,0.09557091029358712
172,Exeter,-3.533899,50.71841,0.7292387680465768,0.043384546046395876
173,Torquay,-3.525315,50.46192,0.5805199917217652,0.08213121030278446
174,Thurso,-3.5220800000000003,58.59356999999999,0.38983716855470946,0.3250652329505217
175,Livingston,-3.518068,55.90071,0.5680378926405832,0.49878902940864195
176,Rhyl,-3.4916339999999995,53.319140000000004,0.4943850748900859,0.17640457747159918
177,Tiverton,-3.491207,50.90205,0.48810945278706064,0.042402079887116396
178,Tiverton,-3.491207,50.90205,0.48810945278706064,0.042402079887116396
179,Minehead,-3.481152,51.20428,0.4181748886547303,0.05873008657305793
180,Dunfermline,-3.452151,56.071740000000005,0.5541022127901815,0.48716173877382
181,Perth,-3.4308381000000003,56.39499,0.4172932579962433,0.5653661494179332
182,Prestatyn,-3.4076129999999996,53.33651,0.4491951883687587,0.17912838347173918
183,Builth Wells,-3.4045919999999996,52.15002,0.4469008777460347,0.011009514886921286
184,Braemar,-3.3979439,57.00646999999999,0.01,0.390248748168707
185,Brecon,-3.391463,51.94895,0.4847629865335015,0.06317731184260025
186,Merthyr Tydfil,-3.381646,51.74873,0.6699400062987754,0.06369978465086562
187,Llandrindod Wells,-3.377742,52.2417,0.40269035738276093,0.05771549935009802
188,Corwen,-3.369242,52.98005,0.31365166725209725,0.2091265469246626
189,Cockermouth,-3.367985,54.66326,0.36037206142602585,0.51214229629924
190,Lockerbie,-3.349008,55.122240000000005,0.44711902907122203,0.5451919330546531
191,Blairgowrie,-3.3378318,56.58941,0.3614845447597146,0.4925754641575562
192,Elgin,-3.318485,57.64945,0.5535966904570006,0.30860954987184835
193,Newtown,-3.313106,52.51211,0.3635306447347132,0.11818378708732347
194,Ruthin,-3.3103108,53.114869999999996,0.43653346891146205,0.21187860320031002
195,Ruthin,-3.3103108,53.114869999999996,0.43653346891146205,0.21187860320031002
196,Sidmouth,-3.2375599999999998,50.67865,0.4645185468740616,0.03958470825744862
197,Barrow-in-Furness,-3.2188939999999997,54.10896999999999,0.5381087515040652,0.29381419901949163
198,Peebles,-3.1936419999999996,55.65306999999999,0.3898643566836103,0.44734632609093467
199,Edinburgh,-3.1882669999999997,55.95325,0.746374671355615,0.4772699184454183
200,Cardiff,-3.17909,51.48158,0.7912098774893729,0.06417410833428894
201,Llangollen,-3.1716599999999997,52.96921,0.36998925261280463,0.20651000410784284
202,Kirkcaldy,-3.158137,56.11682,0.5857844989154277,0.494864526446816
203,Welshpool,-3.146407,52.66035,0.4448265237313069,0.1503582884136459
204,Mold,-3.1419029999999997,53.1672,0.5472601577744014,0.1802408131975222
205,Mold,-3.1419029999999997,53.1672,0.5472601577744014,0.1802408131975222
206,Taunton,-3.106849,51.01534,0.596714371351556,0.06811015329775728
207,Wick,-3.093716,58.43894,0.37488606978834776,0.32486016338803914
208,John o' Groats,-3.0688997000000002,58.63734,0.0182025350935622,0.30948539415270326
209,Dalkeith,-3.066606,55.893119999999996,0.5336181442003923,0.4459436747888073
210,Oswestry,-3.056412,52.85715,0.5061565149774364,0.1943557651451341
211,Blackpool,-3.0356748,53.81751,0.6619475220126225,0.2121450276923037
212,Birkenhead,-3.023009,53.389990000000004,0.6646097121729085,0.1494540710033683
213,Cupar,-3.010137,56.32023,0.3694707829686088,0.4992622846572805
214,Southport,-3.010113,53.64571,0.6136331458792601,0.12418566993131522
215,Bridgwater,-3.003632,51.12789,0.6443286615198287,0.07867698593899894
216,Langholm,-2.998913,55.153059999999996,0.2659173154147167,0.4467916606471534
217,Newport,-2.997664,51.58415,0.6760912982040708,0.05765503405607299
218,Axminster,-2.9949369999999997,50.78273,0.481129627994069,0.05522604678887805
219,Wrexham,-2.9924939999999998,53.043040000000005,0.5968940478848849,0.20831614355116645
220,Liverpool,-2.9915726,53.40837,0.8094963165779521,0.1526033726429801
221,Weston-super-Mare,-2.977255,51.347409999999996,0.6099741478184211,0.07480252028548795
222,Dundee,-2.9707209999999997,56.462019999999995,0.60281514133252,0.570733844320165
223,Kirkwall,-2.9622491,58.984669999999994,0.3898902850026814,0.32682727924894267
224,Ambleside,-2.961333,54.428740000000005,0.47825005190349523,0.4477264948101128
225,Orkney Islands,-2.9605206,58.980940000000004,0.3980947987927195,0.3272148957599768
226,Lyme Regis,-2.936639,50.725159999999995,0.4481699450581656,0.0773534296922878
227,Carlisle,-2.932931,54.892469999999996,0.5948205659662195,0.5049320702930136
228,Chester,-2.893075,53.19339,0.6633215485932278,0.2104747446383615
229,Forfar,-2.889062,56.64356,0.41673398745408985,0.5671386373187289
230,Morecambe,-2.864968,54.074169999999995,0.4888179470111367,0.29798116215234327
231,Selkirk,-2.838524,55.55066,0.44623339067455897,0.4368935394485893
232,Galashiels,-2.814449,55.62373,0.42678484162115865,0.4554469491587886
233,Lancaster,-2.8007399,54.046569999999996,0.5929881150575949,0.25619215706956266
234,St Andrews,-2.7967214,56.339780000000005,0.45453456160872086,0.558694961898796
235,Hawick,-2.780914,55.42706,0.3817620519844249,0.5270674855709163
236,Bridport,-2.758301,50.733579999999996,0.4590003943814497,0.08776835613594187
237,Shrewsbury,-2.7553267999999997,52.7073,0.6560886902594785,0.14959703060230456
238,Penrith,-2.752708,54.6641,0.5428424266133907,0.5601880082890636
239,Kendal,-2.74629,54.32801,0.5278797588787129,0.4138930404763056
240,Street,-2.7429189999999997,51.12468,0.3953039517261771,0.1130338158519485
241,Glastonbury,-2.718454,51.14743,0.44915624982873187,0.0965727666489651
242,Hereford,-2.715974,52.0564,0.6111709528053592,0.11758742683912306
243,Ludlow,-2.7139129,52.36775,0.5005731579196107,0.09655523307947232
244,Preston,-2.70309,53.7632,0.7100096197897652,0.1745669886407603
245,Whitchurch,-2.682045,52.96872,0.4318725972693511,0.1913665760475352
246,Wells,-2.6445979,51.20935,0.48975839343512745,0.10092965508930506
247,Yeovil,-2.633308,50.94206,0.5608229507680836,0.13343302182300587
248,Wigan,-2.6325074,53.54506,0.7253560678580945,0.19520848613184905
249,Warrington,-2.5969501,53.39004,0.7372511561972384,0.19542319699077584
250,Arbroath,-2.591543,56.55911,0.44406203876498884,0.5629888179153664
251,Bristol,-2.58791,51.45451,0.7994992863095466,0.11031662423371509
252,Guernsey,-2.5852779999999997,49.46569,0.046758437706814496,0.1322309108699282
253,Ross-on-Wye,-2.582446,51.91445,0.539424448668574,0.09711783308572515
254,Jedburgh,-2.5549369,55.47772,0.33105143028277223,0.43357056240574793
255,Sedbergh,-2.5281740000000004,54.32363,0.3455769359763229,0.43097908322087164
256,Sedbergh,-2.5281740000000004,54.32363,0.3455769359763229,0.43097908322087164
257,Nantwich,-2.524102,53.067190000000004,0.5086165114269594,0.17851515846292215
258,Banff,-2.524038,57.666509999999995,0.35794398997530436,0.44024417255473014
259,Dunbar,-2.516737,56.00209,0.4872933869208749,0.46424857991090807
260,Cinderford,-2.5009579,51.8253,0.5199686292963085,0.07190200008518843
261,Banchory,-2.4909599,57.05386,0.39860729281161983,0.508276407898681
262,Blackburn,-2.487529,53.748580000000004,0.6403481484510816,0.17690976866614605
263,Market Drayton,-2.483485,52.90355,0.385873433252564,0.17468636776529234
264,Telford,-2.4672611,52.67759,0.6139712321750825,0.15380320472478154
265,Montrose,-2.4661150000000003,56.70692,0.42597039960143374,0.48357764820798044
266,Turriff,-2.4623,57.53893000000001,0.3685565780365241,0.46753874899722964
267,Weymouth,-2.457621,50.61443,0.5390076597880472,0.16120337005707056
268,Crewe,-2.4438209,53.10041,0.5919367190667167,0.17111532459828274
269,Fortuneswell,-2.4422189999999997,50.55919,0.3613460160956535,0.1459170953470083
270,Dorchester,-2.4411810000000003,50.71116,0.6134771216693193,0.1654668418557699
271,Alston,-2.438685,54.812169999999995,0.23988030750078265,0.5408235313549301
272,Kelso,-2.432207,55.600030000000004,0.37462495457917516,0.494748815119767
273,Wincanton,-2.416007,51.055690000000006,0.4109974021709984,0.14495691442347877
274,Clitheroe,-2.3930830000000003,53.8711,0.5186397863164115,0.16845493817033713
275,Sark,-2.3666256000000003,49.43007,0.04574601475831276,0.1385143530270884
276,Bath,-2.3590167,51.38106,0.6837099207925206,0.11244992221582413
277,Kidderminster,-2.2496839,52.3886,0.5649138470574107,0.08714685829748516
278,Manchester,-2.2426305,53.48076,0.8691836517301096,0.1793472041388065
279,Burnley,-2.2405035,53.78929,0.6174649781399393,0.15661707211279868
280,Gloucester,-2.238156,51.86424,0.6803195121574325,0.13479938947719625
281,Newcastle-under-Lyme,-2.2273002,53.01321,0.5581669828157698,0.16273347717763095
282,Worcester,-2.221575,52.19364,0.681436410513731,0.1507981523828345
283,Trowbridge,-2.208853,51.31966,0.6656153735491517,0.14822405694369029
284,Shaftesbury,-2.198083,51.0046,0.4378313219303772,0.18201837671982632
285,Alderney,-2.1973557,49.715,0.04612609832326454,0.13615339215040123
286,Stoke-on-Trent,-2.179404,53.002669999999995,0.6719265834912543,0.16388882107745473
287,Colne,-2.176991,53.85564,0.4947374003660033,0.22790545917970428
288,Blandford Forum,-2.165353,50.85691,0.40079263962760775,0.158854039257396
289,Rochdale,-2.1561,53.60971,0.6726799229890219,0.17898514636121046
290,Jersey,-2.13125,49.21444,0.04382791862821372,0.15041916818815998
291,Wolverhampton,-2.12882,52.586969999999994,0.664188264707826,0.07974201571417437
292,Stafford,-2.12066,52.80669,0.6544968913450164,0.14050263864682705
293,Macclesfield,-2.119287,53.25866,0.6267596226546048,0.1788198929653665
294,Hexham,-2.1121439,54.97266,0.5566461067567591,0.32509957621101415
295,Aberdeen,-2.094278,57.149719999999995,0.6429595698862625,0.5147364069001646
296,Dudley,-2.081112,52.51226,0.6516845572274689,0.07754695170610333
297,Cheltenham,-2.0782533,51.899390000000004,0.6610985835277123,0.13640965826636545
298,Bromsgrove,-2.061906,52.33559,0.6035900835222071,0.07058502646668961
299,Skipton,-2.0162787,53.96285,0.44308790271871756,0.5466541523313556
300,Fraserburgh,-2.007631,57.69335,0.38258834618667875,0.4661499672796833
301,Berwick,-2.005395,55.77024,0.4216779630200525,0.4578081956634988
302,Poole,-1.987248,50.71505,0.609915410541027,0.16815617463577423
303,Walsall,-1.9829189999999999,52.586209999999994,0.6577773931903965,0.07093888438461636
304,Cirencester,-1.968243,51.71849,0.639453982608547,0.10461056523487676
305,Evesham,-1.9467700000000001,52.09215,0.5246786797707923,0.13299742009699853
306,Buxton,-1.91483,53.259080000000004,0.5588745578179484,0.19560996276415388
307,Keighley,-1.9123580000000002,53.8678,0.49476004980596033,0.6397430361204125
308,Birmingham,-1.8904009999999998,52.48624,0.8425707799654627,0.08762050107414524
309,Bournemouth,-1.880769,50.719159999999995,0.6763334628423641,0.16612890492696933
310,Halifax,-1.8575400000000002,53.727019999999996,0.490303398882729,0.6378727629207043
311,Salisbury,-1.794472,51.06878,0.5872457551255759,0.16602801009846854
312,Ringwood,-1.7888169999999999,50.84495,0.5391861674341558,0.15219957218926436
313,Huddersfield,-1.7850351000000002,53.645790000000005,0.5912071569751889,0.6620638001884502
314,Peterhead,-1.784066,57.50812,0.43671202678500826,0.4782629166771718
315,Swindon,-1.7797176,51.55577,0.6486141221388295,0.15886191808428057
316,Bradford,-1.759398,53.79598000000001,0.6260876056385587,0.6113111913268275
317,Ashbourne,-1.7321790000000001,53.016630000000006,0.6161132580355296,0.18421013790941168
318,Marlborough,-1.7270619999999999,51.42007,0.5057203237684139,0.13952310307248467
319,Stratford-upon-Avon,-1.7082979999999999,52.19173,0.5910716639901961,0.08155245619041732
320,Alnwick,-1.7062990000000002,55.41274,0.45264091165448284,0.2449388140906508
321,Otley,-1.691786,53.90583,0.4261781020424372,0.5733220678731051
322,Bishop Auckland,-1.6787880000000002,54.663819999999994,0.4848761897435232,0.43839824028257446
323,Burton upon Trent,-1.6371358999999999,52.81403,0.6036165605240968,0.16366886256714144
324,Newcastle,-1.61778,54.97825,0.7619782547553562,0.27994201561559634
325,Durham,-1.5848520000000001,54.77525,0.6137703834847004,0.41517529196805475
326,Ashington,-1.5659829,55.18298000000001,0.4941816213160331,0.2512916797250439
327,Darlington,-1.559458,54.52361,0.5383450278298695,0.4990669918251852
328,Leeds,-1.5490774,53.80076,0.7116725374186743,0.6512745927528081
329,Harrogate,-1.5418120000000002,53.99211999999999,0.5988315199040373,0.5435398714850971
330,Leamington Spa,-1.5200789,52.28519,0.6730542746383403,0.03894292866350988
331,Coventry,-1.519693,52.40682,0.714680968504631,0.052986558213575716
332,Blyth,-1.510277,55.12696,0.5092712128566373,0.2561211887504733
333,Wakefield,-1.505924,53.6833,0.5558556856704231,0.6948654181823035
334,Andover,-1.4919233,51.2112,0.5492583131836667,0.15558608430789367
335,Witney,-1.4850543999999999,51.785940000000004,0.5587939444892729,0.11564227365316737
336,Barnsley,-1.479726,53.55263000000001,0.5377364014740377,0.7685369320488155
337,Derby,-1.4746186000000001,52.92253,0.6837641187417636,0.19761874375029972
338,Sheffield,-1.470085,53.381130000000006,0.6860028556187329,0.6968627138684941
339,Nuneaton,-1.465382,52.52049,0.6553273799515899,0.05678368049837948
340,Northallerton,-1.429959,54.337959999999995,0.41975258362151524,0.507541834370435
341,South Shields,-1.427406,54.99941999999999,0.6001522699169403,0.2773292160183551
342,Chesterfield,-1.421629,53.23505,0.5635924433142168,0.5640615646244023
343,Southampton,-1.4043508999999998,50.9097,0.7538336407347055,0.15790228694898034
344,Wetherby,-1.384816,53.92706,0.4071881935762064,0.5547683969021793
345,Sunderland,-1.383801,54.90687,0.6330638810498095,0.30253740622341324
346,Rotherham,-1.3635008999999998,53.4326,0.5469925108301785,0.739883929131704
347,Castleford,-1.345968,53.72346999999999,0.5120910506240989,0.6059597560072577
348,Thirsk,-1.341377,54.23385,0.39253048010114777,0.47497298923446646
349,Banbury,-1.339775,52.0629,0.5669185505730104,0.12640821638426158
350,Stockton,-1.3289821000000002,54.57046,0.5449824675296335,0.4868341977574356
351,Newbury,-1.3231138999999998,51.40141,0.6224833150236526,0.20846967592547627
352,Isle of Wight,-1.304734,50.69385,0.60865726903221,0.16744749067609838
353,Isle of Wight,-1.304734,50.69385,0.60865726903221,0.16744749067609838
354,Abingdon,-1.2879528999999998,51.67078,0.5777817487035847,0.11884637193786173
355,Shetland Islands,-1.2659409,60.52965,0.24946397781390522,0.4138482038169622
356,Rugby,-1.265032,52.37088,0.6363961309638181,0.028983687624932704
357,Oxford,-1.2577263,51.75202,0.7422295186551683,0.12015545558799114
358,Middlesbrough,-1.234956,54.57423000000001,0.6090895501108562,0.4943076612382502
359,Hartlepool,-1.212926,54.69174,0.5313305993368422,0.4715471181785277
360,Loughborough,-1.206166,52.7721,0.6525501379763622,0.1612406130834874
361,Mansfield,-1.198674,53.1472,0.5569930633524781,0.43261850761005716
362,Nottingham,-1.1581086,52.95478000000001,0.7620039242809638,0.2132185323852519
363,Bicester,-1.1535898999999998,51.8996,0.5126124730907242,0.10632614743040421
364,Leicester,-1.1397591999999999,52.636880000000005,0.7252195800798011,0.16410814962703393
365,Doncaster,-1.128462,53.522819999999996,0.5181066068360505,1.0
366,Worksop,-1.122745,53.3093,0.4524329869096632,0.6644772766850686
367,Basingstoke,-1.0923964,51.26654,0.611487229526172,0.12111116055670396
368,Portsmouth,-1.0879769,50.81977,0.7084620801490603,0.17451587657059586
369,York,-1.0872979,53.95997,0.6400072304896637,0.5690812483458382
370,Selby,-1.067189,53.783519999999996,0.4402023094543754,0.5845801922197066
371,Helmsley,-1.0562636,54.24651,0.23282116449279064,0.5291434643821326
372,Towcester,-0.9896879999999999,52.13511,0.5219309137988513,0.129890218119732
373,Reading,-0.9781303,51.45426,0.7169938006783368,0.052778250588194714
374,Retford,-0.9455030000000001,53.32136,0.38730633354054134,0.6365318910830646
375,Petersfield,-0.93899,51.00759,0.4979794664807905,0.1356585586288049
376,Northampton,-0.9026559999999999,52.24048,0.6931142315982844,0.14421715340664712
377,Melton Mowbray,-0.887126,52.7664,0.5065929755314242,0.19221309543201248
378,Aylesbury,-0.8084,51.81561,0.6513794017608772,0.07468736230202018
379,Newark-on-Trent,-0.80657,53.070040000000006,0.5939502564611424,0.22007529027910944
380,Malton,-0.7978970000000001,54.13684,0.40688581818131875,0.5072970001577412
381,Chichester,-0.774936,50.83761,0.5640045121734739,0.18676237790558056
382,Gainsborough,-0.774465,53.400580000000005,0.4045230325172911,0.48499422050098406
383,Milton Keynes,-0.7594171,52.040620000000004,0.6866025562888707,0.13285998176801345
384,Aldershot,-0.7557509,51.24837,0.6447699657596804,0.13264667290454785
385,High Wycombe,-0.748229,51.628609999999995,0.639876585608614,0.01
386,Midhurst,-0.737274,50.9869,0.4833001490079653,0.17225437745780195
387,Kettering,-0.7302489999999999,52.39632,0.5866091867588915,0.13694655947136852
388,Wellingborough,-0.693964,52.30242,0.5538637567856646,0.1228435669828594
389,Corby,-0.6842333,52.4923,0.5716462981786654,0.1432704138395767
390,Bognor Regis,-0.673061,50.783,0.5499295799646278,0.16834531542821546
391,Scunthorpe,-0.654413,53.58865,0.522741389861655,0.5063874826049998
392,Grantham,-0.643582,52.912519999999994,0.5411442108088026,0.19052468503066047
393,Whitby,-0.613347,54.48633,0.41825451346435205,0.5602438912474115
394,Slough,-0.5950406,51.51054,0.6667016415048095,0.06223381468315205
395,Guildford,-0.570409,51.23622,0.6386058871962119,0.13941950188910224
396,Woking,-0.5600349,51.31677,0.6989586266623778,0.13858913457110236
397,Lincoln,-0.540579,53.23069,0.6592713108504009,0.21513837440006048
398,Bedford,-0.46677820000000003,52.13864,0.6389096880446125,0.1793222704279657
399,Heathrow,-0.4542955,51.47002,0.7350881508191117,0.08158104058348559
400,Driffield,-0.443377,54.006,0.38368480141769395,0.4490486545239062
401,Beverley,-0.435093,53.84196,0.5517349349830513,0.3459936789560973
402,Luton,-0.4200255,51.87867,0.6738725850059177,0.08636389467950965
403,Scarborough,-0.399752,54.28311,0.5216843659971527,0.4528773156408084
404,Worthing,-0.372882,50.81787,0.6504586565531375,0.1247483185933631
405,Dorking,-0.332378,51.2322,0.637227300232222,0.08084670554961614
406,Hull,-0.3274198,53.767619999999994,0.6711104901632396,0.366163836666462
407,Horsham,-0.325858,51.06288,0.5475821918607375,0.19115166343505505
408,Biggleswade,-0.26421999999999995,52.086940000000006,0.4991517005096403,0.14263014374253288
409,Peterborough,-0.2405299,52.5695,0.6611398008960302,0.15201098326905346
410,Welwyn Garden City,-0.208661,51.80317,0.7452166352314383,0.10682084655996459
411,Bridlington,-0.198802,54.08535,0.4463234682254025,0.3885372626263704
412,Stevenage,-0.19661199999999998,51.90376,0.6286706340138178,0.09883726029686486
413,Crawley,-0.18722750000000002,51.109140000000004,0.6160100761583287,0.11665485471965915
414,Huntingdon,-0.182552,52.33146,0.5162042958270759,0.10200066466256665
415,Hove,-0.168749,50.82793,0.5833678383300658,0.12381212327373864
416,Spalding,-0.1537024,52.7901,0.5178491550541595,0.2305953582234704
417,Brighton,-0.137163,50.82253,0.7564064788479418,0.13113321750622808
418,London,-0.12775830000000002,51.50735,1.0,0.07151896335232467
419,Grimsby,-0.08078400000000001,53.56746999999999,0.5863221856909416,0.26841042745567606
420,Boston,-0.026576999999999996,52.97894,0.5937067792512772,0.2362708358485295
421,Royston,-0.024066,52.048140000000004,0.4727715083408016,0.07557236053231109
422,Louth_Lincs,-0.007711,53.36596,0.4676738894007946,0.2601895377314578
423,Lewes,0.00878,50.873870000000004,0.5652151275280582,0.10056281635643438
424,Chatteris,0.054012,52.4561,0.39470878976277823,0.11672843234342586
425,Uckfield,0.095913,50.966409999999996,0.5790805904222397,0.10465080458027098
426,Cambridge,0.12181700000000001,52.20534,0.7533001369650341,0.05753472670864051
427,Bishop's Stortford,0.15365020000000001,51.87216,0.6024601425737999,0.09383528663881012
428,Wisbech,0.158797,52.66631999999999,0.443957025638379,0.22303816776102542
429,Sevenoaks,0.190898,51.27241,0.6617125587715128,0.052146911546035436
430,Tunbridge Wells,0.26369499999999996,51.13238,0.6261583892533985,0.0826143650662306
431,Eastbourne,0.29047199999999995,50.768029999999996,0.6004020306748138,0.09866453877569177
432,Brentwood,0.30717490000000003,51.620470000000005,0.769338639437945,0.11461861253594972
433,Skegness,0.337881,53.1464,0.4578821605003603,0.24207779813906702
434,Downham Market,0.385472,52.606609999999996,0.4085161630874142,0.12632499023073435
435,King's Lynn,0.4022963,52.75168000000001,0.5436089906873789,0.172719622701105
436,Bexhill,0.4662071,50.849909999999994,0.49895625996436876,0.08873807897667398
437,Chelmsford,0.4685497,51.73559,0.602412956188058,0.11314533231129927
438,Mildenhall,0.5156095,52.347570000000005,0.5443894437664227,0.07779622510967905
439,Medway,0.5417860999999999,51.404740000000004,0.5868817249234048,0.13177409849065805
440,Braintree,0.5509269,51.88009,0.5580163474360786,0.04555328490998323
441,Gillingham,0.551438,51.38632,0.7216152285421722,0.1294920656172338
442,Hastings,0.573453,50.85426,0.5832141120924653,0.08053205659153057
443,Maldon,0.6714479999999999,51.731809999999996,0.5571558040753065,0.11102421882101517
444,Southend,0.7077123000000001,51.54593,0.6498029729581741,0.11268499451999282
445,Bury St Edmunds,0.7104931999999999,52.24292,0.6630771629455959,0.05112130643403453
446,Thetford,0.751657,52.412859999999995,0.4925218343589801,0.05583818367531077
447,Ashford,0.8750190000000001,51.14647,0.56166632935737,0.13189627865968268
448,Faversham,0.889358,51.31599,0.5474780548079219,0.11639046181999566
449,Colchester,0.891874,51.89593,0.6624591709938806,0.05951272137771512
450,New Romney,0.939473,50.98512,0.4287160297652586,0.09410899872381395
451,Canterbury,1.0789089,51.280229999999996,0.638193772255859,0.11357494618973529
452,Ipswich,1.14822,52.056740000000005,0.666906264127123,0.08145087263653582
453,Clacton,1.153035,51.78953,0.4980309791762816,0.08326023329617031
454,Folkestone,1.169456,51.0814,0.5562747593932587,0.0944586728066259
455,Sheringham,1.2109589,52.944419999999994,0.37904639173655724,0.15387531968870027
456,Harwich,1.260297,51.93473,0.4342975904612872,0.059464139211832044
457,Norwich,1.297355,52.63089,0.7260502744534872,0.12363404706486361
458,Cromer,1.301866,52.93145,0.46775363119808805,0.14581045767525355
459,Cromer,1.301866,52.93145,0.46775363119808805,0.14581045767525355
460,Dover,1.3134027,51.12788,0.5239444391881379,0.10452232305001005
461,Felixstowe,1.3512549999999999,51.961729999999996,0.5076440490681475,0.06021134191657347
462,Margate,1.3868339,51.38965,0.5549966585728693,0.10524715534451438
463,Ramsgate,1.4198950000000001,51.33555,0.5499075769478355,0.11158100701058775
464,Great Yarmouth,1.728047,52.59823000000001,0.5559678912692342,0.10943184190236328
465,Lowestoft,1.7534490000000003,52.48114,0.5708719056763274,0.10904699576162805
466,Swaffham,0.687481,52.64747,0.40287310688558947,0.14068163669127462
467,Dereham,0.9378270000000001,52.681619999999995,0.6350577283814405,0.15037845386043333
468,Ely,0.262363,52.39954,0.5204766643638862,0.06751166411831135
469,March,0.088622,52.551719999999996,0.43256438409324005,0.17746611831400325
470,St Neots,-0.26510300000000003,52.23008,0.49285795938542903,0.08430315336622167
471,Banham,1.0402849,52.45125,0.5067916598998863,0.10216642847864585
472,Holt,1.086747,52.90936,0.46551894417030765,0.15861167427032571
473,Hunstanton,0.49103199999999997,52.93891,0.3406517885004651,0.17591448394329914
474,Horncastle,-0.11245,53.20731,0.40527295681003955,0.21430120592694318
475,Market Weighton,-0.6677465,53.86484,0.3663246344547906,0.40556083814380645
476,Hawes,-2.1968695,54.303830000000005,0.015611983425471288,0.3255649797672709
477,Reeth,-1.9428115000000001,54.38946,0.40932416905725766,0.43550789505091114
478,Aysgarth,-1.9967433999999997,54.29159,0.24403607351342826,0.4094951334556324
479,Stanhope,-2.011302,54.74946,0.5085508878204041,0.4317963487134894
480,Keswick,-3.134706,54.60128,0.35591029310100364,0.49845333601558955
481,Oxenholme,-2.7243327999999996,54.30134,0.30150791867515814,0.40114556779499755
