index,placename,longitude,latitude,hw,kw,w
0,Dingle,-10.264013499999999,52.14094,0.030290443336283338,0.2343735414723956,0.10776832044754718
1,Tralee,-9.6999325,52.27131,0.04255812192950608,0.3292952052334088,0.16897529871264605
2,Killarney,-9.5044265,52.059940000000005,0.024875086099637764,0.4811800827913418,0.27671114128346563
3,Bantry,-9.4539805,51.68035,0.01,0.01,0.12698300060743203
4,Mayo,-9.4289369,54.01526,0.040829835668856396,0.3159225197599895,0.16035238128066395
5,Ballycastle,-9.3724643,54.279669999999996,0.02317467119066003,0.11207186113588474,0.026624208191201627
6,Abbeyfeale,-9.2970823,52.386179999999996,0.014484170602201522,0.11207186113588474,0.02890627785852478
7,Ennistymon,-9.2934951,52.940369999999994,0.014484170602201522,0.11207186113588474,0.02890627785852478
8,Galway,-9.0567905,53.270669999999996,0.0812249784087918,0.6284815852425636,0.36189537125308624
9,Claremorris,-9.0017356,53.72388,0.05745342572363102,0.4445482262202132,0.24329225514829267
10,Clare,-8.9811351,52.90453,0.05644761147033139,0.4367656973878646,0.23827395843692892
11,Adare,-8.7925892,52.56363,0.02859682926537098,0.22126913348204647,0.09931839254634953
12,Charleville,-8.681017599999999,52.36206,0.014484170602201522,0.11207186113588474,0.02890627785852478
13,Mallow,-8.6539164,52.13898,0.014939446402585538,0.28898649950633154,0.1488681368455149
14,Limerick,-8.6267343,52.66384,0.07667795619900815,0.5932988153296492,0.33920896913957627
15,Loughrea,-8.5660931,53.19891,0.014484170602201522,0.11207186113588474,0.02890627785852478
16,Sligo,-8.476088800000001,54.27661,0.09551024341112607,0.4618840391979435,0.24506551927905382
17,Cork,-8.4756035,51.898509999999995,0.01,0.01,0.4662080417450774
18,Nenagh,-8.19834,52.8635,0.04613902366169787,0.35700257852342304,0.1868414477828378
19,Roscommon,-8.1890955,53.627590000000005,0.04810274990657852,0.3721969904831734,0.19663904303899446
20,Tipperary,-8.161851400000002,52.47379,0.05851350127554371,0.45275060406499273,0.2485812770909712
21,Donegal,-8.1096143,54.653830000000006,0.1415223566588258,0.4977431956845022,0.2573225232646328
22,Leitrim,-8.0020132,54.12469,0.06888286115965112,0.3331149938230033,0.1646552852641508
23,Athlone,-7.9406898,53.423930000000006,0.04450858054310108,0.3443869583546323,0.17870669793883995
24,Longford,-7.7932573000000005,53.727630000000005,0.04703217595018608,0.3639133808052902,0.1912976415356739
25,Offaly,-7.7122229,53.235690000000005,0.05691694084430964,0.4403971525724292,0.24061557772324843
26,Fermanagh,-7.6318728,54.343830000000004,0.0584431499436372,0.28262893272318546,0.1331291061602628
27,Enniskillen,-7.631533599999999,54.343819999999994,0.07162479675709534,0.34637489395242366,0.17293547146353092
28,Doon,-7.60964,54.185930000000006,0.04663547117259486,0.22552743062728012,0.09747189419006527
29,Westmeath,-7.4653217000000005,53.534530000000004,0.04492313030454867,0.34759455405167605,0.18077500597657598
30,Strabane,-7.4633103,54.82739,0.10223793939522813,0.3595773832219163,0.17385786739316997
31,Cavan,-7.3633319,53.98972,0.05138553643146911,0.39759768519056465,0.21301780956365224
32,Mullingar,-7.340186800000001,53.525819999999996,0.044077985022310716,0.34105520793984384,0.17655833299091703
33,Laois,-7.332300699999999,52.99429,0.05541870868011271,0.42880452005885794,0.23314046637164082
34,Omagh,-7.309959700000001,54.59771,0.10774590124110217,0.37894923792811536,0.1855602209481257
35,Derry,-7.308574799999999,54.99661,0.1560424765517444,0.5488113876497236,0.28817233330363373
36,Derry,-7.308574799999999,54.99661,0.1560424765517444,0.5488113876497236,0.28817233330363373
37,Kilkenny,-7.2447879,52.65415,0.0625583704717173,0.48404794454215366,0.2687622933357346
38,Tyrone,-7.131232000000001,54.491209999999995,0.08287541126284936,0.2914781312261699,0.1327197556445191
39,Waterford,-7.110070200000001,52.25932,0.027605728139606642,0.534001229122364,0.31184662254873013
40,Monaghan,-6.9683132,54.2492,0.07963072753953873,0.3850912820095328,0.19711204134349838
41,Carlow,-6.934135899999999,52.83651,0.05767404965668256,0.4462553129058979,0.24439301143012954
42,Kildare,-6.8194707999999995,53.21204,0.0700558520927268,0.542060014558155,0.30616938638377256
43,Dungannon,-6.7669352,54.508269999999996,0.08499298026877516,0.2989257570923282,0.13721879573916365
44,Cookstown,-6.7443895000000005,54.641819999999996,0.101194476665888,0.355907457948332,0.1716409003694597
45,Coleraine,-6.6646103000000005,55.132580000000004,0.21255674987324275,0.48372546061518645,0.22915473448522422
46,Meath,-6.656416900000001,53.60555,0.06249163249284939,0.4835315567070754,0.26842931835672906
47,Armagh,-6.652792,54.350280000000005,0.07919372374775377,0.3829779476771554,0.19579236309533402
48,Armagh,-6.652792,54.350280000000005,0.07919372374775377,0.3829779476771554,0.19579236309533402
49,Magherafelt,-6.607980499999999,54.75536999999999,0.10735301602068792,0.3775674354358234,0.18472548717827425
50,Louth,-6.4889423,53.925230000000006,0.06292856419236882,0.48691233356336056,0.27060929632343206
51,Wexford,-6.4633381,52.33692,0.02628477180147349,0.5084488399728079,0.29484972731626724
52,Craigavon,-6.4175653,54.442930000000004,0.12233465862697766,0.4302588323536595,0.21655585992207257
53,Drogheda,-6.3560985,53.717859999999995,0.04906373469109072,0.37963264947128145,0.20143367263185186
54,Rosslare,-6.3414908,52.25131,0.01,0.01,0.03423112260038668
55,Newry,-6.34023,54.1751,0.0888851479073818,0.4298453199773299,0.22505884063539372
56,Ballymena,-6.2802213,54.86529,0.1186916413006515,0.41744610700941603,0.20881581415697106
57,Banbridge,-6.2704803,54.34873,0.07570458253654812,0.3661045885650171,0.1852557411076977
58,Dublin,-6.2603097000000005,53.34981,0.12924002916878283,1.0,0.6014562748039793
59,Antrim,-6.2072498,54.719530000000006,0.1281014849497875,0.45054113001064855,0.2288082034218915
60,Antrim,-6.2072498,54.719530000000006,0.1281014849497875,0.45054113001064855,0.2288082034218915
61,Wicklow,-6.044589,52.980819999999994,0.06257501055133502,0.48417669783728007,0.2688453154807763
62,Kilkeel,-6.007004,54.06312,0.03452961822009798,0.26717433013732567,0.12891878367527945
63,Belfast,-5.93012,54.597280000000005,0.2333545245863373,0.8207228139582973,0.4524314450177514
64,Down,-5.7156921999999994,54.32875,0.09422288392066284,0.4556584158499279,0.2411779092649781
65,Balivanich,-7.3743509000000005,57.472269999999995,0.11646559382143667,0.12873676252824692,0.013437917569847056
66,Western Isles,-7.0194034,57.759890000000006,0.2603475823691256,0.26505922762151074,0.06818468381096755
67,Dunvegan,-6.581398200000001,57.4366,0.1100796918490985,0.11207186113588474,0.01
68,Stornoway,-6.384869200000001,58.209430000000005,0.352808876823135,0.01,0.10629876598243124
69,Scilly Isles,-6.327496599999999,49.92773,0.01,0.01,0.14530611154670964
70,Portree,-6.1960231,57.41246999999999,0.3367705947971861,0.34286530694960915,0.100927588925597
71,Islay,-6.177067,55.73625,0.20797838552267695,0.2774553949817348,0.09035046907028796
72,Mull,-6.0008870000000005,56.4392,0.2531313836676425,0.279802075088633,0.08008637834227134
73,Broadford,-5.9096592,57.24139,0.1100796918490985,0.11207186113588474,0.01
74,Kyle of Lochalsh,-5.7143293,57.28261,0.11297652537858466,0.01,0.01
75,Campbeltown,-5.605373999999999,55.424119999999995,0.24463330352277934,0.2957594146876824,0.09314903073607647
76,Penzance,-5.537592,50.1188,0.01,0.01,0.2652245710398185
77,Oban,-5.471047,56.41516,0.33738337537507856,0.3729311125415433,0.12117395095741297
78,Lochgilphead,-5.4323449,56.03829,0.19847969728079587,0.23996012909865494,0.06739474035535488
79,Helston,-5.274996,50.10159,0.01,0.01,0.18979410928539248
80,Redruth,-5.226666000000001,50.23302,0.01,0.01,0.21719254410497085
81,Ullapool,-5.161313,57.895419999999994,0.2885261332563833,0.01,0.06487667608268943
82,Ballachulish,-5.133719999999999,56.673930000000006,0.11297652537858466,0.01,0.01
83,Fort William,-5.1052179,56.81981999999999,0.36332886510145257,0.01,0.1107612453357675
84,Achnasheen,-5.078765799999999,57.578590000000005,0.12166702892181383,0.01,0.01
85,Newquay,-5.0737190000000005,50.4155,0.01,0.01,0.2569111169993943
86,Falmouth,-5.066269999999999,50.152570000000004,0.01,0.01,0.28035212612794974
87,Rothesay,-5.055793,55.83596,0.29121776965607743,0.35207960592378473,0.11914374633289375
88,Truro,-5.051041000000001,50.2632,0.01,0.01,0.404217988455866
89,Milford Haven,-5.0426971,51.71431,0.01,0.01,0.1782353455841634
90,Stranraer,-5.024055000000001,54.903369999999995,0.14535237816180646,0.3307852896685804,0.14299354539243092
91,Fishguard,-4.975989,51.99393,0.01,0.01,0.13433626777991284
92,Inchnadamph,-4.974295,58.15221,0.12166702892181383,0.01,0.01
93,Haverfordwest,-4.971319,51.80048,0.01,0.01,0.2000758457573329
94,Dunoon,-4.926214,55.95097,0.2916653860567936,0.3223961370091069,0.09887843998057853
95,Pembroke,-4.908637000000001,51.674040000000005,0.01,0.01,0.2652865730516209
96,Girvan,-4.8542179,55.240159999999996,0.2589186717369757,0.3130302935123855,0.10112044513119425
97,Wadebridge,-4.836456,50.51665,0.01,0.01,0.2080273510852143
98,Invergarry,-4.800261,57.07095,0.13035752951027235,0.01,0.01
99,St Austell,-4.7834252,50.340379999999996,0.01,0.01,0.2283914224761606
100,Greenock,-4.7719830000000005,55.956480000000006,0.44808784195282947,0.49529973796139665,0.17516172877907846
101,Helensburgh,-4.734014,56.00232,0.30807155382626333,0.340530908445339,0.10687931445135726
102,Bodmin,-4.7188629,50.4715,0.01,0.01,0.19073808157015976
103,Tenby,-4.703579,51.672740000000005,0.01,0.01,0.2000758457573329
104,Camelford,-4.682364,50.62206,0.01,0.01,0.13599726395968542
105,Irvine,-4.6696364,55.61156999999999,0.4388498519552466,0.5305654360260638,0.2015242974237156
106,Cardigan,-4.660864,52.0837,0.01,0.01,0.16540313343086668
107,Holyhead,-4.633038,53.30944,0.04208115977124225,0.32560469106893947,0.16659559726935452
108,Ayr,-4.629179,55.45856,0.4716826806422644,0.5702600240285067,0.21984542707916507
109,Dumbarton,-4.564554,55.94529,0.47260470369088775,0.01,0.1571150207034574
110,Bude,-4.543678,50.826640000000005,0.01,0.01,0.20102927676098298
111,Isle of Man,-4.5126330999999995,54.27697,0.11166266040894374,0.5399965362381559,0.2938431129018318
112,Kilmarnock,-4.498792,55.61472,0.4955044949562921,0.5044718968424606,0.1689360181441805
113,Newton Stewart,-4.483164,54.9603,0.18399279012566505,0.27377919026809044,0.09415371462248436
114,Liskeard,-4.4647190000000005,50.45552,0.01,0.01,0.20703369638715519
115,Altnaharra,-4.442655,58.28023,0.11297652537858466,0.01,0.01
116,Pwllheli,-4.417633900000001,52.888819999999996,0.01,0.01,0.16540313343086668
117,Lairg,-4.402414,58.022059999999996,0.11297652537858466,0.01,0.01
118,Launceston,-4.360451599999999,50.636829999999996,0.01,0.01,0.18883459718746215
119,Carmarthen,-4.312131,51.857620000000004,0.01,0.01,0.25649484386339383
120,Llangefni,-4.311401999999999,53.25578,0.021289648679527616,0.411823897741719,0.23057691077718737
121,Caernarfon,-4.273911,53.13955,0.020198307520010828,0.39071315153619995,0.216534500126888
122,Cumnock,-4.265828900000001,55.45355,0.3308333624010912,0.3999744933084856,0.14124974329031906
123,Aberaeron,-4.2581619,52.24279,0.01,0.01,0.15192745366223856
124,Alness,-4.256825,57.69595,0.3491708944645219,0.01,0.10475556833490408
125,Glasgow,-4.251806,55.86424,0.9997812310080337,0.01,0.38073830872222675
126,Dalwhinnie,-4.242783,56.9366,0.12166702892181383,0.01,0.01
127,Inverness,-4.224721,57.47776999999999,0.5618126293970771,0.01,0.19495617756466
128,Saltash,-4.21643,50.409209999999995,0.01,0.01,0.19185111512247807
129,Bideford,-4.206666,51.01668,0.01,0.01,0.22052336296294275
130,Invergordon,-4.1728819999999995,57.688109999999995,0.35328276553906707,0.01,0.10649978508574948
131,Llanelli,-4.160248,51.680890000000005,0.01,0.01,0.2929122434286376
132,Plymouth,-4.1426565,50.37546,0.01,0.01,0.42930271551540805
133,Tavistock,-4.141654,50.551120000000004,0.01,0.01,0.220639253556496
134,Porthmadog,-4.1333839999999995,52.92784,0.01,0.01,0.2045526224237147
135,Bangor,-4.129263,53.22739,0.026350089911304515,0.5097123440817132,0.29569018285407056
136,Tywyn,-4.087249,52.58701,0.01,0.01,0.11970738079733548
137,Aberystwyth,-4.08292,52.4153,0.01,0.01,0.2804033301075627
138,Lampeter,-4.0785089999999995,52.1129,0.01,0.01,0.16743597575251365
139,Barnstaple,-4.058338,51.07816,0.01,0.01,0.2834179332781437
140,Tain,-4.05523,57.8115,0.26271810103781107,0.01,0.06808311248244917
141,Okehampton,-4.004263,50.73831,0.01,0.01,0.1635953932308488
142,Llandeilo,-3.9914300000000003,51.88469,0.01,0.01,0.21804126554187156
143,Motherwell,-3.9810968,55.78321,0.6750773501130694,0.01,0.20988535496626978
144,Golspie,-3.976086,57.97341,0.11297652537858466,0.01,0.01
145,Airdrie,-3.9625660000000003,55.86626999999999,0.5912440197245836,0.01,0.1784365845163967
146,Swansea,-3.9436459999999998,51.62144,0.01,0.01,0.4472275818953889
147,Stirling,-3.9369029,56.116519999999994,0.6333645654182324,0.01,0.19423745234073983
148,Tregaron,-3.934385,52.22,0.01,0.01,0.1635953932308488
149,Tregaron,-3.934385,52.22,0.01,0.01,0.1635953932308488
150,Castle Douglas,-3.9314139999999997,54.940419999999996,0.20293391020291618,0.30196336266951296,0.1083099907051603
151,Dolgellau,-3.8844,52.74215,0.01,0.01,0.1276458316024719
152,Aberfeldy,-3.866969,56.62175,0.3757631317838407,0.01,0.09760227971447279
153,Machynlleth,-3.853485,52.59027,0.01,0.01,0.1574112996836936
154,Brora,-3.8525480000000005,58.012159999999994,0.23133892541497156,0.01,0.05477236349328499
155,Llandudno,-3.827609,53.324059999999996,0.01,0.01,0.2632136712225987
156,Llandudno,-3.827609,53.324059999999996,0.01,0.01,0.2632136712225987
157,Aviemore,-3.823812,57.19449,0.3198913460475,0.01,0.0923354613129915
158,Dalbeattie,-3.8225269999999996,54.934219999999996,0.18607471817778998,0.01,0.07390969273002473
159,Falkirk,-3.7839131,56.00188000000001,0.6344871494980298,0.01,0.194658572304275
160,Kingsbridge,-3.777493,50.28395,0.01,0.01,0.19991547983249713
161,Pitlochry,-3.729711,56.70436,0.29154011521577144,0.01,0.06600732455319173
162,Colwyn Bay,-3.72764,53.29318000000001,0.01,0.01,0.24327376104528461
163,Totnes,-3.685797,50.43374,0.01,0.01,0.2077450519249061
164,Grantown-on-Spey,-3.609628,57.33041,0.2470484961896694,0.01,0.061436214571555924
165,Dumfries,-3.60512,55.070859999999996,0.3607758698436545,0.01,0.18401088588629885
166,Whitehaven,-3.589233,54.5497,0.09591754986989152,0.01,0.21691023094483908
167,Dartmouth,-3.578807,50.35252,0.01,0.01,0.17259001477483996
168,Bridgend,-3.576945,51.504290000000005,0.01,0.01,0.3462427356029535
169,Paignton,-3.564235,50.43508,0.01,0.01,0.29383091262720595
170,Workington,-3.5427519999999997,54.64357,0.1581666908127067,0.01,0.1975357216263947
171,Llanidloes,-3.5401949999999998,52.447790000000005,0.01,0.01,0.14014863092839933
172,Exeter,-3.533899,50.71841,0.01,0.01,0.46244917229306864
173,Torquay,-3.525315,50.46192,0.01,0.01,0.30072229952214696
174,Thurso,-3.5220800000000003,58.59356999999999,0.3298035954753787,0.01,0.09654014360414914
175,Livingston,-3.518068,55.90071,0.626005353576187,0.01,0.19147675843963888
176,Rhyl,-3.4916339999999995,53.319140000000004,0.01,0.01,0.2398604878043642
177,Tiverton,-3.491207,50.90205,0.01,0.01,0.21887910542839567
178,Tiverton,-3.491207,50.90205,0.01,0.01,0.21887910542839567
179,Minehead,-3.481152,51.20428,0.01,0.01,0.17411991582755587
180,Dunfermline,-3.452151,56.071740000000005,0.5997240989538282,0.01,0.1816177543904958
181,Perth,-3.4308381000000003,56.39499,0.42676796011896334,0.01,0.11673594803843529
182,Prestatyn,-3.4076129999999996,53.33651,0.01,0.01,0.2068904508052796
183,Builth Wells,-3.4045919999999996,52.15002,0.01,0.01,0.18726557495457896
184,Braemar,-3.3979439,57.00646999999999,0.11297652537858466,0.01,0.01
185,Brecon,-3.391463,51.94895,0.01,0.01,0.21887910542839567
186,Merthyr Tydfil,-3.381646,51.74873,0.01,0.01,0.3917248864376422
187,Llandrindod Wells,-3.377742,52.2417,0.01,0.01,0.16480751016745437
188,Corwen,-3.369242,52.98005,0.01,0.01,0.13019927837098708
189,Cockermouth,-3.367985,54.66326,0.17792036107940015,0.01,0.13684952939391865
190,Lockerbie,-3.349008,55.122240000000005,0.32801267130861966,0.01,0.16336266911196112
191,Blairgowrie,-3.3378318,56.58941,0.32854955307875156,0.01,0.09600819070124611
192,Elgin,-3.318485,57.64945,0.5142486090103212,0.01,0.1747799707741036
193,Newtown,-3.313106,52.51211,0.01,0.01,0.1483159647648575
194,Ruthin,-3.3103108,53.114869999999996,0.01,0.01,0.20181258992392434
195,Ruthin,-3.3103108,53.114869999999996,0.01,0.01,0.20181258992392434
196,Sidmouth,-3.2375599999999998,50.67865,0.01,0.01,0.20196805739622492
197,Barrow-in-Furness,-3.2188939999999997,54.10896999999999,0.01,0.01,0.2930001690937417
198,Peebles,-3.1936419999999996,55.65306999999999,0.3752267082800183,0.01,0.0974010487773568
199,Edinburgh,-3.1882669999999997,55.95325,1.0,0.01,0.3317750351555948
200,Cardiff,-3.17909,51.48158,0.01,0.01,0.5586918209896057
201,Llangollen,-3.1716599999999997,52.96921,0.01,0.01,0.15977793818802105
202,Kirkcaldy,-3.158137,56.11682,0.6088553128777189,0.01,0.21491123817918292
203,Welshpool,-3.146407,52.66035,0.01,0.01,0.20071311956553534
204,Mold,-3.1419029999999997,53.1672,0.01,0.01,0.28469043114704023
205,Mold,-3.1419029999999997,53.1672,0.01,0.01,0.28469043114704023
206,Taunton,-3.106849,51.01534,0.01,0.01,0.31405372851467034
207,Wick,-3.093716,58.43894,0.31629614817581103,0.01,0.09081041243944499
208,John o' Groats,-3.0688997000000002,58.63734,0.11297652537858466,0.01,0.01
209,Dalkeith,-3.066606,55.893119999999996,0.5570555404959378,0.01,0.16561130809818095
210,Oswestry,-3.056412,52.85715,0.01,0.01,0.25153286671258906
211,Blackpool,-3.0356748,53.81751,0.01,0.01,0.41080464015069657
212,Birkenhead,-3.023009,53.389990000000004,0.01,0.01,0.4017952924993991
213,Cupar,-3.010137,56.32023,0.3369539985189932,0.01,0.09957327682692359
214,Southport,-3.010113,53.64571,0.01,0.01,0.34019946303249243
215,Bridgwater,-3.003632,51.12789,0.01,0.01,0.3652822606361116
216,Langholm,-2.998913,55.153059999999996,0.22712520337418618,0.01,0.06598377196188895
217,Newport,-2.997664,51.58415,0.01,0.01,0.39784428008737077
218,Axminster,-2.9949369999999997,50.78273,0.01,0.01,0.21533569003439315
219,Wrexham,-2.9924939999999998,53.043040000000005,0.01,0.01,0.3368947070668851
220,Liverpool,-2.9915726,53.40837,0.01,0.01,0.6128828738482939
221,Weston-super-Mare,-2.977255,51.347409999999996,0.01,0.01,0.32828134370755735
222,Dundee,-2.9707209999999997,56.462019999999995,0.6588665829703224,0.01,0.2361255451078651
223,Kirkwall,-2.9622491,58.984669999999994,0.33011414555074686,0.01,0.09667187600373403
224,Ambleside,-2.961333,54.428740000000005,0.034222740889053055,0.01,0.2532014031832088
225,Orkney Islands,-2.9605206,58.980940000000004,0.33780633824527384,0.01,0.09993483126310056
226,Lyme Regis,-2.936639,50.725159999999995,0.01,0.01,0.19506947683600687
227,Carlisle,-2.932931,54.892469999999996,0.43382964859953865,0.01,0.27308811516624043
228,Chester,-2.893075,53.19339,0.01,0.01,0.41215818106729
229,Forfar,-2.889062,56.64356,0.3959855590287921,0.01,0.12461390548552588
230,Morecambe,-2.864968,54.074169999999995,0.01,0.01,0.25101040177834444
231,Selkirk,-2.838524,55.55066,0.4365925251850524,0.01,0.12042148087008472
232,Galashiels,-2.814449,55.62373,0.4171848907756329,0.01,0.11314100857238961
233,Lancaster,-2.8007399,54.046569999999996,0.01,0.01,0.34084693275549693
234,St Andrews,-2.7967214,56.339780000000005,0.43781486231944505,0.01,0.1423574996189628
235,Hawick,-2.780914,55.42706,0.3802035395249765,0.01,0.09926802963884891
236,Bridport,-2.758301,50.733579999999996,0.01,0.01,0.20350147354245887
237,Shrewsbury,-2.7553267999999997,52.7073,0.01,0.01,0.3917091896231405
238,Penrith,-2.752708,54.6641,0.30027309520122675,0.01,0.2607760836386294
239,Kendal,-2.74629,54.32801,0.0386237655255013,0.01,0.2913389526895119
240,Street,-2.7429189999999997,51.12468,0.01,0.01,0.1656984140319089
241,Glastonbury,-2.718454,51.14743,0.01,0.01,0.1977911963940666
242,Hereford,-2.715974,52.0564,0.01,0.01,0.33654434120059584
243,Ludlow,-2.7139129,52.36775,0.01,0.01,0.23469273936033128
244,Preston,-2.70309,53.7632,0.01,0.01,0.46503477965386614
245,Whitchurch,-2.682045,52.96872,0.01,0.01,0.1964457812333664
246,Wells,-2.6445979,51.20935,0.01,0.01,0.22703728802386192
247,Yeovil,-2.633308,50.94206,0.01,0.01,0.2901397811219949
248,Wigan,-2.6325074,53.54506,0.01,0.01,0.4910650313967829
249,Warrington,-2.5969501,53.39004,0.01,0.01,0.508353576948624
250,Arbroath,-2.591543,56.55911,0.4261935624202186,0.01,0.13742785431069626
251,Bristol,-2.58791,51.45451,0.01,0.01,0.5843294202391087
252,Guernsey,-2.5852779999999997,49.46569,0.01,0.01,0.03423112260038668
253,Ross-on-Wye,-2.582446,51.91445,0.01,0.01,0.266149414765494
254,Jedburgh,-2.5549369,55.47772,0.3164333835678181,0.01,0.07534564713351628
255,Sedbergh,-2.5281740000000004,54.32363,0.023513560357509893,0.01,0.16039985435496282
256,Sedbergh,-2.5281740000000004,54.32363,0.023513560357509893,0.01,0.16039985435496282
257,Nantwich,-2.524102,53.06718000000001,0.01,0.01,0.2514584553270079
258,Banff,-2.524038,57.666509999999995,0.3177537958822646,0.01,0.09142873278566568
259,Dunbar,-2.516737,56.00209,0.49475917909726963,0.01,0.14224179670682469
260,Cinderford,-2.5009579,51.8253,0.01,0.01,0.24677032157572087
261,Banchory,-2.4909599,57.05386,0.3668509551412371,0.01,0.11225528255969906
262,Blackburn,-2.487529,53.748580000000004,0.01,0.01,0.3785868416353758
263,Market Drayton,-2.483485,52.90355,0.01,0.01,0.1659920357384028
264,Telford,-2.4672611,52.67759,0.01,0.01,0.3455568120646527
265,Montrose,-2.4661150000000003,56.70692,0.39138873618171705,0.01,0.12266397678757324
266,Turriff,-2.4623,57.53893000000001,0.33134480092493346,0.01,0.09719390835330412
267,Weymouth,-2.457621,50.61443,0.01,0.01,0.27467596818682377
268,Crewe,-2.4438209,53.1004,0.01,0.01,0.32574073837674566
269,Fortuneswell,-2.4422189999999997,50.55919,0.01,0.01,0.14955002841858517
270,Dorchester,-2.4411810000000003,50.71116,0.01,0.01,0.34702077905142853
271,Alston,-2.438685,54.812169999999995,0.183524785530632,0.01,0.07230265909433814
272,Kelso,-2.432207,55.600030000000004,0.3673733488135515,0.01,0.09445498307798943
273,Wincanton,-2.416007,51.055690000000006,0.01,0.01,0.1782353455841634
274,Clitheroe,-2.3930830000000003,53.8711,0.01,0.01,0.25835017911247393
275,Sark,-2.3666256000000003,49.43007,0.01,0.01,0.03423112260038668
276,Bath,-2.3590167,51.38106,0.01,0.01,0.41782842037516754
277,Kidderminster,-2.2496839,52.3886,0.01,0.01,0.2870834627546453
278,Manchester,-2.2426305,53.48076,0.01,0.01,0.7332986952715335
279,Burnley,-2.2405035,53.78929,0.01,0.01,0.34974329288839545
280,Gloucester,-2.238156,51.86424,0.01,0.01,0.4180892101743545
281,Newcastle-under-Lyme,-2.2273002,53.01321,0.01,0.01,0.29202788756318465
282,Worcester,-2.221575,52.19364,0.01,0.01,0.42269755992751534
283,Trowbridge,-2.208853,51.31966,0.01,0.01,0.4027650133864151
284,Shaftesbury,-2.198083,51.0046,0.01,0.01,0.19943182809966437
285,Alderney,-2.1973557,49.715,0.01,0.01,0.03423112260038668
286,Stoke-on-Trent,-2.179404,53.002669999999995,0.01,0.01,0.4135087330320068
287,Colne,-2.176991,53.85564,0.01,0.01,0.2466908992428841
288,Blandford Forum,-2.165353,50.85691,0.01,0.01,0.17336036525469584
289,Rochdale,-2.1561,53.60971,0.01,0.01,0.4174423635340614
290,Jersey,-2.13125,49.21444,0.01,0.01,0.03423112260038668
291,Wolverhampton,-2.12882,52.586969999999994,0.01,0.01,0.38802095881196413
292,Stafford,-2.12066,52.80669,0.01,0.01,0.38813459104829284
293,Macclesfield,-2.119287,53.25866,0.01,0.01,0.3636967546492424
294,Hexham,-2.1121439,54.97266,0.48213082167480203,0.01,0.1887492204450983
295,Aberdeen,-2.094278,57.149719999999995,0.7163487582411611,0.01,0.26050893922814816
296,Dudley,-2.081112,52.51225,0.01,0.01,0.37329219252176854
297,Cheltenham,-2.0782533,51.899390000000004,0.01,0.01,0.3951091803397302
298,Bromsgrove,-2.061906,52.33559,0.01,0.01,0.32120633492438727
299,Skipton,-2.0162787,53.96285,0.01,0.01,0.24645210886744107
300,Fraserburgh,-2.007631,57.69335,0.34433356854851027,0.01,0.10270362051381651
301,Berwick,-2.005395,55.77024,0.38235326915047696,0.01,0.11883121728177008
302,Poole,-1.987248,50.71505,0.01,0.01,0.3437203465599677
303,Walsall,-1.9829189999999999,52.586209999999994,0.01,0.01,0.3789941606155717
304,Cirencester,-1.968243,51.71849,0.01,0.01,0.3645129139294431
305,Evesham,-1.9467700000000001,52.09215,0.01,0.01,0.2586211964783633
306,Buxton,-1.91483,53.259080000000004,0.01,0.01,0.2975755539805975
307,Keighley,-1.9123580000000002,53.8678,0.01,0.01,0.3045677429637445
308,Birmingham,-1.8904009999999998,52.48624,0.01,0.01,0.6532345688648963
309,Bournemouth,-1.880769,50.719159999999995,0.01,0.01,0.41940892497710885
310,Halifax,-1.8575400000000002,53.727019999999996,0.01,0.01,0.3000778717895827
311,Salisbury,-1.794472,51.06878,0.01,0.01,0.32024609572306606
312,Ringwood,-1.7888169999999999,50.84495,0.01,0.01,0.2735687685087259
313,Huddersfield,-1.7850351000000002,53.645790000000005,0.01,0.01,0.4129392961420784
314,Peterhead,-1.784066,57.50812,0.4022234803395966,0.01,0.12725997260278446
315,Swindon,-1.7797176,51.55577,0.01,0.01,0.38473930341823853
316,Bradford,-1.759398,53.79598000000001,0.01,0.01,0.4468872675264526
317,Ashbourne,-1.7321790000000001,53.016630000000006,0.01,0.01,0.35305512333674033
318,Marlborough,-1.7270619999999999,51.42007,0.01,0.01,0.24410219445459447
319,Stratford-upon-Avon,-1.7082979999999999,52.19173,0.01,0.01,0.3106819660922949
320,Alnwick,-1.7062990000000002,55.41274,0.37884484759467496,0.01,0.11734297809923838
321,Otley,-1.691786,53.90583,0.01,0.01,0.23654968010135427
322,Bishop Auckland,-1.6787880000000002,54.663819999999994,0.13883008835631605,0.01,0.2300603005396172
323,Burton upon Trent,-1.6371358999999999,52.81403,0.01,0.01,0.33640924025675
324,Newcastle,-1.61778,54.97825,0.7527214474386354,0.01,0.3699301505796041
325,Durham,-1.5848520000000001,54.77525,0.3415376600089514,0.01,0.30257143349927973
326,Ashington,-1.5659829,55.18298000000001,0.3933064066501463,0.01,0.1459871463408893
327,Darlington,-1.559458,54.52361,0.0825114662829068,0.01,0.303312999829532
328,Leeds,-1.5490774,53.80076,0.01,0.01,0.5832021766073276
329,Harrogate,-1.5418120000000002,53.99211999999999,0.01,0.01,0.39905473366646455
330,Leamington Spa,-1.5200789,52.28519,0.01,0.01,0.3906998485970652
331,Coventry,-1.519693,52.40682,0.01,0.01,0.44511210186793093
332,Blyth,-1.510277,55.12696,0.4108462768395455,0.01,0.1544312349240688
333,Wakefield,-1.505924,53.6833,0.01,0.01,0.3773912544785909
334,Andover,-1.4919233,51.2112,0.01,0.01,0.2829231886160727
335,Witney,-1.4850543999999999,51.785940000000004,0.01,0.01,0.28570399273726466
336,Barnsley,-1.479726,53.55263000000001,0.01,0.01,0.3703392009236236
337,Derby,-1.4746186000000001,52.92253,0.01,0.01,0.4352261613478466
338,Sheffield,-1.470085,53.381130000000006,0.01,0.01,0.553469134241748
339,Nuneaton,-1.465382,52.52049,0.01,0.01,0.3736275862288056
340,Northallerton,-1.429959,54.337959999999995,0.01,0.01,0.2236940358173766
341,South Shields,-1.427406,54.99941999999999,0.4871337016110967,0.01,0.22410642661816807
342,Chesterfield,-1.421629,53.23505,0.01,0.01,0.3624808401425432
343,Southampton,-1.4043508999999998,50.9097,0.01,0.01,0.5240658235254447
344,Wetherby,-1.384816,53.92706,0.01,0.01,0.22005775303917108
345,Sunderland,-1.383801,54.90687,0.39153882841936594,0.01,0.290791913757944
346,Rotherham,-1.3635008999999998,53.4326,0.01,0.01,0.3755628577030449
347,Castleford,-1.345968,53.72346999999999,0.01,0.01,0.31603076718479906
348,Thirsk,-1.341377,54.23385,0.01,0.01,0.20071311956553534
349,Banbury,-1.339775,52.0629,0.01,0.01,0.2946966244860279
350,Stockton,-1.3289821000000002,54.57046,0.0417828071265403,0.01,0.3187139654204847
351,Newbury,-1.3231138999999998,51.40141,0.01,0.01,0.36424837866893595
352,Isle of Wight,-1.304734,50.69385,0.01,0.01,0.34228162999392664
353,Isle of Wight,-1.304734,50.69385,0.01,0.01,0.34228162999392664
354,Abingdon,-1.2879528999999998,51.67078,0.01,0.01,0.30371922409919977
355,Shetland Islands,-1.2659409,60.52965,0.23133892541497156,0.01,0.05477236349328499
356,Rugby,-1.265032,52.37088,0.01,0.01,0.34800866898877364
357,Oxford,-1.2577263,51.75202,0.01,0.01,0.49793283215292516
358,Middlesbrough,-1.234956,54.57423000000001,0.049864205612058524,0.01,0.3887441879893692
359,Hartlepool,-1.212926,54.69174,0.15995753543365163,0.01,0.2716698729034166
360,Loughborough,-1.206166,52.7721,0.01,0.01,0.38976097201417054
361,Mansfield,-1.198674,53.1472,0.01,0.01,0.3330235599140394
362,Nottingham,-1.1581086,52.95478000000001,0.01,0.01,0.5504420281936913
363,Bicester,-1.1535898999999998,51.8996,0.01,0.01,0.24532721730924262
364,Leicester,-1.1397591999999999,52.636880000000005,0.01,0.01,0.48376663641131984
365,Doncaster,-1.128462,53.522819999999996,0.01,0.01,0.3905571545753326
366,Worksop,-1.122745,53.3093,0.01,0.01,0.26991773044741707
367,Basingstoke,-1.0923964,51.26654,0.01,0.01,0.33745796950729107
368,Portsmouth,-1.0879769,50.81977,0.01,0.01,0.46292088947439075
369,York,-1.0872979,53.95997,0.01,0.01,0.4563310260536611
370,Selby,-1.067189,53.783519999999996,0.01,0.01,0.2490366251478413
371,Helmsley,-1.0562636,54.24651,0.01,0.01,0.11639361752091103
372,Towcester,-0.9896879999999999,52.13511,0.01,0.01,0.25593619208097573
373,Reading,-0.9781303,51.45426,0.01,0.01,0.44810800677143453
374,Retford,-0.9455030000000001,53.32136,0.01,0.01,0.21520998778511644
375,Petersfield,-0.93899,51.00759,0.01,0.01,0.23755035563862137
376,Northampton,-0.9026559999999999,52.24048,0.01,0.01,0.4361871843073245
377,Melton Mowbray,-0.887126,52.7664,0.01,0.01,0.2516072030677625
378,Aylesbury,-0.8084,51.81561,0.01,0.01,0.3724301343969049
379,Newark-on-Trent,-0.80657,53.070040000000006,0.01,0.01,0.3358125006135156
380,Malton,-0.7978970000000001,54.13684,0.01,0.01,0.2143231536411031
381,Chichester,-0.774936,50.83761,0.01,0.01,0.30104271140693123
382,Gainsborough,-0.774465,53.400569999999995,0.01,0.01,0.21010521038390906
383,Milton Keynes,-0.7594171,52.040620000000004,0.01,0.01,0.4255590429006363
384,Aldershot,-0.7557509,51.24837,0.01,0.01,0.3755080584152414
385,High Wycombe,-0.748229,51.628609999999995,0.01,0.01,0.347503924337328
386,Midhurst,-0.737274,50.9869,0.01,0.01,0.2308226783609024
387,Kettering,-0.7302489999999999,52.39632,0.01,0.01,0.3150136088365687
388,Wellingborough,-0.693964,52.30242,0.01,0.01,0.28232550619127567
389,Corby,-0.6842333,52.4923,0.01,0.01,0.3016402895448112
390,Bognor Regis,-0.673061,50.783,0.01,0.01,0.2853675263794442
391,Scunthorpe,-0.654413,53.58865,0.01,0.01,0.31078929474466277
392,Grantham,-0.643582,52.912519999999994,0.01,0.01,0.28070987578574685
393,Whitby,-0.613347,54.486340000000006,0.01,0.01,0.22890513283463992
394,Slough,-0.5950406,51.51054,0.01,0.01,0.3876630473119399
395,Guildford,-0.570409,51.23622,0.01,0.01,0.36980015300819313
396,Woking,-0.5600349,51.31677,0.01,0.01,0.44258671480005946
397,Lincoln,-0.540579,53.23069,0.01,0.01,0.4081293601186347
398,Bedford,-0.46677820000000003,52.13864,0.01,0.01,0.3773912544785909
399,Heathrow,-0.4542955,51.47002,0.01,0.01,0.47895921263925856
400,Driffield,-0.443377,54.006,0.01,0.01,0.19203458689940978
401,Beverley,-0.435093,53.84196,0.01,0.01,0.3138466923772527
402,Luton,-0.4200255,51.87867,0.01,0.01,0.40071585517981306
403,Scarborough,-0.399752,54.28311,0.01,0.01,0.3015608514276298
404,Worthing,-0.372882,50.81787,0.01,0.01,0.38053826374974004
405,Dorking,-0.332378,51.2322,0.01,0.01,0.3578786713202853
406,Hull,-0.3274198,53.767619999999994,0.01,0.01,0.454211149989468
407,Horsham,-0.325858,51.06288,0.01,0.01,0.28656292863912497
408,Biggleswade,-0.26421999999999995,52.086940000000006,0.01,0.01,0.2393340531139737
409,Peterborough,-0.2405299,52.5695,0.01,0.01,0.39814073840763975
410,Welwyn Garden City,-0.208661,51.80317,0.01,0.01,0.49914597761997637
411,Bridlington,-0.198802,54.08535,0.01,0.01,0.22921150782198296
412,Stevenage,-0.19661199999999998,51.90376,0.01,0.01,0.35177138537286906
413,Crawley,-0.18722750000000002,51.109140000000004,0.01,0.01,0.34141311778963385
414,Huntingdon,-0.182552,52.33146,0.01,0.01,0.24763828028167906
415,Hove,-0.168749,50.82793,0.01,0.01,0.3098186157195957
416,Spalding,-0.1537024,52.7901,0.01,0.01,0.26608810160070634
417,Brighton,-0.137163,50.82253,0.01,0.01,0.5214428745604583
418,London,-0.12775830000000002,51.50735,0.01,0.01,1.0
419,Grimsby,-0.08078400000000001,53.56746999999999,0.01,0.01,0.3359756204490585
420,Boston,-0.026576999999999996,52.97894,0.01,0.01,0.3382568941260423
421,Royston,-0.024066,52.048140000000004,0.01,0.01,0.211719765357291
422,Louth_Lincs,-0.007711,53.36596,0.01,0.01,0.22971909220430445
423,Lewes,0.00878,50.873870000000004,0.01,0.01,0.28931733165361145
424,Chatteris,0.054012,52.4561,0.01,0.01,0.1656984140319089
425,Uckfield,0.095913,50.966409999999996,0.01,0.01,0.3027840036541519
426,Cambridge,0.12181700000000001,52.20534,0.01,0.01,0.4993536004786543
427,Bishop's Stortford,0.15365020000000001,51.87216,0.01,0.01,0.3238115378117114
428,Wisbech,0.158797,52.66631999999999,0.01,0.01,0.20816802647708454
429,Sevenoaks,0.190898,51.27241,0.01,0.01,0.38003189690706607
430,Tunbridge Wells,0.26369499999999996,51.13238,0.01,0.01,0.34631594157437373
431,Eastbourne,0.29047199999999995,50.768029999999996,0.01,0.01,0.3225339027167311
432,Brentwood,0.30717490000000003,51.620470000000005,0.01,0.01,0.5370983714950235
433,Skegness,0.337881,53.1464,0.01,0.01,0.22029096913708995
434,Downham Market,0.385472,52.606609999999996,0.01,0.01,0.17486900130638477
435,King's Lynn,0.4022963,52.75168000000001,0.01,0.01,0.28035212612794974
436,Bexhill,0.4662071,50.849909999999994,0.01,0.01,0.2324940447878232
437,Chelmsford,0.4685497,51.73559,0.01,0.01,0.3268851635689037
438,Mildenhall,0.5156095,52.347570000000005,0.01,0.01,0.26772676611097723
439,Medway,0.5417860999999999,51.404740000000004,0.01,0.01,0.31446636745738527
440,Braintree,0.5509269,51.88009,0.01,0.01,0.2750051412756873
441,Gillingham,0.551438,51.38632,0.01,0.01,0.47098113317763124
442,Hastings,0.573453,50.85426,0.01,0.01,0.3030187569527289
443,Maldon,0.6714479999999999,51.7318,0.01,0.01,0.2835657740942233
444,Southend,0.7077123000000001,51.54593,0.01,0.01,0.3775705644398378
445,Bury St Edmunds,0.7104931999999999,52.24292,0.01,0.01,0.38140566957495736
446,Thetford,0.751657,52.412859999999995,0.01,0.01,0.2236940358173766
447,Ashford,0.8750190000000001,51.14647,0.01,0.01,0.29068360659294085
448,Faversham,0.889358,51.31599,0.01,0.01,0.27576796087671496
449,Colchester,0.891874,51.89593,0.01,0.01,0.382248907962493
450,New Romney,0.939473,50.98512,0.01,0.01,0.1842030944602884
451,Canterbury,1.0789089,51.280229999999996,0.01,0.01,0.36471593659384344
452,Ipswich,1.14822,52.056740000000005,0.01,0.01,0.39152065091965377
453,Clacton,1.153035,51.78953,0.01,0.01,0.23112059513983288
454,Folkestone,1.169456,51.0814,0.01,0.01,0.2804033301075627
455,Sheringham,1.2109589,52.944419999999994,0.01,0.01,0.16010717387899484
456,Harwich,1.260297,51.93473,0.01,0.01,0.1842030944602884
457,Norwich,1.297355,52.63089,0.01,0.01,0.47580806194952513
458,Cromer,1.301866,52.93145,0.01,0.01,0.21620883706269106
459,Cromer,1.301866,52.93145,0.01,0.01,0.21620883706269106
460,Dover,1.3134027,51.12788,0.01,0.01,0.2542347330058412
461,Felixstowe,1.3512549999999999,51.961729999999996,0.01,0.01,0.23562738954212856
462,Margate,1.3868339,51.38965,0.01,0.01,0.2808118004143605
463,Ramsgate,1.4198950000000001,51.33555,0.01,0.01,0.27721884395248586
464,Great Yarmouth,1.728047,52.59823000000001,0.01,0.01,0.2822755008268759
465,Lowestoft,1.7534490000000003,52.48114,0.01,0.01,0.2957664434787328
466,Swaffham,0.687481,52.64747,0.01,0.01,0.1728480196107958
467,Dereham,0.9378270000000001,52.681619999999995,0.01,0.01,0.36781231130770137
468,Ely,0.262363,52.39954,0.01,0.01,0.24661138982412661
469,March,0.088622,52.551719999999996,0.01,0.01,0.19541653637495163
470,St Neots,-0.26510300000000003,52.23008,0.01,0.01,0.22735219187229921
471,Banham,1.0402849,52.45125,0.01,0.01,0.2402092818476699
472,Holt,1.086747,52.90936,0.01,0.01,0.2160848196845804
473,Hunstanton,0.49103199999999997,52.93891,0.01,0.01,0.14113001336843617
474,Horncastle,-0.11245,53.20731,0.01,0.01,0.18162868063989857
475,Market Weighton,-0.6677465,53.86484,0.01,0.01,0.17657793368611588
476,Hawes,-2.1968695,54.303830000000005,0.01,0.01,0.03194904517400958
477,Reeth,-1.9428115000000001,54.38946,0.0562813961675701,0.01,0.19310720414354185
478,Aysgarth,-1.9967433999999997,54.29159,0.03497660486595183,0.01,0.10359499670395962
479,Stanhope,-2.011302,54.74946,0.33233595000740457,0.01,0.1990557604573213
480,Keswick,-3.134706,54.60128,0.14969353343641836,0.01,0.1400809040660214
481,Oxenholme,-2.7243327999999996,54.30134,0.020497899776392197,0.01,0.13426732518116583
