,placename,what_for,why,why_for_continuous,why_for_discontinuous,longitude,latitude
0,Dingle,0.3478848832882421,0.9316615,0.01,0.11043210780577555,-10.264013499999999,52.14094
1,Tralee,0.28870504246659223,0.9316615,0.01,0.08992273743645554,-9.6999325,52.27131
2,Killarney,0.3488453986532535,0.9316615,0.01,0.1105202624376963,-9.5044265,52.059940000000005
3,Bantry,0.36929607865031694,0.9316615,0.01,0.01,-9.4539805,51.68035
4,Mayo,0.6106728867185336,0.9316615,0.01,0.3561200363098488,-9.4289369,54.01526
5,Ballycastle,0.46811159304074984,0.9316615,0.01,0.2861757750739136,-9.3724643,54.279669999999996
6,Abbeyfeale,0.3682160262340233,0.9316615,0.01,0.18519709525641118,-9.2970823,52.386179999999996
7,Ennistymon,0.6902575615622846,0.9316615,0.01,0.41767683990875115,-9.2934951,52.940369999999994
8,Galway,0.7619876677139988,0.9316615,0.01,0.4706242898885446,-9.0567905,53.270669999999996
9,Claremorris,0.5898596578765213,0.9316615,0.01,0.4120325616567288,-9.0017356,53.72388
10,Clare,0.4762491129647635,0.9316615,0.01,0.2897456083871585,-8.9811351,52.90453
11,Adare,0.35985827687199945,0.9316615,0.01,0.19571031750955384,-8.7925892,52.56363
12,Charleville,0.39222750404105555,0.9316615,0.01,0.24376226354728697,-8.681017599999999,52.36206
13,Mallow,0.3005653680630188,0.9316615,0.01,0.206635675822267,-8.6539164,52.13898
14,Limerick,0.3807356338262292,0.9316615,0.01,0.09201402121161632,-8.6267343,52.66384
15,Loughrea,0.7458962930294711,0.9316615,0.01,0.468712749613593,-8.5660931,53.19891
16,Sligo,0.307226535087781,0.9316615,0.01,0.20899075880228016,-8.476088800000001,54.27661
17,Cork,0.30445243170707625,0.9316615,0.01,0.1773876694518693,-8.4756035,51.898509999999995
18,Nenagh,0.554857802942749,0.9316615,0.01,0.13002561718766617,-8.19834,52.8635
19,Roscommon,0.2555592463596749,0.9316615,0.01,0.25014711825471664,-8.1890955,53.627590000000005
20,Tipperary,0.34566908825293924,0.9316615,0.01,0.10040649172592754,-8.161851400000002,52.47379
21,Donegal,0.4650233181629097,0.9316615,0.01,0.20149476245719392,-8.1096143,54.653830000000006
22,Leitrim,0.4722959523629382,0.9316615,0.01,0.27885074276993543,-8.0020132,54.12469
23,Athlone,0.31339858462506015,0.9316615,0.01,0.19936739150471844,-7.9406898,53.423930000000006
24,Longford,0.2898525981589044,0.9316615,0.01,0.1987949818495069,-7.7932573000000005,53.727630000000005
25,Offaly,0.29937562282319513,0.9316615,0.01,0.5260295175939252,-7.7122229,53.235690000000005
26,Fermanagh,0.4471746081927038,0.9316615,0.01,0.2558471474568039,-7.6318728,54.343830000000004
27,Enniskillen,0.4471746081927038,0.9316615,0.01,0.2558471474568039,-7.631533599999999,54.343819999999994
28,Doon,0.7089967522486326,0.9316615,0.01,0.3371737697014386,-7.60964,54.185930000000006
29,Westmeath,0.17782022358772595,0.9316615,0.01,0.2513199099742632,-7.4653217000000005,53.534530000000004
30,Strabane,0.33011295829450726,0.9316615,0.01,0.2504676100550896,-7.4633103,54.82739
31,Cavan,0.5298185877583371,0.9316615,0.01,0.3055881561828662,-7.3633319,53.98972
32,Mullingar,0.25653776259829114,0.9316615,0.01,0.40196595630410586,-7.340186800000001,53.525819999999996
33,Laois,0.3992917218763774,0.9316615,0.01,0.21240372506079708,-7.332300699999999,52.99429
34,Omagh,0.507145643662019,0.9316615,0.01,0.4013834101125189,-7.309959700000001,54.59771
35,Derry,0.20870887890277925,0.9316615,0.01,0.2670728629744121,-7.308574799999999,54.99661
36,Kilkenny,0.44549462041079674,0.9316615,0.01,0.40621355278177573,-7.2447879,52.65415
37,Tyrone,0.46541314958191565,0.9316615,0.01,0.46884056413646896,-7.131232000000001,54.491209999999995
38,Waterford,0.539559029224137,0.9316615,0.01,0.2508393661418858,-7.110070200000001,52.25932
39,Monaghan,0.4924934950749329,0.9316615,0.01,0.01,-6.9683132,54.2492
40,Carlow,0.35177729094165106,0.9316615,0.01,0.19083450503569835,-6.934135899999999,52.83651
41,Kildare,0.3446798839956201,0.9316615,0.01,0.10154463643179741,-6.8194707999999995,53.21204
42,Dungannon,0.31607002677348695,0.9316615,0.01,0.4864541254706012,-6.7669352,54.508269999999996
43,Cookstown,0.3905615794416523,0.9316615,0.01,0.5578762161628015,-6.7443895000000005,54.641819999999996
44,Coleraine,0.37310270089045267,0.9316615,0.01,0.01,-6.6646103000000005,55.132580000000004
45,Meath,0.18625363287162033,0.9316615,0.01,0.18161945182497538,-6.656416900000001,53.60555
46,Armagh,0.15687142566637685,0.9316615,0.01,0.45328075923654493,-6.652792,54.350280000000005
47,Magherafelt,0.3102287432886978,0.9316615,0.01,0.5647011516434705,-6.607980499999999,54.75536999999999
48,Louth,0.531486481203291,0.9316615,0.01,0.4460713554554285,-6.4889423,53.925230000000006
49,Wexford,0.5511282469427345,0.9316615,0.01,0.186800135862822,-6.4633381,52.33692
50,Craigavon,0.09720696757564516,0.9316615,0.01,0.6398641781672965,-6.4175653,54.442930000000004
51,Drogheda,0.22471953091973493,0.9316615,0.01,0.22897676816644572,-6.3560985,53.717859999999995
52,Rosslare,0.5321575762723736,0.9316615,0.01,0.186800135862822,-6.3414908,52.25131
53,Newry,0.2198666079013147,0.9316615,0.01,0.25835311527335636,-6.34023,54.1751
54,Ballymena,0.5310831491290813,0.9316615,0.01,0.01,-6.2802213,54.86529
55,Banbridge,0.03042917,1.0,0.01,0.4770280605914508,-6.2704803,54.34873
56,Dublin,0.37065008186178533,0.9316615,0.01,0.20355516580050056,-6.2603097000000005,53.34981
57,Antrim,0.6160101457423856,0.9316615,0.01,0.7307507728139646,-6.2072498,54.719530000000006
58,Wicklow,0.43530021941377334,0.9316615,0.01,0.01,-6.044589,52.980819999999994
59,Kilkeel,0.4632426379942751,0.9316615,0.01,0.42938689353601384,-6.007004,54.06312
60,Belfast,0.6112818225209492,0.9316615,0.01,0.7058716690122872,-5.93012,54.597280000000005
61,Down,0.6412951853569644,0.9316615,0.01,0.3312853283218593,-5.7156921999999994,54.32875
62,Balivanich,0.5674781029216824,0.9316615,0.01,0.09835323380990196,-7.3743509000000005,57.472269999999995
63,Western Isles,0.5121406048237278,0.9316615,0.01,0.09725951261317471,-7.0194034,57.759890000000006
64,Dunvegan,0.5301397908467246,0.9316615,0.01,0.09818470696879673,-6.581398200000001,57.4366
65,Stornoway,0.5525252834926646,0.9316615,0.01,0.08889808870344505,-6.384869200000001,58.209430000000005
66,Scilly Isles,0.47389859264107415,0.9316615,0.01,0.24037715891607525,-6.327496599999999,49.92773
67,Portree,0.520168713187862,0.9316615,0.01,0.09818470696879673,-6.1960231,57.41246999999999
68,Islay,0.2988746922624088,0.9316615,0.01,0.37442659330842365,-6.177067,55.73625
69,Mull,0.4618169125520373,0.9316615,0.01,0.28155323753217104,-6.0008870000000005,56.4392
70,Broadford,0.5380351427680224,0.9316615,0.01,0.1001855373893068,-5.9096592,57.24139
71,Kyle of Lochalsh,0.5061083433205369,0.9316615,0.01,0.09934104758832413,-5.7143293,57.28261
72,Campbeltown,0.23926226794694141,0.9316615,0.01,0.39739850502151824,-5.605373999999999,55.424119999999995
73,Penzance,0.4697094518368345,0.9316615,0.01,0.2406014367072453,-5.537592,50.1188
74,Oban,0.5143718693597849,0.9316615,0.01,0.28809418382160057,-5.471047,56.41516
75,Lochgilphead,0.36592203990399913,0.9316615,0.01,0.399121300773523,-5.4323449,56.03829
76,Helston,0.4697094518368345,0.9316615,0.01,0.2406014367072453,-5.274996,50.10159
77,Redruth,0.46996540175840407,0.9316615,0.01,0.24064790968002664,-5.226666000000001,50.23302
78,Ullapool,0.5367480803052723,0.9316615,0.01,0.13313343492764618,-5.161313,57.895419999999994
79,Ballachulish,0.5327791689390426,0.9316615,0.01,0.01,-5.133719999999999,56.673930000000006
80,Fort William,0.5962558745429115,0.9316615,0.01,0.01,-5.1052179,56.81981999999999
81,Achnasheen,0.4975821170321173,0.9316615,0.01,0.10020365021660062,-5.078765799999999,57.578590000000005
82,Newquay,0.4629655932989498,0.9316615,0.01,0.24135472537630367,-5.0737190000000005,50.4155
83,Falmouth,0.46721689336985645,0.9316615,0.01,0.2411367898442319,-5.066269999999999,50.152570000000004
84,Rothesay,0.36331978861349123,0.9316615,0.01,0.34039580349609694,-5.055793,55.83596
85,Truro,0.46721689336985645,0.9316615,0.01,0.2411367898442319,-5.051041000000001,50.2632
86,Milford Haven,0.4090735090987385,0.9316615,0.01,0.6430335352073482,-5.0426971,51.71431
87,Stranraer,0.31330773646608545,0.9316615,0.01,0.1942139874896308,-5.024055000000001,54.903369999999995
88,Fishguard,0.4140271245038862,0.9316615,0.01,0.5886082557712896,-4.975989,51.99393
89,Inchnadamph,0.525825768981851,0.9316615,0.01,0.13208928859461297,-4.974295,58.15221
90,Haverfordwest,0.42453204057059396,0.9316615,0.01,0.650892009661947,-4.971319,51.80048
91,Dunoon,0.3852794480932153,0.9316615,0.01,0.40834770912062285,-4.926214,55.95097
92,Pembroke,0.4021842372537643,0.9316615,0.01,0.6375565098055203,-4.908637000000001,51.674040000000005
93,Girvan,0.18998290760798492,0.9316615,0.01,0.32344383118091646,-4.8542179,55.240159999999996
94,Wadebridge,0.47612001294937845,0.9316615,0.01,0.2445194849708954,-4.836456,50.51665
95,Invergarry,0.6691428180873903,0.9316615,0.01,0.01,-4.800261,57.07095
96,St Austell,0.46588876641419513,0.9316615,0.01,0.24040034001155675,-4.7834252,50.340379999999996
97,Greenock,0.4663806965381788,0.9316615,0.01,0.42828464213927664,-4.7719830000000005,55.956480000000006
98,Helensburgh,0.46047697252307274,0.9316615,0.01,0.4349570310561318,-4.734014,56.00232
99,Bodmin,0.489869586483369,0.9316615,0.01,0.24526535125812696,-4.7188629,50.4715
100,Tenby,0.4095783773506259,0.9316615,0.01,0.6421080915926348,-4.703579,51.672740000000005
101,Camelford,0.5090877691657973,0.9316615,0.01,0.24673825092347723,-4.682364,50.62206
102,Irvine,0.2157348448816907,0.9316615,0.01,0.33896957067171,-4.6696364,55.61156999999999
103,Cardigan,0.3992883467125765,0.9316615,0.01,0.6143229037421212,-4.660864,52.0837
104,Holyhead,0.21057084426628586,0.9316615,0.01,0.5731720002942365,-4.633038,53.30944
105,Ayr,0.21974369568623137,0.9316615,0.01,0.35399388395737474,-4.629179,55.45856
106,Dumbarton,0.40365215224351364,0.9316615,0.01,0.1986487498493367,-4.564554,55.94529
107,Bude,0.6032115246093038,0.9316615,0.01,0.3393634831221684,-4.543678,50.826640000000005
108,Isle of Man,0.669538274779398,0.9316615,0.01,0.18530125786107787,-4.5126330999999995,54.27697
109,Kilmarnock,0.24586465086883752,0.9316615,0.01,0.3556877379593457,-4.498792,55.61472
110,Newton Stewart,0.3363406980345015,0.9316615,0.01,0.27051845447842143,-4.483164,54.9603
111,Liskeard,0.4724787737354879,0.9316615,0.01,0.25167094986103533,-4.4647190000000005,50.45552
112,Altnaharra,0.5453128397137524,0.9316615,0.01,0.17192623659096873,-4.442655,58.28023
113,Pwllheli,0.38441146846907914,0.9316615,0.01,0.33491512229426484,-4.417633900000001,52.888819999999996
114,Lairg,0.5582231225159145,0.9316615,0.01,0.18083384256042484,-4.402414,58.022059999999996
115,Launceston,0.6527966185358933,0.9316615,0.01,0.3420407473252838,-4.360451599999999,50.636829999999996
116,Carmarthen,0.401499360265828,0.9316615,0.01,0.6106043458377941,-4.312131,51.857620000000004
117,Llangefni,0.19166486423544246,0.9316615,0.01,0.5700556523542466,-4.311401999999999,53.25578
118,Caernarfon,0.23028151959999815,0.9316615,0.01,0.5766395819891805,-4.273911,53.13955
119,Cumnock,0.18005430076028386,0.9316615,0.01,0.29522271687535007,-4.265828900000001,55.45355
120,Aberaeron,0.4813832996332604,0.9316615,0.01,0.5521888160880015,-4.2581619,52.24279
121,Alness,0.5435150024624632,0.9316615,0.01,0.18747452018178856,-4.256825,57.69595
122,Glasgow,0.39494085447334376,0.9316615,0.01,0.13597100042185717,-4.251806,55.86424
123,Dalwhinnie,0.6791243025013058,0.9316615,0.01,0.10258842272392107,-4.242783,56.9366
124,Inverness,0.5601478096733882,0.9316615,0.01,0.1916585278957481,-4.224721,57.47776999999999
125,Saltash,0.5151284685784908,0.9316615,0.01,0.3385545542848635,-4.21643,50.409209999999995
126,Bideford,0.6532463591123657,0.9316615,0.01,0.2442452168842126,-4.206666,51.01668
127,Invergordon,0.5497070217188978,0.9316615,0.01,0.1864020137032678,-4.1728819999999995,57.688109999999995
128,Llanelli,0.4119404294839684,0.9316615,0.01,0.7544161233187753,-4.160248,51.680890000000005
129,Plymouth,0.5319007825598536,0.9316615,0.01,0.3409860490240565,-4.1426565,50.37546
130,Tavistock,0.5473494698039565,0.9316615,0.01,0.25398435118190904,-4.141654,50.551120000000004
131,Porthmadog,0.26837811847556226,0.9316615,0.01,0.4031456718872968,-4.1333839999999995,52.92784
132,Bangor,0.20427841388677392,0.9316615,0.01,0.5697901083357558,-4.129263,53.22739
133,Tywyn,0.5796950708264061,0.9316615,0.01,0.23209408544734586,-4.087249,52.58701
134,Aberystwyth,0.527748206030124,0.9316615,0.01,0.2080019202920386,-4.08292,52.4153
135,Lampeter,0.4734820411753109,0.9316615,0.01,0.5833884380561246,-4.0785089999999995,52.1129
136,Barnstaple,0.6221017538757428,0.9316615,0.01,0.21217396356962062,-4.058338,51.07816
137,Tain,0.5675261990058457,0.9316615,0.01,0.17968990950454825,-4.05523,57.8115
138,Okehampton,0.6409483872764201,0.9316615,0.01,0.2243346222428621,-4.004263,50.73831
139,Llandeilo,0.4346234990716893,0.9316615,0.01,0.6634253106765313,-3.9914300000000003,51.88469
140,Motherwell,0.3120738328331997,0.9316615,0.01,0.2804981791900342,-3.9810968,55.78321
141,Golspie,0.5560753932839303,0.9316615,0.01,0.17824431755741157,-3.976086,57.97341
142,Airdrie,0.3235423581650697,0.9316615,0.01,0.2788320206426409,-3.9625660000000003,55.86626999999999
143,Swansea,0.4487693730886377,0.9316615,0.01,0.7870901682022504,-3.9436459999999998,51.62144
144,Stirling,0.4175448889753931,0.9316615,0.01,0.09270962024878937,-3.9369029,56.116519999999994
145,Tregaron,0.6419465919705416,0.9316615,0.01,0.49304963180554867,-3.934385,52.22
146,Castle Douglas,0.48532492842543257,0.9316615,0.01,0.5140037080890224,-3.9314139999999997,54.940419999999996
147,Dolgellau,0.6010618265317689,0.9316615,0.01,0.22857861831143694,-3.8844,52.74215
148,Aberfeldy,0.5788667493769308,0.9316615,0.01,0.11989373364860363,-3.866969,56.62175
149,Machynlleth,0.6673936394475645,0.9316615,0.01,0.20531205465709038,-3.853485,52.59027
150,Brora,0.5560753932839303,0.9316615,0.01,0.17824431755741157,-3.8525480000000005,58.012159999999994
151,Llandudno,0.21339979405875537,0.9316615,0.01,0.38611881106293827,-3.827609,53.324059999999996
152,Aviemore,0.6478981308061607,0.9316615,0.01,0.17019790174804847,-3.823812,57.19449
153,Dalbeattie,0.5724221553627276,0.9316615,0.01,0.5334180278797955,-3.8225269999999996,54.934219999999996
154,Falkirk,0.3669509023359791,0.9316615,0.01,0.21952209388271662,-3.7839131,56.00188000000001
155,Kingsbridge,0.5536669326483252,0.9316615,0.01,0.2412209563306935,-3.777493,50.28395
156,Pitlochry,0.4786601049732196,0.9316615,0.01,0.16047067649582045,-3.729711,56.70436
157,Colwyn Bay,0.24297016664590013,0.9316615,0.22073114625397036,0.30198705470140313,-3.72764,53.29318000000001
158,Totnes,0.5618466421198504,0.9316615,0.01,0.2660785961550733,-3.685797,50.43374
159,Grantown-on-Spey,0.5671208980860851,0.9316615,0.01,0.18620357577121868,-3.609628,57.33041
160,Dumfries,0.6329624684597974,0.9316615,0.01,0.5449375644750183,-3.60512,55.070859999999996
161,Whitehaven,0.6615351988801207,0.9316615,0.01,0.4654342724825054,-3.589233,54.5497
162,Dartmouth,0.562716028062237,0.9316615,0.01,0.2653986450497366,-3.578807,50.35252
163,Bridgend,0.4174335085699629,0.9316615,0.01,1.0,-3.576945,51.504290000000005
164,Paignton,0.5527159802474164,0.9316615,0.01,0.2427200005051651,-3.564235,50.43508
165,Workington,0.6618668087235609,0.9316615,0.01,0.4632403216572251,-3.5427519999999997,54.64357
166,Llanidloes,0.6783941420657073,0.9316615,0.01,0.22090584187978135,-3.5401949999999998,52.447790000000005
167,Exeter,0.6364850144133557,0.9316615,0.01,0.25091403308742727,-3.533899,50.71841
168,Torquay,0.543138952962311,0.9316615,0.01,0.24576145993597698,-3.525315,50.46192
169,Thurso,0.5278362415525979,0.9316615,0.01,0.1656534099973058,-3.5220800000000003,58.59356999999999
170,Livingston,0.4687289667526678,0.9316615,0.01,0.17738445677913828,-3.518068,55.90071
171,Rhyl,0.4607658302917013,0.9316615,0.18051258430193265,0.250978840451139,-3.4916339999999995,53.319140000000004
172,Tiverton,0.617721353789451,0.9316615,0.13968494153046845,0.22373385244216304,-3.491207,50.90205
173,Minehead,0.6437146152749226,0.9316615,0.18064564392815202,0.4912764580216672,-3.481152,51.20428
174,Dunfermline,0.43591562428014086,0.9316615,0.01,0.2604751410030983,-3.452151,56.071740000000005
175,Perth,0.5026254555416392,0.9316615,0.01,0.19355419867522672,-3.4308381000000003,56.39499
176,Prestatyn,0.453092957917614,0.9316615,0.18072010696671512,0.23920655513744038,-3.4076129999999996,53.33651
177,Builth Wells,0.9978089561659038,0.9316615,0.01,0.6739464538296832,-3.4045919999999996,52.15002
178,Braemar,0.6429965491762774,0.9316615,0.01,0.43622523361669846,-3.3979439,57.00646999999999
179,Brecon,0.5377085956702835,0.9316615,0.01,0.48746730828541646,-3.391463,51.94895
180,Merthyr Tydfil,0.4745604060097042,0.9316615,0.01,0.5653575893078706,-3.381646,51.74873
181,Llandrindod Wells,0.9705429766638364,0.9316615,0.01,0.23925809637840942,-3.377742,52.2417
182,Corwen,0.38330947748807936,0.9316615,1.0,0.1779670583616344,-3.369242,52.98005
183,Cockermouth,0.6564434830227853,0.9316615,0.01,0.49562777397673047,-3.367985,54.66326
184,Lockerbie,0.6718359175368729,0.9316615,0.01,0.41822213571393124,-3.349008,55.122240000000005
185,Blairgowrie,0.6144190372739027,0.9316615,0.01,0.1820312832345455,-3.3378318,56.58941
186,Elgin,0.5283993313800511,0.9316615,0.01,0.17118413688555975,-3.318485,57.64945
187,Newtown,0.8447956239876266,0.9316615,0.6736194551958746,0.2472567652240806,-3.313106,52.51211
188,Ruthin,0.4833394883195426,0.9316615,0.18509812694402927,0.2717662731844189,-3.3103108,53.114869999999996
189,Sidmouth,0.5448535361731774,0.9316615,0.14631385342157663,0.20505747803861232,-3.2375599999999998,50.67865
190,Barrow-in-Furness,0.5806581175642681,0.9316615,0.2810090797183197,0.2109812034273236,-3.2188939999999997,54.10896999999999
191,Peebles,0.5609879441961668,0.9316615,0.01,0.04861125574292946,-3.1936419999999996,55.65306999999999
192,Edinburgh,0.6052723433734144,0.9316615,0.01,0.15678673790971548,-3.1882669999999997,55.95325
193,Cardiff,0.6590614850776977,0.9316615,0.07857665457999076,0.4588517830112093,-3.17909,51.48158
194,Llangollen,0.5541723634275126,0.9316615,0.6036071843566366,0.1879888247732961,-3.1716599999999997,52.96921
195,Kirkcaldy,0.6019570887299623,0.9316615,0.01,0.15183800330395697,-3.158137,56.11682
196,Welshpool,0.8201150199570623,0.9316615,0.6873711170751936,0.25230440029813606,-3.146407,52.66035
197,Mold,0.4932124049645285,0.9316615,0.1445001534702176,0.22180278687173416,-3.1419029999999997,53.1672
198,Taunton,0.3613838509100144,0.9316615,0.25349092698376874,0.47368685325574467,-3.106849,51.01534
199,Wick,0.5016145939832642,0.9316615,0.01,0.1552022532578717,-3.093716,58.43894
200,John o' Groats,0.5016145939832642,0.9316615,0.01,0.1552022532578717,-3.0688997000000002,58.63734
201,Dalkeith,0.6007625620080875,0.9316615,0.01,0.14198803179704061,-3.066606,55.893119999999996
202,Oswestry,0.5715806145216985,0.9316615,0.6970053173636697,0.20157147886637405,-3.056412,52.85715
203,Blackpool,0.5444707363454233,0.9316615,0.11886198842263669,0.20624680394454176,-3.0356748,53.81751
204,Birkenhead,0.47374924164288346,0.9316615,0.11357779628663905,0.24066228362095246,-3.023009,53.389990000000004
205,Cupar,0.5339683516515661,0.9316615,0.01,0.20055328317428014,-3.010137,56.32023
206,Southport,0.5283968000072004,0.9316615,0.1865207403216828,0.1742713769027885,-3.010113,53.64571
207,Bridgwater,0.45495407949017025,0.9316615,0.22192097790898963,0.3258306254564211,-3.003632,51.12789
208,Langholm,0.766800370030458,0.9316615,0.01,0.5574482383032126,-2.998913,55.153059999999996
209,Newport,0.6126842030802307,0.9316615,0.08060577583908592,0.4545626710471275,-2.997664,51.58415
210,Axminster,0.45679916903467216,0.9316615,0.13468453338780584,0.25167881537013537,-2.9949369999999997,50.78273
211,Wrexham,0.5777416947766246,0.9316615,0.5683496894954924,0.17700815863779132,-2.9924939999999998,53.043040000000005
212,Liverpool,0.48210333457745624,0.9316615,0.11386293591396615,0.2336675473082677,-2.9915726,53.40837
213,Weston-super-Mare,0.6547809335871833,0.9316615,0.07587403222084704,0.4734516634554711,-2.977255,51.347409999999996
214,Dundee,0.5332426914343686,0.9316615,0.01,0.16142677897875116,-2.9707209999999997,56.462019999999995
215,Kirkwall,0.5000949264819009,0.9316615,0.01,0.11627138975347945,-2.9622491,58.984669999999994
216,Ambleside,0.6594476600692528,0.9316615,0.34811384763661607,0.33686831653290134,-2.961333,54.428740000000005
217,Orkney Islands,0.5000949264819009,0.9316615,0.01,0.11627138975347945,-2.9605206,58.980940000000004
218,Lyme Regis,0.5819974950659325,0.9316615,0.3466482827942145,0.26604663560049063,-2.936639,50.725159999999995
219,Carlisle,0.7304504184218691,0.9316615,0.01,0.519626273104656,-2.932931,54.892469999999996
220,Chester,0.5423300387046909,0.9316615,0.11338059303979607,0.12106807631360648,-2.893075,53.19339
221,Forfar,0.5730361539108446,0.9316615,0.01,0.20682827001340015,-2.889062,56.64356
222,Morecambe,0.5487957274926499,0.9316615,0.3192144836931687,0.23966574577433833,-2.864968,54.074169999999995
223,Selkirk,0.5598642959141111,0.9316615,0.01,0.11020051841459698,-2.838524,55.55066
224,Galashiels,0.5251923632418787,0.9316615,0.01,0.11356122335032579,-2.814449,55.62373
225,Lancaster,0.5883312712020056,0.9316615,0.3447949236320882,0.2646241970533809,-2.8007399,54.046569999999996
226,St Andrews,0.5230536344466966,0.9316615,0.01,0.1728445347784009,-2.7967214,56.339780000000005
227,Hawick,0.5485026507692702,0.9316615,0.01,0.5807240245439333,-2.780914,55.42706
228,Bridport,0.5016804096773823,0.9316615,0.4026097531308886,0.255257649706118,-2.758301,50.733579999999996
229,Shrewsbury,0.8086892467000039,0.9316615,0.44894602846203363,0.4044815898343059,-2.7553267999999997,52.7073
230,Penrith,0.6296905284184574,0.9316615,0.01,0.5885625028803273,-2.752708,54.6641
231,Kendal,0.7029526776721382,0.9316615,0.36191198839566235,0.3139909847971895,-2.74629,54.32801
232,Street,0.5090945194933991,0.9316615,0.21760378163231864,0.3630591047588324,-2.7429189999999997,51.12468
233,Glastonbury,0.5046798052417982,0.9316615,0.2067362725700783,0.37252147837893407,-2.718454,51.14743
234,Hereford,0.7986301335186673,0.9316615,0.01,0.34297776764001053,-2.715974,52.0564
235,Ludlow,0.9280440391372745,0.9316615,0.01,0.537384515493502,-2.7139129,52.36775
236,Preston,0.49509321499259007,0.9316615,0.01,0.39421998078600146,-2.70309,53.7632
237,Whitchurch,0.6381503764854589,0.9316615,0.2029777358281296,0.24721915479676412,-2.682045,52.96872
238,Wells,0.6463922452236511,0.9316615,0.01,0.2866826572835943,-2.6445979,51.20935
239,Yeovil,0.5473022175107436,0.9316615,0.4073381491631471,0.35340225365668626,-2.633308,50.94206
240,Wigan,0.42147273584871164,0.9316615,0.01,0.5637004040877605,-2.6325074,53.54506
241,Warrington,0.5274832556717518,0.9316615,0.01,0.4538878436008877,-2.5969501,53.39004
242,Arbroath,0.5232372996101967,0.9316615,0.01,0.18919097367469492,-2.591543,56.55911
243,Bristol,0.6752932103236137,0.9316615,0.01,0.2905512968562779,-2.58791,51.45451
244,Guernsey,0.7041190780290056,0.9316615,0.10489558305257761,0.29402031871486006,-2.5852779999999997,49.46569
245,Ross-on-Wye,0.5015198081331884,0.9316615,0.34754825776893433,0.371112832168204,-2.582446,51.91445
246,Jedburgh,0.6904066312968251,0.9316615,0.01,0.28903195191360076,-2.5549369,55.47772
247,Sedbergh,0.6615315424526697,0.9316615,0.4032121664443542,0.3901867471267628,-2.5281740000000004,54.32363
248,Nantwich,0.45148637994837687,0.9316615,0.01,0.277709745432244,-2.524102,53.06718000000001
249,Banff,0.31416812197166943,0.9316615,0.01,0.17068215677133922,-2.524038,57.666509999999995
250,Dunbar,0.579014412793221,0.9316615,0.01,0.13966820513070483,-2.516737,56.00209
251,Cinderford,0.48389245265559294,0.9316615,0.45468390149636956,0.37930664318682955,-2.5009579,51.8253
252,Banchory,0.3943116676881226,0.9316615,0.01,0.2003016145785328,-2.4909599,57.05386
253,Blackburn,0.49228198481007523,0.9316615,0.10779661212955727,0.3597045759094744,-2.487529,53.748580000000004
254,Market Drayton,0.6010263873118592,0.9316615,0.01,0.3686953790244819,-2.483485,52.90355
255,Telford,0.7163352021427789,0.9316615,0.01,0.47003808789695345,-2.4672611,52.67759
256,Montrose,0.4375036388484729,0.9316615,0.01,0.14647868358408428,-2.4661150000000003,56.70692
257,Turriff,0.3225652482447039,0.9316615,0.01,0.16624254770708222,-2.4623,57.53893000000001
258,Weymouth,0.7485891112153037,0.9316615,0.1468538937384082,0.28421978359436484,-2.457621,50.61443
259,Crewe,0.47969093625075,0.9316615,0.01,0.269896331482243,-2.4438209,53.1004
260,Fortuneswell,0.7462279028729113,0.9316615,0.143696096516935,0.27810822763270776,-2.4422189999999997,50.55919
261,Dorchester,0.762594634670864,0.9316615,0.14704120639030926,0.28458234479024125,-2.4411810000000003,50.71116
262,Alston,0.6902294351972769,0.9316615,0.01,0.7777722263777714,-2.438685,54.812169999999995
263,Kelso,0.6561228424616983,0.9316615,0.01,0.23345722802620475,-2.432207,55.600030000000004
264,Wincanton,0.7180601921086983,0.9316615,0.2861664509110614,0.40105956716214197,-2.416007,51.055690000000006
265,Clitheroe,0.46547559011223255,0.9316615,0.1262876257770705,0.32026926739540423,-2.3930830000000003,53.8711
266,Sark,0.7167883178830524,0.9316615,0.1248514560594965,0.28329791269329213,-2.3666256000000003,49.43007
267,Bath,0.6791583354029651,0.9316615,0.01,0.34214535305722366,-2.3590167,51.38106
268,Kidderminster,0.7176273273512305,0.9316615,0.09589435317438784,0.7055738874846678,-2.2496839,52.3886
269,Manchester,0.5260451546289107,0.9316615,0.05546380049859388,0.34905365185617154,-2.2426305,53.48076
270,Burnley,0.4354051307552519,0.9316615,0.1633960451923554,0.3816633325032082,-2.2405035,53.78929
271,Gloucester,0.5078926799166222,0.9316615,0.2816164452457563,0.3664911531855533,-2.238156,51.86424
272,Newcastle-under-Lyme,0.573537928262581,0.9316615,0.01,0.3156663936264118,-2.2273002,53.01321
273,Worcester,0.6388729428025053,0.9316615,0.01,0.8319927810135916,-2.221575,52.19364
274,Trowbridge,0.6326086387880012,0.9316615,0.01,0.4818028954379161,-2.208853,51.31966
275,Shaftesbury,0.6641953904825444,0.9316615,0.5397752350541387,0.2701749477552945,-2.198083,51.0046
276,Alderney,0.6888852762135612,0.9316615,0.23859667314415334,0.30254420416114236,-2.1973557,49.715
277,Stoke-on-Trent,0.6009940419921004,0.9316615,0.01,0.3154865947352935,-2.179404,53.002669999999995
278,Colne,0.35824607362976085,0.9316615,0.24555911249630466,0.2785966369741852,-2.176991,53.85564
279,Blandford Forum,0.7912492128133594,0.9316615,0.14418435991507034,0.2790532242383528,-2.165353,50.85691
280,Rochdale,0.5283180461851789,0.9316615,0.055146983301452644,0.3433794625132052,-2.1561,53.60971
281,Jersey,0.6825942521522997,0.9316615,0.23221614659958784,0.32544873283324943,-2.13125,49.21444
282,Wolverhampton,0.5459965916470884,0.9316615,0.09214255310339965,0.7010289803021064,-2.12882,52.586969999999994
283,Stafford,0.7067941766048834,0.9316615,0.01,0.29006302599207334,-2.12066,52.80669
284,Macclesfield,0.6160621795176496,0.9316615,0.01,0.2600939684617457,-2.119287,53.25866
285,Hexham,0.5643510136601316,0.9316615,0.08323538762465797,0.8360175121682749,-2.1121439,54.97266
286,Aberdeen,0.34984613472022574,0.9316615,0.01,0.21698829213431364,-2.094278,57.149719999999995
287,Dudley,0.5176556224744282,0.9316615,0.09744221053330655,0.765735698731947,-2.081112,52.51225
288,Cheltenham,0.5363109965930534,0.9316615,0.2868825853168599,0.45950082598923736,-2.0782533,51.899390000000004
289,Bromsgrove,0.7321914404158426,0.9316615,0.11965228154100006,0.8085127407953603,-2.061906,52.33559
290,Skipton,0.39890273424832157,0.9316615,0.01,0.18060358255106598,-2.0162787,53.96285
291,Fraserburgh,0.34943352094556346,0.9316615,0.01,0.16575832037924607,-2.007631,57.69335
292,Berwick,0.6729961300934385,0.9316615,0.01,0.42145438913132877,-2.005395,55.77024
293,Poole,0.8193224189911468,0.9316615,0.14782584181170577,0.2269076130594925,-1.987248,50.71505
294,Walsall,0.5305211843562283,0.9316615,0.01,0.9964811817140872,-1.9829189999999999,52.586209999999994
295,Cirencester,0.5194498032982663,0.9316615,0.23581657215246415,0.4918075737541034,-1.968243,51.71849
296,Evesham,0.6276018645529892,0.9316615,0.01,0.5062479560754521,-1.9467700000000001,52.09215
297,Buxton,0.6094159194663417,0.9316615,0.01,0.34305946923101466,-1.91483,53.259080000000004
298,Keighley,0.46152158571945706,0.9316615,0.01,0.24308699297377398,-1.9123580000000002,53.8678
299,Birmingham,0.6406280279789829,0.9316615,0.01,0.9929087727235666,-1.8904009999999998,52.48624
300,Bournemouth,0.8372645084931779,0.9316615,0.2862355329126561,0.2292322310394702,-1.880769,50.719159999999995
301,Halifax,0.4332700583875211,0.9316615,0.12726982410330795,0.390709665004644,-1.8575400000000002,53.727019999999996
302,Salisbury,0.809799113063206,0.9316615,0.31548098468107305,0.4105619330186539,-1.794472,51.06878
303,Ringwood,0.5765443554182489,0.9316615,0.19005768623793157,0.3171000488326255,-1.7888169999999999,50.84495
304,Huddersfield,0.40217129912586075,0.9316615,0.15201989672309926,0.4058179786040428,-1.7850351000000002,53.645790000000005
305,Peterhead,0.329671093100237,0.9316615,0.01,0.15991369320880866,-1.784066,57.50812
306,Swindon,0.45032926129196205,0.9316615,0.01,0.7433115477194898,-1.7797176,51.55577
307,Bradford,0.37312717082800934,0.9316615,0.01,0.4080624736339272,-1.759398,53.79598000000001
308,Ashbourne,0.5705396577527654,0.9316615,0.01,0.37845514643583866,-1.7321790000000001,53.016630000000006
309,Marlborough,0.5004602879633503,0.9316615,0.01,0.6328417187045795,-1.7270619999999999,51.42007
310,Stratford-upon-Avon,0.6743040060662945,0.9316615,0.01,0.5558657477240984,-1.7082979999999999,52.19173
311,Alnwick,0.6189909779058964,0.9316615,0.0804610688269349,0.7866730192654015,-1.7062990000000002,55.41274
312,Otley,0.6269074246009503,0.9316615,0.1376982460821244,0.39883108010500345,-1.691786,53.90583
313,Bishop Auckland,0.4429972804617674,0.9316615,0.01,0.6758968231319527,-1.6787880000000002,54.663819999999994
314,Burton upon Trent,0.5914082955338427,0.9316615,0.1568397012188215,0.4605529209177343,-1.6371358999999999,52.81403
315,Newcastle,0.5414167756328924,0.9316615,0.0864951755545328,0.730219213954255,-1.61778,54.97825
316,Durham,0.47777693711197927,0.9316615,0.01,0.7955959962121479,-1.5848520000000001,54.77525
317,Ashington,0.5485389337801302,0.9316615,0.07890788576304741,0.8109834799936899,-1.5659829,55.18298000000001
318,Darlington,0.4362520156056323,0.9316615,0.01,0.6110247351428288,-1.559458,54.52361
319,Leeds,0.6460586665346603,0.9316615,0.2627378862725168,0.45840214730614065,-1.5490774,53.80076
320,Harrogate,0.6720403962104786,0.9316615,0.16316886583468826,0.4377581493321186,-1.5418120000000002,53.99211999999999
321,Leamington Spa,0.7231198439099247,0.9316615,0.01,0.5679394703654205,-1.5200789,52.28519
322,Coventry,0.6179190821354548,0.9316615,0.01,0.5829266163510418,-1.519693,52.40682
323,Blyth,0.5467987555771066,0.9316615,0.0755311398188588,0.7762786382078515,-1.510277,55.12696
324,Wakefield,0.665252379279532,0.9316615,0.2529021253422232,0.4653531248005927,-1.505924,53.6833
325,Andover,0.6359250184860534,0.9316615,0.2907986245958844,0.4075515201924236,-1.4919233,51.2112
326,Witney,0.7677015387653032,0.9316615,0.01,0.4364706430397113,-1.4850543999999999,51.785940000000004
327,Barnsley,0.4583883086576045,0.9316615,0.01,0.265755833327425,-1.479726,53.55263000000001
328,Derby,0.5561926802260122,0.9316615,0.3472356458037685,0.4403000935441674,-1.4746186000000001,52.92253
329,Sheffield,0.5006684230644068,0.9316615,0.01,0.2900888658511943,-1.470085,53.381130000000006
330,Nuneaton,0.5610138204519739,0.9316615,0.19374672598828796,0.6853006208656225,-1.465382,52.52049
331,Northallerton,0.5183902831284282,0.9316615,0.01,0.4139921258499181,-1.429959,54.337959999999995
332,South Shields,0.5375187427064819,0.9316615,0.06917433686915417,0.74326169590125,-1.427406,54.99941999999999
333,Chesterfield,0.5016390639208209,0.9316615,0.01,0.27638163760342593,-1.421629,53.23505
334,Southampton,0.4399222249754809,0.9316615,0.13693328118661244,0.40301245675077807,-1.4043508999999998,50.9097
335,Wetherby,0.727200979472535,0.9316615,0.17895552799806794,0.38934408522578223,-1.384816,53.92706
336,Sunderland,0.5297685228286235,0.9316615,0.06863945626129231,0.7191911332005133,-1.383801,54.90687
337,Rotherham,0.485943708455601,0.9316615,0.01,0.3055181420736938,-1.3635008999999998,53.4326
338,Castleford,0.6936692896377127,0.9316615,0.26655183801214033,0.4142305560183774,-1.345968,53.72346999999999
339,Thirsk,0.7176638916257405,0.9316615,0.01,0.24059293420268996,-1.341377,54.23385
340,Banbury,1.0,0.9316615,0.01,0.3734065974117822,-1.339775,52.0629
341,Stockton,0.4363988352309722,0.9316615,0.01,0.6189020702019951,-1.3289821000000002,54.57046
342,Newbury,0.6498492567467415,0.9316615,0.5928216773179152,0.2274902423374432,-1.3231138999999998,51.40141
343,Isle of Wight,0.3524736997392405,0.9316615,0.16894923384477484,0.45101095056117635,-1.304734,50.69385
344,Abingdon,0.7601749234892556,0.9316615,0.01,0.4431348064065569,-1.2879528999999998,51.67078
345,Shetland Islands,0.37208987048652703,0.9316615,0.01,0.12863178804513517,-1.2659409,60.52965
346,Rugby,0.7162963877590685,0.9316615,0.01,0.6494010248647576,-1.265032,52.37088
347,Oxford,0.7613174164358664,0.9316615,0.01,0.4431343632792836,-1.2577263,51.75202
348,Middlesbrough,0.4427399242219474,0.9316615,0.01,0.6159472975440115,-1.234956,54.57423000000001
349,Hartlepool,0.44276523795045425,0.9316615,0.01,0.691572755072921,-1.212926,54.69174
350,Loughborough,0.4436306862017397,0.9316615,0.2447921418158045,0.5554529192781634,-1.206166,52.7721
351,Mansfield,0.4855367199539404,0.9316615,0.01,0.20602479718064703,-1.198674,53.1472
352,Nottingham,0.5106805652161808,0.9316615,0.2972743221798915,0.3471892769403657,-1.1581086,52.95478000000001
353,Bicester,0.7731988368060488,0.9316615,0.01,0.4869039550438519,-1.1535898999999998,51.8996
354,Leicester,0.460084609731216,0.9316615,0.01,0.5768472425076041,-1.1397591999999999,52.636880000000005
355,Doncaster,0.3546143973799728,0.9316615,0.01,0.2095703415802273,-1.128462,53.522819999999996
356,Worksop,0.36455819246477816,0.9316615,0.01,0.15898276589408905,-1.122745,53.3093
357,Basingstoke,0.5762155582113093,0.9316615,0.14817367259466505,0.3658841796030288,-1.0923964,51.26654
358,Portsmouth,0.31414224571586236,0.9316615,0.16547145166917898,0.44172699105946417,-1.0879769,50.81977
359,York,0.6845048761272695,0.9316615,0.16338832637840067,0.2616996401363414,-1.0872979,53.95997
360,Selby,0.6727669002186262,0.9316615,0.15001084714688634,0.3003411138358515,-1.067189,53.783519999999996
361,Helmsley,0.6752262695748953,0.9316615,0.1464532762277586,0.3372011605060159,-1.0562636,54.24651
362,Towcester,0.7390669303419631,0.9316615,0.01,0.35794727162106593,-0.9896879999999999,52.13511
363,Reading,0.5013189858870338,0.9316615,0.8100527011014207,0.22705622686875637,-0.9781303,51.45426
364,Retford,0.3603881775887436,0.9316615,0.01,0.24936671573562672,-0.9455030000000001,53.32136
365,Petersfield,0.3954876310090924,0.9316615,0.01,0.3129864152687479,-0.93899,51.00759
366,Northampton,0.7354729434212853,0.9316615,0.01,0.5899679364183262,-0.9026559999999999,52.24048
367,Melton Mowbray,0.6209061020992674,0.9316615,0.01,0.26343171386562964,-0.887126,52.7664
368,Aylesbury,0.6043981759489765,0.9316615,0.01,0.3300071277021901,-0.8084,51.81561
369,Newark-on-Trent,0.6453766021832247,0.9316615,0.2090608667074399,0.265092361017562,-0.80657,53.070040000000006
370,Malton,0.7535925102865149,0.9316615,0.14134921741670411,0.2829994110838539,-0.7978970000000001,54.13684
371,Chichester,0.3706543008165366,0.9316615,0.0743340043398824,0.383227682559574,-0.774936,50.83761
372,Gainsborough,0.3261482658830286,0.9316615,0.01,0.3734442355345533,-0.774465,53.400569999999995
373,Milton Keynes,0.7406569137558456,0.9316615,0.2879331601616961,0.31129887583042054,-0.7594171,52.040620000000004
374,Aldershot,0.5924661281217805,0.9316615,0.14047220522184956,0.30936786565090074,-0.7557509,51.24837
375,High Wycombe,0.5907838902306728,0.9316615,0.01,0.07960022608353481,-0.748229,51.628609999999995
376,Midhurst,0.5315950489722203,0.9316615,0.1493159187299635,0.13452740254745008,-0.737274,50.9869
377,Kettering,0.6449052043056964,0.9316615,0.01,0.5827187065735272,-0.7302489999999999,52.39632
378,Wellingborough,0.6587672832997177,0.9316615,0.15917075536714517,0.62673819442475,-0.693964,52.30242
379,Corby,0.4850914795958692,0.9316615,0.01,0.4062798280045802,-0.6842333,52.4923
380,Bognor Regis,0.38026676732155157,0.9316615,0.1781271664639279,0.3815979989258595,-0.673061,50.783
381,Scunthorpe,0.422153675145547,0.9316615,0.24244884546255263,0.41260184172557307,-0.654413,53.58865
382,Grantham,0.6357033827297931,0.9316615,0.3027135407459796,0.060607154156888325,-0.643582,52.912519999999994
383,Whitby,0.510622906167915,0.9316615,0.01,0.558705695027403,-0.613347,54.486340000000006
384,Slough,0.24857968888302606,0.9316615,0.01,0.40499138006671725,-0.5950406,51.51054
385,Guildford,0.6035428531890938,0.9316615,0.14112906522299576,0.28255863792425007,-0.570409,51.23622
386,Woking,0.5647172189325314,0.9316615,0.1412155076394886,0.2261853709950157,-0.5600349,51.31677
387,Lincoln,0.5480219711912894,0.9316615,0.20407470655469365,0.29962823283502193,-0.540579,53.23069
388,Bedford,0.6985981538416536,0.9316615,0.5059619607165212,0.2431203106056309,-0.46677820000000003,52.13864
389,Heathrow,0.5936094648593414,0.9316615,0.01,0.2281016748881547,-0.4542955,51.47002
390,Driffield,0.5699459101874538,0.9316615,0.2682442778862108,0.4296477847181356,-0.443377,54.006
391,Beverley,0.48129273273793577,0.9316615,0.38734998993441766,0.36191157129386076,-0.435093,53.84196
392,Luton,0.6149725641372533,0.9316615,0.08019734268348219,0.5700073791769177,-0.4200255,51.87867
393,Scarborough,0.6595643844840344,0.9316615,0.2792589700675876,0.31993664498592633,-0.399752,54.28311
394,Worthing,0.6487686418031476,0.9316615,0.1266908992237045,0.31452794427054165,-0.372882,50.81787
395,Dorking,0.45735325842532304,0.9316615,0.01,0.18234022603035954,-0.332378,51.2322
396,Hull,0.45893311634780287,0.9316615,0.3812470916982233,0.3816529744031962,-0.3274198,53.767619999999994
397,Horsham,0.4341197558744023,0.9316615,0.01,0.08800587963422503,-0.325858,51.06288
398,Biggleswade,0.609310726861213,0.9316615,0.01,0.24364480712442307,-0.26421999999999995,52.086940000000006
399,Peterborough,0.4665938943849368,0.9316615,0.01,0.5448514870021909,-0.2405299,52.5695
400,Welwyn Garden City,0.6216368250621663,0.9316615,0.01,0.5481773510560609,-0.208661,51.80317
401,Bridlington,0.5594581512034006,0.9316615,0.38257681648142183,0.434048675536893,-0.198802,54.08535
402,Stevenage,0.5757005644680194,0.9316615,0.01,0.5815469949767093,-0.19661199999999998,51.90376
403,Crawley,0.3580306256738023,0.9316615,0.01,0.16588519325666642,-0.18722750000000002,51.109140000000004
404,Huntingdon,0.5892287835093998,0.9316615,0.07936559206436207,0.27542697528413324,-0.182552,52.33146
405,Hove,0.6864228129571414,0.9316615,0.13839089205406063,0.3269502142077239,-0.168749,50.82793
406,Spalding,0.6077342441025341,0.9316615,0.18135296671300216,0.47807126527902843,-0.1537024,52.7901
407,Brighton,0.6773273090409668,0.9316615,0.1397159827822863,0.3300807699159122,-0.137163,50.82253
408,London,0.664870423242728,0.9316615,0.015318013959129212,0.40513298692597294,-0.12775830000000002,51.50735
409,Grimsby,0.4773938560205751,0.9316615,0.31668633696200127,0.2958885986897613,-0.08078400000000001,53.56746999999999
410,Boston,0.6671033753606855,0.9316615,0.17325034234254022,0.36421306356926614,-0.026576999999999996,52.97894
411,Royston,0.5631151411816955,0.9316615,0.06897142059334466,0.17491363449444497,-0.024066,52.048140000000004
412,Louth_Lincs,0.5251476423215165,0.9316615,0.29445209970344954,0.3537187019206908,-0.007711,53.36596
413,Lewes,0.6996422045107377,0.9316615,0.08796726957289604,0.311148600293882,0.00878,50.873870000000004
414,Chatteris,0.5142101427609909,0.9316615,0.059507518366869384,0.3653680471115192,0.054012,52.4561
415,Uckfield,0.7439687932354967,0.9316615,0.01,0.343751772509093,0.095913,50.966409999999996
416,Cambridge,0.5417579484404352,0.9316615,0.07549390138307728,0.20153140354360022,0.12181700000000001,52.20534
417,Bishop's Stortford,0.47796566502118065,0.9316615,0.01,0.4172986861719476,0.15365020000000001,51.87216
418,Wisbech,0.4735765457617364,0.9316615,0.01,0.5368927550020207,0.158797,52.66631999999999
419,Sevenoaks,0.6674808311790882,0.9316615,0.01,0.5263173010624419,0.190898,51.27241
420,Tunbridge Wells,0.6417364880239343,0.9316615,0.01,0.5305342109764398,0.26369499999999996,51.13238
421,Eastbourne,0.6939834611348483,0.9316615,0.08286707016881889,0.41477646112355804,0.29047199999999995,50.768029999999996
422,Brentwood,0.4298566427301925,0.9316615,0.18357433900496933,0.5359952007100671,0.30717490000000003,51.620470000000005
423,Skegness,0.6115988066545855,0.9316615,0.01,0.4129966681260325,0.337881,53.1464
424,Downham Market,0.5090208284170791,0.9316615,0.01,0.441304275336245,0.385472,52.606609999999996
425,King's Lynn,0.5346436656753998,0.9316615,0.01,0.5026022095212098,0.4022963,52.75168000000001
426,Bexhill,0.7230700602438612,0.9316615,0.01,0.5767672857302383,0.4662071,50.849909999999994
427,Chelmsford,0.41036450925258977,0.9316615,0.33149519969311764,0.5457058086895485,0.4685497,51.73559
428,Mildenhall,0.513736213510612,0.9316615,0.05237193135473388,0.20971078523039074,0.5156095,52.347570000000005
429,Medway,0.456769073824114,0.9316615,0.14667948727543142,0.5286083244560169,0.5417860999999999,51.404740000000004
430,Braintree,0.49792047720315924,0.9316615,0.2186574689021366,0.44507686707245314,0.5509269,51.88009
431,Gillingham,0.5015889989911073,0.9316615,0.01,0.5213898642612537,0.551438,51.38632
432,Hastings,0.7331404239712009,0.9316615,0.01,0.5819901222499522,0.573453,50.85426
433,Maldon,0.45988097484856066,0.9316615,0.2554916629270304,0.5058437132204363,0.6714479999999999,51.7318
434,Southend,0.43033310335342206,0.9316615,0.18986637584905397,0.46566788364186806,0.7077123000000001,51.54593
435,Bury St Edmunds,0.4218690363316695,0.9316615,0.01,0.37004569860787134,0.7104931999999999,52.24292
436,Thetford,0.41658015465563064,0.9316615,0.01,0.38012412991959904,0.751657,52.412859999999995
437,Ashford,0.5785435774429928,0.9316615,0.11898194819793291,0.4248207439397914,0.8750190000000001,51.14647
438,Faversham,0.5924785037223838,0.9316615,0.1065412812199223,0.43017399835511155,0.889358,51.31599
439,Colchester,0.5390178779613899,0.9316615,0.18245328502554656,0.6940606377576342,0.891874,51.89593
440,New Romney,0.6526798941211115,0.9316615,0.10984703620852744,0.5828091045372688,0.939473,50.98512
441,Canterbury,0.573163003817029,0.9316615,0.10575310455054653,0.43404936792325743,1.0789089,51.280229999999996
442,Ipswich,0.5012047928451028,0.9316615,0.01,0.6404807343771048,1.14822,52.056740000000005
443,Clacton,0.5867719455259814,0.9316615,0.01,0.5799036297884334,1.153035,51.78953
444,Folkestone,0.6536730360695319,0.9316615,0.16937191499029497,0.44083583441751806,1.169456,51.0814
445,Sheringham,0.5473640955137604,0.9316615,0.01,0.4596183931939196,1.2109589,52.944419999999994
446,Harwich,0.5079264315546315,0.9316615,0.01,0.6416050590511404,1.260297,51.93473
447,Norwich,0.5244532023694775,0.9316615,0.01,0.4976545550381799,1.297355,52.63089
448,Cromer,0.5303068614548699,0.9316615,0.01,0.4953055096672646,1.301866,52.93145
449,Dover,0.5863430184596147,0.9316615,0.18391522562196935,0.35594799214601225,1.3134027,51.12788
450,Felixstowe,0.49444405848821343,0.9316615,0.01,0.6702650078344902,1.3512549999999999,51.961729999999996
451,Margate,0.611435392473891,0.9316615,0.1483330840857298,0.3563784349010585,1.3868339,51.38965
452,Ramsgate,0.6200535919758856,0.9316615,0.15313905558153315,0.3066041916295031,1.4198950000000001,51.33555
453,Great Yarmouth,0.5291511491167056,0.9316615,0.01,0.5075149123405628,1.728047,52.59823000000001
454,Lowestoft,0.5098423995389526,0.9316615,0.01,0.5350204591862057,1.7534490000000003,52.48114
455,Swaffham,0.481991954172026,0.9316615,0.01,0.42276222388739604,0.687481,52.64747
456,Dereham,0.5498656544175411,0.9316615,0.01,0.4161065076341966,0.9378270000000001,52.681619999999995
457,Ely,0.49239758417025675,0.9316615,0.055373346512124576,0.2586840482601051,0.262363,52.39954
458,March,0.47860553982510456,0.9316615,0.01,0.6661807591479195,0.088622,52.551719999999996
459,St Neots,0.6172139541647131,0.9316615,0.4013753515501308,0.45537636350261973,-0.26510300000000003,52.23008
460,Banham,0.4516630135206249,0.9316615,0.01,0.4710340164435669,1.0402849,52.45125
461,Holt,0.5387250825016602,0.9316615,0.01,0.44380049435278596,1.086747,52.90936
462,Hunstanton,0.6577612032233939,0.9316615,0.01,0.36093120759271996,0.49103199999999997,52.93891
463,Horncastle,0.5863219236858589,0.9316615,0.16175352861499204,0.3292489923285807,-0.11245,53.20731
464,Market Weighton,0.5861745415332187,0.9316615,0.2888212940884855,0.34052946175988885,-0.6677465,53.86484
465,Hawes,0.5987132750536299,0.9316615,0.01,0.18601172935735913,-2.1968695,54.303830000000005
466,Reeth,0.49204375449846055,0.9316615,0.01,0.3639084412643662,-1.9428115000000001,54.38946
467,Aysgarth,0.5943610013323459,0.9316615,0.01,0.3184230330023468,-1.9967433999999997,54.29159
468,Stanhope,0.512670786804122,0.9316615,0.01,0.8441829630414129,-2.011302,54.74946
469,Keswick,0.6808661682862297,0.9316615,0.01,0.5404230669015833,-3.134706,54.60128
470,Oxenholme,0.6952834617255019,0.9316615,0.36530487745075624,0.31693462388243304,-2.7243327999999996,54.30134
