,placename,what_for,why,why_for_continuous,why_for_discontinuous,longitude,latitude
0,Dingle,0.32741879547700714,0.01,0.01,0.11043210780577556,-10.264013499999999,52.14094
1,Tralee,0.26638164482175297,0.01,0.01,0.08992273743645554,-9.6999325,52.27131
2,Killarney,0.3284094558138197,0.01,0.01,0.1105202624376963,-9.5044265,52.05994000000001
3,Bantry,0.34950196330712313,0.01,0.01,0.01,-9.4539805,51.68035
4,Mayo,0.5984541807209006,0.01,0.01,0.3561200363098488,-9.4289369,54.01526
5,Ballycastle,0.4514187200132143,0.01,0.01,0.2861757750739136,-9.3724643,54.279669999999996
6,Abbeyfeale,0.34838801434859923,0.01,0.01,0.1851970952564112,-9.2970823,52.386179999999996
7,Ennistymon,0.6805365540568961,0.01,0.01,0.4176768399087512,-9.2934951,52.940369999999994
8,Galway,0.7545178496283751,0.01,0.01,0.4706242898885446,-9.0567905,53.270669999999996
9,Claremorris,0.5769877460902173,0.01,0.01,0.4120325616567288,-9.0017356,53.72388
10,Clare,0.4598116291975941,0.01,0.01,0.2897456083871585,-8.9811351,52.90453
11,Adare,0.33976796400939524,0.01,0.01,0.19571031750955384,-8.7925892,52.56363
12,Charleville,0.3731530723145369,0.01,0.01,0.2437622635472869,-8.681017599999999,52.36206
13,Mallow,0.2786141968225455,0.01,0.01,0.20663567582226705,-8.6539164,52.13898
14,Limerick,0.3613005393594909,0.01,0.01,0.09201402121161632,-8.6267343,52.66384
15,Loughrea,0.7379214606007394,0.01,0.01,0.468712749613593,-8.5660931,53.19891
16,Sligo,0.28548441900606786,0.01,0.01,0.20899075880228016,-8.476088800000001,54.27661
17,Cork,0.2826232527097337,0.01,0.01,0.1773876694518693,-8.4756035,51.898509999999995
18,Nenagh,0.5408873871986732,0.01,0.01,0.13002561718766614,-8.19834,52.8635
19,Roscommon,0.2321955956117976,0.01,0.01,0.25014711825471664,-8.1890955,53.62759000000001
20,Tipperary,0.3251334595667851,0.01,0.01,0.10040649172592754,-8.161851400000002,52.47379
21,Donegal,0.44823352220993457,0.01,0.01,0.20149476245719392,-8.1096143,54.653830000000006
22,Leitrim,0.4557344019548713,0.01,0.01,0.27885074276993543,-8.0020132,54.12469
23,Athlone,0.2918501731586336,0.01,0.01,0.19936739150471844,-7.9406898,53.42393000000001
24,Longford,0.2675652155901848,0.01,0.01,0.1987949818495069,-7.7932573000000005,53.72763000000001
25,Offaly,0.2773871124229213,0.01,0.01,0.5260295175939252,-7.7122229,53.23569000000001
26,Fermanagh,0.42982464539770016,0.01,0.01,0.2558471474568039,-7.6318728,54.343830000000004
27,Enniskillen,0.42982464539770016,0.01,0.01,0.2558471474568039,-7.631533599999999,54.343819999999994
28,Doon,0.6998638585781635,0.01,0.01,0.3371737697014386,-7.60964,54.185930000000006
29,Westmeath,0.15201679859502987,0.01,0.01,0.2513199099742632,-7.4653217000000005,53.534530000000004
30,Strabane,0.30908911347354306,0.01,0.01,0.2504676100550896,-7.4633103,54.82739
31,Cavan,0.51506233717689,0.01,0.01,0.3055881561828662,-7.3633319,53.98972
32,Mullingar,0.2332048217645854,0.01,0.01,0.40196595630410586,-7.3401868000000015,53.525819999999996
33,Laois,0.3804389947213835,0.01,0.01,0.21240372506079708,-7.3323006999999985,52.99429
34,Omagh,0.4916778216832482,0.01,0.01,0.4013834101125189,-7.309959700000001,54.59771
35,Derry,0.1838748685361948,0.01,0.01,0.2670728629744121,-7.308574799999999,54.99661
36,Kilkenny,0.42809193260362094,0.01,0.01,0.4062135527817757,-7.2447879,52.65415
37,Tyrone,0.4486355881621518,0.01,0.01,0.468840564136469,-7.1312320000000025,54.491209999999995
38,Waterford,0.5251084742557045,0.01,0.01,0.2508393661418858,-7.110070200000001,52.25932
39,Monaghan,0.4765658276610208,0.01,0.01,0.01,-6.9683132,54.2492
40,Carlow,0.3314333630908131,0.01,0.01,0.19083450503569835,-6.934135899999999,52.83651
41,Kildare,0.3241132099607618,0.01,0.01,0.1015446364317974,-6.8194707999999995,53.21204
42,Dungannon,0.29460545628573304,0.01,0.01,0.4864541254706012,-6.7669352,54.508269999999996
43,Cookstown,0.3714348640641884,0.01,0.01,0.5578762161628015,-6.7443895000000005,54.641819999999996
44,Coleraine,0.3534280532041715,0.01,0.01,0.01,-6.6646103000000005,55.132580000000004
45,Meath,0.16071488337950554,0.01,0.01,0.18161945182497533,-6.656416900000001,53.60555
46,Armagh,0.13041054016278195,0.01,0.01,0.4532807592365449,-6.652792,54.35028000000001
47,Magherafelt,0.2885808490017153,0.01,0.01,0.5647011516434705,-6.607980499999999,54.75536999999999
48,Louth,0.516782576063361,0.01,0.01,0.4460713554554285,-6.4889423,53.925230000000006
49,Wexford,0.5370407822012699,0.01,0.01,0.186800135862822,-6.4633381,52.33692
50,Craigavon,0.06887356293056503,0.01,0.01,0.6398641781672965,-6.4175653,54.442930000000004
51,Drogheda,0.2003880014828157,0.01,0.01,0.2289767681664457,-6.3560985,53.717859999999995
52,Rosslare,0.5174747328901939,0.01,0.01,0.186800135862822,-6.3414908,52.25131
53,Newry,0.19538277353219746,0.01,0.01,0.2583531152733564,-6.34023,54.1751
54,Ballymena,0.516366585749162,0.01,0.01,0.01,-6.2802213,54.86529
55,Banbridge,0.01,1.0,0.01,0.4770280605914508,-6.2704803,54.34873
56,Dublin,0.35089846077752285,0.01,0.01,0.20355516580050054,-6.2603097000000005,53.34981
57,Antrim,0.6039589451576071,0.01,0.01,0.7307507728139646,-6.2072498,54.719530000000006
58,Wicklow,0.4175775888531767,0.01,0.01,0.01,-6.044589,52.980819999999994
59,Kilkeel,0.4463969568827428,0.01,0.01,0.4293868935360137,-6.007004,54.06312
60,Belfast,0.5990822274644434,0.01,0.01,0.7058716690122872,-5.93012,54.59728000000001
61,Down,0.6300375346038044,0.01,0.01,0.3312853283218593,-5.7156921999999994,54.32875
62,Balivanich,0.5539037647426773,0.01,0.01,0.09835323380990196,-7.3743509000000005,57.472269999999995
63,Western Isles,0.4968295455255474,0.01,0.01,0.09725951261317473,-7.0194034,57.75989000000001
64,Dunvegan,0.5153936209557012,0.01,0.01,0.09818470696879672,-6.5813982000000015,57.4366
65,Stornoway,0.5384816635754859,0.01,0.01,0.08889808870344505,-6.3848692000000025,58.20943000000001
66,Scilly Isles,0.4573873397584313,0.01,0.01,0.24037715891607525,-6.327496599999999,49.92773
67,Portree,0.5051096093597021,0.01,0.01,0.09818470696879672,-6.1960231,57.41246999999999
68,Islay,0.2768704605752308,0.01,0.01,0.3744265933084237,-6.177067,55.73625
69,Mull,0.4449264862393161,0.01,0.01,0.28155323753217104,-6.0008870000000005,56.4392
70,Broadford,0.5235367618970369,0.01,0.01,0.1001855373893068,-5.9096592,57.24139
71,Kyle of Lochalsh,0.4906079665376658,0.01,0.01,0.09934104758832413,-5.7143293,57.28261
72,Campbeltown,0.21538715015481785,0.01,0.01,0.39739850502151824,-5.605373999999999,55.424119999999995
73,Penzance,0.4530667262719058,0.01,0.01,0.2406014367072453,-5.537592,50.1188
74,Oban,0.4991308364338734,0.01,0.01,0.28809418382160057,-5.471047,56.41516
75,Lochgilphead,0.3460220331752339,0.01,0.01,0.3991213007735229,-5.4323449,56.03829
76,Helston,0.4530667262719058,0.01,0.01,0.2406014367072453,-5.274996,50.10159
77,Redruth,0.453330708967806,0.01,0.01,0.24064790968002664,-5.226666000000002,50.23302
78,Ullapool,0.5222093060547958,0.01,0.01,0.13313343492764618,-5.161313,57.895419999999994
79,Ballachulish,0.5181158337230944,0.01,0.01,0.01,-5.133719999999999,56.67393000000001
80,Fort William,0.5835847026698519,0.01,0.01,0.01,-5.1052179,56.81981999999999
81,Achnasheen,0.4818141517645671,0.01,0.01,0.10020365021660063,-5.078765799999998,57.57859000000001
82,Newquay,0.4461112173712464,0.01,0.01,0.2413547253763037,-5.0737190000000005,50.4155
83,Falmouth,0.4504959409410621,0.01,0.01,0.2411367898442319,-5.066269999999999,50.152570000000004
84,Rothesay,0.34333811240329,0.01,0.01,0.3403958034960969,-5.055793,55.83596
85,Truro,0.4504959409410621,0.01,0.01,0.2411367898442319,-5.0510410000000014,50.2632
86,Milford Haven,0.3905277751587664,0.01,0.01,0.6430335352073482,-5.0426971,51.71431
87,Stranraer,0.2917564738061328,0.01,0.01,0.1942139874896308,-5.0240550000000015,54.903369999999995
88,Fishguard,0.3956368556424972,0.01,0.01,0.5886082557712896,-4.975989,51.99393
89,Inchnadamph,0.5109442071208465,0.01,0.01,0.13208928859461294,-4.974295,58.15221
90,Haverfordwest,0.4064714597185169,0.01,0.01,0.650892009661947,-4.971319,51.80048
91,Dunoon,0.3659869574389065,0.01,0.01,0.4083477091206229,-4.926214,55.95097
92,Pembroke,0.3834222892759308,0.01,0.01,0.6375565098055203,-4.9086370000000015,51.67404000000001
93,Girvan,0.1645611982860343,0.01,0.01,0.3234438311809165,-4.8542179,55.240159999999996
94,Wadebridge,0.4596784774861456,0.01,0.01,0.2445194849708954,-4.836456,50.51665
95,Invergarry,0.6587591420086248,0.01,0.01,0.01,-4.800261,57.07095
96,St Austell,0.4491261318311268,0.01,0.01,0.24040034001155675,-4.7834252,50.340379999999996
97,Greenock,0.4496335007708295,0.01,0.01,0.42828464213927664,-4.7719830000000005,55.956480000000006
98,Helensburgh,0.4435444933126472,0.01,0.01,0.4349570310561318,-4.734014,56.00232
99,Bodmin,0.4738595698917313,0.01,0.01,0.24526535125812696,-4.7188629,50.4715
100,Tenby,0.3910484882787015,0.01,0.01,0.6421080915926348,-4.703579,51.67274000000001
101,Camelford,0.4936808991724693,0.01,0.01,0.2467382509234773,-4.682364,50.62206
102,Irvine,0.19112133858409364,0.01,0.01,0.33896957067171,-4.6696364,55.61156999999999
103,Cardigan,0.3804355136308881,0.01,0.01,0.6143229037421212,-4.660864,52.0837
104,Holyhead,0.1857952701261504,0.01,0.01,0.5731720002942365,-4.633038,53.30944
105,Ayr,0.19525600381999048,0.01,0.01,0.35399388395737474,-4.629179,55.45856
106,Dumbarton,0.38493627355054977,0.01,0.01,0.1986487498493367,-4.564554,55.94529
107,Bude,0.5907586499990969,0.01,0.01,0.3393634831221684,-4.543678,50.82664000000001
108,Isle of Man,0.6591670097783344,0.01,0.01,0.18530125786107787,-4.5126330999999995,54.27697
109,Kilmarnock,0.22219674334554546,0.01,0.01,0.3556877379593457,-4.498792,55.61472
110,Newton Stewart,0.3155123056192826,0.01,0.01,0.27051845447842143,-4.483164,54.9603
111,Liskeard,0.4559229610233714,0.01,0.01,0.2516709498610353,-4.4647190000000005,50.45552
112,Altnaharra,0.5310428632777169,0.01,0.01,0.17192623659096873,-4.442655,58.28023
113,Pwllheli,0.3650917369998427,0.01,0.01,0.33491512229426484,-4.417633900000001,52.888819999999996
114,Lairg,0.5443583245134495,0.01,0.01,0.18083384256042484,-4.402414,58.022059999999996
115,Launceston,0.6418999306485874,0.01,0.01,0.3420407473252838,-4.360451599999998,50.636829999999996
116,Carmarthen,0.3827159179962417,0.01,0.01,0.6106043458377941,-4.312131,51.857620000000004
117,Llangefni,0.16629594171623588,0.01,0.01,0.5700556523542466,-4.311401999999998,53.25578
118,Caernarfon,0.2061245485283402,0.01,0.01,0.5766395819891805,-4.273911,53.13955
119,Cumnock,0.15432099041210207,0.01,0.01,0.2952227168753501,-4.265828900000002,55.45355
120,Aberaeron,0.4651069480228282,0.01,0.01,0.5521888160880015,-4.2581619,52.24279
121,Alness,0.5291886024071735,0.01,0.01,0.18747452018178856,-4.256825,57.69595
122,Glasgow,0.3759515789819541,0.01,0.01,0.13597100042185714,-4.251806,55.86424
123,Dalwhinnie,0.669053886966985,0.01,0.01,0.10258842272392107,-4.242783,56.9366
124,Inverness,0.5463434163684443,0.01,0.01,0.1916585278957481,-4.224721,57.47776999999999
125,Saltash,0.4999111808865896,0.01,0.01,0.3385545542848635,-4.21643,50.409209999999995
126,Bideford,0.6423637859570979,0.01,0.01,0.2442452168842126,-4.206666,51.01668
127,Invergordon,0.535574953011837,0.01,0.01,0.1864020137032678,-4.1728819999999995,57.688109999999995
128,Llanelli,0.3934846714437236,0.01,0.01,0.7544161233187753,-4.160248,51.68089000000001
129,Plymouth,0.5172098799216697,0.01,0.01,0.3409860490240565,-4.1426565,50.37546
130,Tavistock,0.5331434113008087,0.01,0.01,0.25398435118190904,-4.141654,50.551120000000004
131,Porthmadog,0.2454167773132802,0.01,0.01,0.4031456718872968,-4.1333839999999995,52.92784
132,Bangor,0.1793053570792491,0.01,0.01,0.5697901083357558,-4.129263,53.22739
133,Tywyn,0.5665041519724826,0.01,0.01,0.23209408544734586,-4.087249,52.58701
134,Aberystwyth,0.5129269782488444,0.01,0.01,0.2080019202920386,-4.08292,52.4153
135,Lampeter,0.4569577151731255,0.01,0.01,0.5833884380561246,-4.0785089999999995,52.1129
136,Barnstaple,0.6102417333200328,0.01,0.01,0.21217396356962065,-4.058338,51.07816
137,Tain,0.5539533702822368,0.01,0.01,0.17968990950454825,-4.05523,57.8115
138,Okehampton,0.6296798525554034,0.01,0.01,0.2243346222428621,-4.004263,50.73831
139,Llandeilo,0.4168796302088516,0.01,0.01,0.6634253106765313,-3.9914300000000003,51.88469
140,Motherwell,0.29048384513919395,0.01,0.01,0.2804981791900342,-3.9810968,55.78321
141,Golspie,0.5421431905948845,0.01,0.01,0.17824431755741155,-3.976086,57.97341
142,Airdrie,0.3023123005516469,0.01,0.01,0.2788320206426409,-3.9625660000000003,55.86626999999999
143,Swansea,0.4314694606567709,0.01,0.01,0.7870901682022504,-3.9436459999999998,51.62144
144,Stirling,0.3992650222113151,0.01,0.01,0.09270962024878936,-3.9369029,56.116519999999994
145,Tregaron,0.6307093850694143,0.01,0.01,0.4930496318055487,-3.934385,52.22
146,Castle Douglas,0.4691722815396918,0.01,0.01,0.5140037080890224,-3.9314139999999997,54.940419999999996
147,Dolgellau,0.5885414854444093,0.01,0.01,0.2285786183114369,-3.8844,52.74215
148,Aberfeldy,0.5656498343467397,0.01,0.01,0.11989373364860365,-3.866969,56.62175
149,Machynlleth,0.6569550668593902,0.01,0.01,0.2053120546570904,-3.853485,52.59027
150,Brora,0.5421431905948845,0.01,0.01,0.17824431755741155,-3.852548000000001,58.012159999999994
151,Llandudno,0.18871300414303446,0.01,0.01,0.3861188110629383,-3.827609,53.324059999999996
152,Aviemore,0.6368477079762813,0.01,0.01,0.17019790174804847,-3.823812,57.19449
153,Dalbeattie,0.5590029821366713,0.01,0.01,0.5334180278797955,-3.8225269999999996,54.934219999999996
154,Falkirk,0.3470831855945781,0.01,0.01,0.21952209388271665,-3.7839131,56.00188000000001
155,Kingsbridge,0.5396591424355508,0.01,0.01,0.2412209563306935,-3.777493,50.28395
156,Pitlochry,0.4622982881747996,0.01,0.01,0.16047067649582045,-3.729711,56.70436
157,Colwyn Bay,0.2192114181548759,0.01,0.2207311462539704,0.30198705470140313,-3.72764,53.29318000000001
158,Totnes,0.5480955652511229,0.01,0.01,0.2660785961550733,-3.685797,50.43374
159,Grantown-on-Spey,0.5535353493319154,0.01,0.01,0.18620357577121868,-3.609628,57.33041
160,Dumfries,0.6214433023524413,0.01,0.01,0.5449375644750183,-3.60512,55.070859999999996
161,Whitehaven,0.6509127640320209,0.01,0.01,0.4654342724825054,-3.589233,54.5497
162,Dartmouth,0.5489922361445599,0.01,0.01,0.2653986450497366,-3.578807,50.35252
163,Bridgend,0.3991501462249673,0.01,0.01,1.0,-3.576945,51.50429000000001
164,Paignton,0.5386783451884752,0.01,0.01,0.2427200005051651,-3.564235,50.43508
165,Workington,0.6512547811731927,0.01,0.01,0.4632403216572251,-3.5427519999999997,54.64357
166,Llanidloes,0.6683008110564829,0.01,0.01,0.22090584187978127,-3.5401949999999998,52.44779000000001
167,Exeter,0.6250764004661276,0.01,0.01,0.2509140330874273,-3.533899,50.71841
168,Torquay,0.5288007509078125,0.01,0.01,0.2457614599359769,-3.525315,50.46192
169,Thurso,0.5130177766925991,0.01,0.01,0.1656534099973058,-3.5220800000000003,58.59356999999999
170,Livingston,0.4520554694829957,0.01,0.01,0.17738445677913828,-3.518068,55.90071
171,Rhyl,0.4438424166408774,0.01,0.18051258430193265,0.250978840451139,-3.4916339999999995,53.319140000000004
172,Tiverton,0.6057238580387686,0.01,0.13968494153046845,0.22373385244216304,-3.491207,50.90205
173,Minehead,0.6325328963072482,0.01,0.180645643928152,0.4912764580216672,-3.481152,51.20428
174,Dunfermline,0.4182123076868359,0.01,0.01,0.2604751410030983,-3.452151,56.07174000000001
175,Perth,0.4870157712373001,0.01,0.01,0.19355419867522672,-3.4308381000000003,56.39499
176,Prestatyn,0.4359287375813627,0.01,0.18072010696671512,0.2392065551374404,-3.4076129999999996,53.33651
177,Builth Wells,0.997740192086744,0.01,0.01,0.6739464538296832,-3.4045919999999996,52.15002
178,Braemar,0.6317922943043546,0.01,0.01,0.4362252336166985,-3.3979439,57.00646999999999
179,Brecon,0.5231999663916079,0.01,0.01,0.4874673082854165,-3.391463,51.94895
180,Merthyr Tydfil,0.4580699235864018,0.01,0.01,0.5653575893078706,-3.381646,51.74873
181,Llandrindod Wells,0.9696184926106288,0.01,0.01,0.23925809637840945,-3.377742,52.2417
182,Corwen,0.36395516095309854,0.01,1.0,0.1779670583616344,-3.369242,52.98005
183,Cockermouth,0.6456612489288537,0.01,0.01,0.4956277739767305,-3.367985,54.66326
184,Lockerbie,0.6615367621330697,0.01,0.01,0.4182221357139312,-3.349008,55.12224000000001
185,Blairgowrie,0.6023179010799063,0.01,0.01,0.1820312832345455,-3.3378318,56.58941
186,Elgin,0.5135985386235796,0.01,0.01,0.17118413688555975,-3.318485,57.64945
187,Newtown,0.8399246643874658,0.01,0.6736194551958746,0.2472567652240806,-3.313106,52.51211
188,Ruthin,0.46712453005578,0.01,0.18509812694402927,0.2717662731844189,-3.3103108,53.114869999999996
189,Sidmouth,0.5305691448794695,0.01,0.14631385342157666,0.20505747803861232,-3.2375599999999998,50.67865
190,Barrow-in-Furness,0.5674974231271666,0.01,0.2810090797183197,0.2109812034273236,-3.2188939999999997,54.10896999999999
191,Peebles,0.5472099178109213,0.01,0.01,0.04861125574292946,-3.1936419999999996,55.65306999999999
192,Edinburgh,0.5928841458374056,0.01,0.01,0.15678673790971548,-3.1882669999999997,55.95325
193,Cardiff,0.6483614147897763,0.01,0.07857665457999076,0.4588517830112093,-3.17909,51.48158
194,Llangollen,0.5401804357372351,0.01,0.6036071843566366,0.1879888247732961,-3.1716599999999997,52.96921
195,Kirkcaldy,0.5894648446983108,0.01,0.01,0.15183800330395694,-3.158137,56.11682
196,Welshpool,0.8144694802308174,0.01,0.6873711170751936,0.2523044002981361,-3.146407,52.66035
197,Mold,0.4773072999365384,0.01,0.1445001534702176,0.22180278687173416,-3.1419029999999997,53.1672
198,Taunton,0.3413414169133104,0.01,0.25349092698376874,0.4736868532557447,-3.106849,51.01534
199,Wick,0.4859731846339315,0.01,0.01,0.1552022532578717,-3.093716,58.43894
200,John o' Groats,0.4859731846339315,0.01,0.01,0.1552022532578717,-3.0688997000000002,58.63734
201,Dalkeith,0.5882328287538183,0.01,0.01,0.1419880317970406,-3.066606,55.893119999999996
202,Oswestry,0.5581350302398211,0.01,0.6970053173636697,0.20157147886637405,-3.056412,52.85715
203,Blackpool,0.5301743311991176,0.01,0.11886198842263668,0.20624680394454176,-3.0356748,53.81751
204,Birkenhead,0.4572333015040102,0.01,0.11357779628663905,0.2406622836209525,-3.023009,53.389990000000004
205,Cupar,0.5193423379409693,0.01,0.01,0.20055328317428006,-3.010137,56.32023
206,Southport,0.513595927805708,0.01,0.1865207403216828,0.1742713769027885,-3.010113,53.64571
207,Bridgwater,0.4378482688986944,0.01,0.22192097790898965,0.3258306254564211,-3.003632,51.12789
208,Langholm,0.7594815945839233,0.01,0.01,0.5574482383032126,-2.998913,55.153059999999996
209,Newport,0.600528620565277,0.01,0.08060577583908593,0.4545626710471275,-2.997664,51.58415
210,Axminster,0.43975126503617296,0.01,0.13468453338780584,0.25167881537013537,-2.9949369999999997,50.78273
211,Wrexham,0.5644894708482768,0.01,0.5683496894954924,0.17700815863779132,-2.9924939999999998,53.04304000000001
212,Liverpool,0.4658495806618442,0.01,0.11386293591396615,0.2336675473082677,-2.9915726,53.40837
213,Weston-super-Mare,0.6439465217690009,0.01,0.07587403222084704,0.4734516634554711,-2.977255,51.347409999999996
214,Dundee,0.5185939034844609,0.01,0.01,0.16142677897875116,-2.9707209999999997,56.462019999999995
215,Kirkwall,0.4844058236383833,0.01,0.01,0.11627138975347945,-2.9622491,58.984669999999994
216,Ambleside,0.6487597095606237,0.01,0.3481138476366161,0.3368683165329013,-2.961333,54.42874000000001
217,Orkney Islands,0.4844058236383833,0.01,0.01,0.11627138975347945,-2.9605206,58.980940000000004
218,Lyme Regis,0.5688788358720863,0.01,0.3466482827942145,0.26604663560049063,-2.936639,50.725159999999995
219,Carlisle,0.7219908301303465,0.01,0.01,0.519626273104656,-2.932931,54.892469999999996
220,Chester,0.5279664495524178,0.01,0.11338059303979607,0.12106807631360647,-2.893075,53.19339
221,Forfar,0.5596362505159572,0.01,0.01,0.20682827001340007,-2.889062,56.64356
222,Morecambe,0.5346350585780824,0.01,0.3192144836931687,0.2396657457743384,-2.864968,54.074169999999995
223,Selkirk,0.5460510047668319,0.01,0.01,0.11020051841459698,-2.838524,55.55066
224,Galashiels,0.510290922471212,0.01,0.01,0.1135612233503258,-2.814449,55.62373
225,Lancaster,0.5754113922775561,0.01,0.3447949236320882,0.2646241970533809,-2.8007399,54.046569999999996
226,St Andrews,0.5080850714606344,0.01,0.01,0.1728445347784009,-2.7967214,56.33978000000001
227,Hawick,0.5343327838867329,0.01,0.01,0.5807240245439333,-2.780914,55.42706
228,Bridport,0.4860410658985917,0.01,0.4026097531308886,0.255257649706118,-2.758301,50.733579999999996
229,Shrewsbury,0.8026851186313061,0.01,0.4489460284620336,0.4044815898343059,-2.7553267999999997,52.7073
230,Penrith,0.6180686752080375,0.01,0.01,0.5885625028803273,-2.752708,54.6641
231,Kendal,0.6936300957735477,0.01,0.3619119883956624,0.3139909847971895,-2.74629,54.32801
232,Street,0.49368786135346004,0.01,0.21760378163231864,0.3630591047588324,-2.7429189999999997,51.12468
233,Glastonbury,0.489134594985493,0.01,0.2067362725700783,0.3725214783789341,-2.718454,51.14743
234,Hereford,0.7923103085915519,0.01,0.01,0.3429777676400105,-2.715974,52.0564
235,Ludlow,0.9257857614562048,0.01,0.01,0.537384515493502,-2.7139129,52.36775
236,Preston,0.4792471376150932,0.01,0.01,0.3942199807860015,-2.70309,53.7632
237,Whitchurch,0.626794028534727,0.01,0.2029777358281296,0.2472191547967641,-2.682045,52.96872
238,Wells,0.6352945614335893,0.01,0.01,0.2866826572835943,-2.6445979,51.20935
239,Yeovil,0.5330946760338733,0.01,0.4073381491631471,0.35340225365668626,-2.633308,50.94206
240,Wigan,0.4033161412753225,0.01,0.01,0.5637004040877605,-2.6325074,53.54506
241,Warrington,0.5126537126449563,0.01,0.01,0.4538878436008877,-2.5969501,53.39004
242,Arbroath,0.5082745008017585,0.01,0.01,0.18919097367469487,-2.591543,56.55911
243,Bristol,0.6651025591638454,0.01,0.01,0.2905512968562779,-2.58791,51.45451
244,Guernsey,0.6948331026305791,0.01,0.1048955830525776,0.2940203187148601,-2.5852779999999997,49.46569
245,Ross-on-Wye,0.4858754240091861,0.01,0.34754825776893433,0.371112832168204,-2.582446,51.91445
246,Jedburgh,0.6806903022204424,0.01,0.01,0.2890319519136008,-2.5549369,55.47772
247,Sedbergh,0.6509089928506508,0.01,0.4032121664443542,0.3901867471267628,-2.5281740000000004,54.32363
248,Nantwich,0.4342717385055581,0.01,0.01,0.277709745432244,-2.524102,53.06718000000001
249,Banff,0.292643861791582,0.01,0.01,0.17068215677133922,-2.524038,57.666509999999995
250,Dunbar,0.5658021320559129,0.01,0.01,0.13966820513070485,-2.516737,56.00209
251,Cinderford,0.4676948487152744,0.01,0.4546839014963696,0.3793066431868296,-2.5009579,51.8253
252,Banchory,0.3753026456954389,0.01,0.01,0.2003016145785328,-2.4909599,57.05386
253,Blackburn,0.4763476793233096,0.01,0.10779661212955728,0.3597045759094744,-2.487529,53.748580000000004
254,Market Drayton,0.5885049339942078,0.01,0.01,0.3686953790244819,-2.483485,52.90355
255,Telford,0.7074326195877602,0.01,0.01,0.4700380878969535,-2.4672611,52.67759
256,Montrose,0.4198501607649158,0.01,0.01,0.14647868358408428,-2.4661150000000003,56.70692
257,Turriff,0.3013045248532321,0.01,0.01,0.16624254770708222,-2.4623,57.53893000000001
258,Weymouth,0.7406987906343095,0.01,0.1468538937384082,0.28421978359436484,-2.457621,50.61443
259,Crewe,0.4633614712302658,0.01,0.01,0.269896331482243,-2.4438209,53.1004
260,Fortuneswell,0.7382634777419111,0.01,0.14369609651693502,0.27810822763270776,-2.4422189999999997,50.55919
261,Dorchester,0.7551438657357958,0.01,0.14704120639030924,0.28458234479024125,-2.4411810000000003,50.71116
262,Alston,0.6805075449694344,0.01,0.01,0.7777722263777714,-2.438685,54.812169999999995
263,Kelso,0.6453305453317921,0.01,0.01,0.23345722802620475,-2.432207,55.600030000000004
264,Wincanton,0.709211746921778,0.01,0.2861664509110614,0.401059567162142,-2.416007,51.05569000000001
265,Clitheroe,0.4486999883363164,0.01,0.1262876257770705,0.32026926739540423,-2.3930830000000003,53.8711
266,Sark,0.7078999559867662,0.01,0.1248514560594965,0.2832979126932921,-2.3666256000000003,49.43007
267,Bath,0.6690889879628135,0.01,0.01,0.3421453530572237,-2.3590167,51.38106
268,Kidderminster,0.7087652970657445,0.01,0.09589435317438784,0.7055738874846678,-2.2496839,52.3886
269,Manchester,0.5111704780030466,0.01,0.05546380049859388,0.34905365185617154,-2.2426305,53.48076
270,Burnley,0.4176857927494084,0.01,0.1633960451923554,0.3816633325032082,-2.2405035,53.78929
271,Gloucester,0.4924483030462274,0.01,0.2816164452457563,0.3664911531855533,-2.238156,51.86424
272,Newcastle-under-Lyme,0.5601537726362715,0.01,0.01,0.3156663936264118,-2.2273002,53.01321
273,Worcester,0.6275392719916143,0.01,0.01,0.8319927810135916,-2.221575,52.19364
274,Trowbridge,0.6210783680321749,0.01,0.01,0.4818028954379161,-2.208853,51.31966
275,Shaftesbury,0.6536564435241358,0.01,0.5397752350541387,0.2701749477552945,-2.198083,51.0046
276,Alderney,0.6791212006796463,0.01,0.2385966731441533,0.3025442041611424,-2.1973557,49.715
277,Stoke-on-Trent,0.5884715735436269,0.01,0.01,0.3154865947352935,-2.179404,53.002669999999995
278,Colne,0.33810516311609834,0.01,0.24555911249630466,0.2785966369741852,-2.176991,53.85564
279,Blandford Forum,0.7846977438598883,0.01,0.14418435991507034,0.2790532242383528,-2.165353,50.85691
280,Rochdale,0.5135147023608155,0.01,0.05514698330145264,0.3433794625132052,-2.1561,53.60971
281,Jersey,0.6726327380871181,0.01,0.23221614659958786,0.32544873283324943,-2.13125,49.21444
282,Wolverhampton,0.5317480741939073,0.01,0.09214255310339964,0.7010289803021064,-2.12882,52.586969999999994
283,Stafford,0.6975921569390484,0.01,0.01,0.2900630259920733,-2.12066,52.80669
284,Macclesfield,0.6040126119694109,0.01,0.01,0.2600939684617457,-2.119287,53.25866
285,Hexham,0.5506785343987005,0.01,0.08323538762465797,0.8360175121682749,-2.1121439,54.97266
286,Aberdeen,0.3294415991457021,0.01,0.01,0.21698829213431364,-2.094278,57.149719999999995
287,Dudley,0.5025176473950109,0.01,0.09744221053330657,0.7657356987319471,-2.081112,52.51225
288,Cheltenham,0.5217585048356429,0.01,0.2868825853168599,0.4595008259892374,-2.0782533,51.899390000000004
289,Bromsgrove,0.7237864926442172,0.01,0.11965228154100005,0.8085127407953603,-2.061906,52.33559
290,Skipton,0.3800377990417901,0.01,0.01,0.180603582551066,-2.0162787,53.96285
291,Fraserburgh,0.329016035832641,0.01,0.01,0.16575832037924607,-2.007631,57.69335
292,Berwick,0.6627333869908592,0.01,0.01,0.4214543891313288,-2.005395,55.77024
293,Poole,0.8136520041461507,0.01,0.14782584181170574,0.2269076130594925,-1.987248,50.71505
294,Walsall,0.5157869841816799,0.01,0.01,0.9964811817140872,-1.9829189999999999,52.586209999999994
295,Cirencester,0.5043681370841843,0.01,0.2358165721524641,0.4918075737541034,-1.968243,51.71849
296,Evesham,0.6159144603731418,0.01,0.01,0.5062479560754521,-1.9467700000000001,52.09215
297,Buxton,0.5971577646022433,0.01,0.01,0.34305946923101466,-1.91483,53.259080000000004
298,Keighley,0.44462189082096976,0.01,0.01,0.243086992973774,-1.9123580000000002,53.8678
299,Birmingham,0.6293494390492161,0.01,0.01,0.9929087727235666,-1.8904009999999998,52.48624
300,Bournemouth,0.8321571911287573,0.01,0.2862355329126561,0.2292322310394702,-1.880769,50.719159999999995
301,Halifax,0.4154837129202011,0.01,0.12726982410330795,0.390709665004644,-1.8575400000000002,53.727019999999996
302,Salisbury,0.8038298172225395,0.01,0.31548098468107305,0.4105619330186539,-1.794472,51.06878
303,Ringwood,0.5632545539950381,0.01,0.1900576862379316,0.3171000488326255,-1.7888169999999999,50.84495
304,Huddersfield,0.3834089450956985,0.01,0.15201989672309926,0.4058179786040428,-1.7850351000000002,53.64579000000001
305,Peterhead,0.3086333807095218,0.01,0.01,0.15991369320880866,-1.784066,57.50812
306,Swindon,0.4330783046473893,0.01,0.01,0.7433115477194898,-1.7797176,51.55577
307,Bradford,0.35345329111026297,0.01,0.01,0.4080624736339272,-1.759398,53.79598000000001
308,Ashbourne,0.5570614039128687,0.01,0.01,0.37845514643583866,-1.7321790000000001,53.016630000000006
309,Marlborough,0.484782651684509,0.01,0.01,0.6328417187045795,-1.7270619999999999,51.42007
310,Stratford-upon-Avon,0.6640823095578221,0.01,0.01,0.5558657477240984,-1.7082979999999999,52.19173
311,Alnwick,0.6070333282467836,0.01,0.0804610688269349,0.7866730192654015,-1.7062990000000002,55.41274
312,Otley,0.6151982260037158,0.01,0.1376982460821244,0.39883108010500345,-1.691786,53.90583
313,Bishop Auckland,0.4255162157279086,0.01,0.01,0.6758968231319527,-1.6787880000000002,54.663819999999994
314,Burton upon Trent,0.5785849864458512,0.01,0.1568397012188215,0.4605529209177343,-1.6371358999999999,52.81403
315,Newcastle,0.5270245244825408,0.01,0.0864951755545328,0.7302192139542549,-1.61778,54.97825
316,Durham,0.4613874028285064,0.01,0.01,0.7955959962121479,-1.5848520000000001,54.77525
317,Ashington,0.5343702056095584,0.01,0.07890788576304741,0.8109834799936899,-1.5659829,55.18298000000001
318,Darlington,0.41855925637287617,0.01,0.01,0.6110247351428288,-1.559458,54.52361
319,Leeds,0.6349505136562951,0.01,0.2627378862725168,0.4584021473061407,-1.5490774,53.80076
320,Harrogate,0.6617476581989153,0.01,0.16316886583468826,0.4377581493321186,-1.5418120000000002,53.99211999999999
321,Leamington Spa,0.7144301916652388,0.01,0.01,0.5679394703654205,-1.5200789,52.28519
322,Coventry,0.6059277919236233,0.01,0.01,0.5829266163510418,-1.519693,52.40682
323,Blyth,0.5325754133683112,0.01,0.0755311398188588,0.7762786382078515,-1.510277,55.12696
324,Wakefield,0.6547466050309413,0.01,0.2529021253422232,0.4653531248005927,-1.505924,53.6833
325,Andover,0.6244988295347679,0.01,0.2907986245958844,0.4075515201924236,-1.4919233,51.2112
326,Witney,0.7604110457461919,0.01,0.01,0.4364706430397113,-1.4850543999999999,51.785940000000004
327,Barnsley,0.4413902784777513,0.01,0.01,0.265755833327425,-1.479726,53.55263000000001
328,Derby,0.5422641584895992,0.01,0.3472356458037685,0.4403000935441674,-1.4746186000000001,52.92253
329,Sheffield,0.4849973189317245,0.01,0.01,0.2900888658511943,-1.470085,53.38113000000001
330,Nuneaton,0.547236606171386,0.01,0.193746725988288,0.6853006208656225,-1.465382,52.52049
331,Northallerton,0.5032753647595072,0.01,0.01,0.4139921258499181,-1.429959,54.337959999999995
332,South Shields,0.5230041550512425,0.01,0.06917433686915417,0.7432616959012499,-1.427406,54.99941999999999
333,Chesterfield,0.4859984225400231,0.01,0.01,0.27638163760342593,-1.421629,53.23505
334,Southampton,0.4223446521957358,0.01,0.13693328118661244,0.4030124567507781,-1.4043508999999998,50.9097
335,Wetherby,0.7186394102559119,0.01,0.17895552799806794,0.38934408522578223,-1.384816,53.92706
336,Sunderland,0.5150107010012085,0.01,0.06863945626129231,0.7191911332005133,-1.383801,54.90687
337,Rotherham,0.4698104814638462,0.01,0.01,0.3055181420736938,-1.3635008999999998,53.4326
338,Castleford,0.6840553563659838,0.01,0.26655183801214033,0.4142305560183774,-1.345968,53.72346999999999
339,Thirsk,0.7088030088794447,0.01,0.01,0.24059293420269,-1.341377,54.23385
340,Banbury,1.0,0.01,0.01,0.3734065974117822,-1.339775,52.0629
341,Stockton,0.4187106838094255,0.01,0.01,0.6189020702019951,-1.3289821000000002,54.57046
342,Newbury,0.6388600683734901,0.01,0.5928216773179152,0.2274902423374432,-1.3231138999999998,51.40141
343,Isle of Wight,0.33215162809636145,0.01,0.16894923384477484,0.4510109505611764,-1.304734,50.69385
344,Abingdon,0.7526482139414772,0.01,0.01,0.4431348064065569,-1.2879528999999998,51.67078
345,Shetland Islands,0.3523834359646804,0.01,0.01,0.12863178804513514,-1.2659409,60.52965
346,Rugby,0.7073925870470633,0.01,0.01,0.6494010248647576,-1.265032,52.37088
347,Oxford,0.7538265630741658,0.01,0.01,0.4431343632792836,-1.2577263,51.75202
348,Middlesbrough,0.4252507825776353,0.01,0.01,0.6159472975440115,-1.234956,54.57423000000001
349,Hartlepool,0.4252768907563507,0.01,0.01,0.691572755072921,-1.212926,54.69174
350,Loughborough,0.426169500377543,0.01,0.2447921418158045,0.5554529192781634,-1.206166,52.7721
351,Mansfield,0.4693907199682775,0.01,0.01,0.20602479718064706,-1.198674,53.1472
352,Nottingham,0.4953236837954178,0.01,0.2972743221798915,0.3471892769403657,-1.1581086,52.95478000000001
353,Bicester,0.7660808718905547,0.01,0.01,0.4869039550438519,-1.1535898999999998,51.8996
354,Leicester,0.4431398165425584,0.01,0.01,0.5768472425076041,-1.1397591999999999,52.63688000000001
355,Doncaster,0.33435950974306106,0.01,0.01,0.2095703415802273,-1.128462,53.522819999999996
356,Worksop,0.34461538252422275,0.01,0.01,0.15898276589408905,-1.122745,53.3093
357,Basingstoke,0.5629154377626122,0.01,0.14817367259466505,0.3658841796030288,-1.0923964,51.26654
358,Portsmouth,0.29261717343111737,0.01,0.16547145166917898,0.44172699105946417,-1.0879769,50.81977
359,York,0.6746033253983822,0.01,0.16338832637840067,0.2616996401363414,-1.0872979,53.95997
360,Selby,0.6624969629280474,0.01,0.15001084714688634,0.3003411138358515,-1.067189,53.783519999999996
361,Helmsley,0.6650335175356866,0.01,0.1464532762277586,0.3372011605060159,-1.0562636,54.24651
362,Towcester,0.7308777640741968,0.01,0.01,0.35794727162106593,-0.9896879999999999,52.13511
363,Reading,0.4856682991247105,0.01,0.8100527011014207,0.2270562268687564,-0.9781303,51.45426
364,Retford,0.34031449521717105,0.01,0.01,0.2493667157356267,-0.9455030000000001,53.32136
365,Petersfield,0.3765155156422068,0.01,0.01,0.3129864152687479,-0.93899,51.00759
366,Northampton,0.7271709828783579,0.01,0.01,0.5899679364183262,-0.9026559999999999,52.24048
367,Melton Mowbray,0.6090085570120416,0.01,0.01,0.26343171386562964,-0.887126,52.7664
368,Aylesbury,0.5919825433991001,0.01,0.01,0.3300071277021901,-0.8084,51.81561
369,Newark-on-Trent,0.6342470432853521,0.01,0.2090608667074399,0.26509236101756195,-0.80657,53.07004000000001
370,Malton,0.7458592172028472,0.01,0.14134921741670411,0.2829994110838539,-0.7978970000000001,54.13684
371,Chichester,0.3509028121406423,0.01,0.0743340043398824,0.383227682559574,-0.774936,50.83761
372,Gainsborough,0.30499999250496074,0.01,0.01,0.3734442355345533,-0.774465,53.400569999999995
373,Milton Keynes,0.7325176477883989,0.01,0.2879331601616961,0.3112988758304205,-0.7594171,52.040620000000004
374,Aldershot,0.5796760182252806,0.01,0.14047220522184956,0.30936786565090074,-0.7557509,51.24837
375,High Wycombe,0.5779409847042044,0.01,0.01,0.07960022608353481,-0.748229,51.628609999999995
376,Midhurst,0.5168945511409624,0.01,0.1493159187299635,0.13452740254745008,-0.737274,50.9869
377,Kettering,0.6337608509794962,0.01,0.01,0.5827187065735272,-0.7302489999999999,52.39632
378,Wellingborough,0.6480579797349284,0.01,0.15917075536714514,0.62673819442475,-0.693964,52.30242
379,Corby,0.4689315061137608,0.01,0.01,0.4062798280045802,-0.6842333,52.4923
380,Bognor Regis,0.3608169578715065,0.01,0.1781271664639279,0.3815979989258595,-0.673061,50.783
381,Scunthorpe,0.4040184512827671,0.01,0.24244884546255266,0.41260184172557307,-0.654413,53.58865
382,Grantham,0.6242702379255707,0.01,0.3027135407459796,0.060607154156888325,-0.643582,52.912519999999994
383,Whitby,0.4952642151661215,0.01,0.01,0.558705695027403,-0.613347,54.48634000000001
384,Slough,0.22499699055821026,0.01,0.01,0.4049913800667173,-0.5950406,51.51054
385,Guildford,0.591100377049394,0.01,0.14112906522299576,0.2825586379242501,-0.570409,51.23622
386,Woking,0.5510562327174502,0.01,0.1412155076394886,0.2261853709950157,-0.5600349,51.31677
387,Lincoln,0.5338370185820146,0.01,0.20407470655469365,0.29962823283502193,-0.540579,53.23069
388,Bedford,0.6891389088527483,0.01,0.5059619607165212,0.2431203106056309,-0.46677820000000003,52.13864
389,Heathrow,0.5808552376305931,0.01,0.01,0.2281016748881547,-0.4542955,51.47002
390,Driffield,0.556449022076555,0.01,0.2682442778862108,0.4296477847181356,-0.443377,54.006
391,Beverley,0.4650135387612021,0.01,0.3873499899344177,0.3619115712938608,-0.435093,53.84196
392,Luton,0.6028887999211501,0.01,0.08019734268348219,0.5700073791769177,-0.4200255,51.87867
393,Scarborough,0.648880097273589,0.01,0.2792589700675876,0.31993664498592633,-0.399752,54.28311
394,Worthing,0.6377455392332169,0.01,0.1266908992237045,0.31452794427054165,-0.372882,50.81787
395,Dorking,0.4403227440591658,0.01,0.01,0.18234022603035954,-0.332378,51.2322
396,Hull,0.4419521845018821,0.01,0.3812470916982233,0.3816529744031962,-0.3274198,53.767619999999994
397,Horsham,0.41636007745241504,0.01,0.01,0.08800587963422503,-0.325858,51.06288
398,Biggleswade,0.597049270615137,0.01,0.01,0.2436448071244231,-0.26421999999999995,52.08694000000001
399,Peterborough,0.4498533896537882,0.01,0.01,0.5448514870021909,-0.2405299,52.5695
400,Welwyn Garden City,0.6097622131042931,0.01,0.01,0.5481773510560609,-0.208661,51.80317
401,Bridlington,0.5456321135438869,0.01,0.3825768164814218,0.4340486755368929,-0.198802,54.08535
402,Stevenage,0.5623842813711912,0.01,0.01,0.5815469949767093,-0.19661199999999998,51.90376
403,Crawley,0.3378829535061428,0.01,0.01,0.16588519325666642,-0.18722750000000002,51.109140000000004
404,Huntingdon,0.5763370722584545,0.01,0.07936559206436207,0.27542697528413324,-0.182552,52.33146
405,Hove,0.6765814550723863,0.01,0.13839089205406066,0.3269502142077239,-0.168749,50.82793
406,Spalding,0.5954233112629163,0.01,0.18135296671300216,0.4780712652790284,-0.1537024,52.7901
407,Brighton,0.6672004963690655,0.01,0.1397159827822863,0.3300807699159122,-0.137163,50.82253
408,London,0.6543526616232133,0.01,0.015318013959129212,0.40513298692597294,-0.12775830000000002,51.50735
409,Grimsby,0.4609922990572799,0.01,0.3166863369620013,0.2958885986897613,-0.08078400000000001,53.56746999999999
410,Boston,0.656655693076787,0.01,0.17325034234254022,0.3642130635692661,-0.026576999999999996,52.97894
411,Royston,0.5494038750956395,0.01,0.06897142059334466,0.17491363449444494,-0.024066,52.048140000000004
412,Louth_Lincs,0.5102447980221481,0.01,0.29445209970344954,0.3537187019206908,-0.007711,53.36596
413,Lewes,0.6902157261793217,0.01,0.08796726957289604,0.311148600293882,0.00878,50.873870000000004
414,Chatteris,0.4989640341809694,0.01,0.05950751836686938,0.3653680471115192,0.054012,52.4561
415,Uckfield,0.7359334678369982,0.01,0.01,0.343751772509093,0.095913,50.966409999999996
416,Cambridge,0.5273764047134496,0.01,0.07549390138307728,0.20153140354360025,0.12181700000000001,52.20534
417,Bishop's Stortford,0.4615820538053736,0.01,0.01,0.4172986861719476,0.15365020000000001,51.87216
418,Wisbech,0.4570551857069962,0.01,0.01,0.5368927550020207,0.158797,52.66631999999999
419,Sevenoaks,0.657044995030521,0.01,0.01,0.5263173010624419,0.190898,51.27241
420,Tunbridge Wells,0.6304926871860763,0.01,0.01,0.5305342109764398,0.26369499999999996,51.13238
421,Eastbourne,0.6843793878729296,0.01,0.08286707016881889,0.4147764611235581,0.29047199999999995,50.768029999999996
422,Brentwood,0.4119631700658656,0.01,0.18357433900496933,0.5359952007100671,0.30717490000000003,51.62047000000001
423,Skegness,0.5994091598801353,0.01,0.01,0.4129966681260325,0.337881,53.1464
424,Downham Market,0.4936118575443107,0.01,0.01,0.441304275336245,0.385472,52.606609999999996
425,King's Lynn,0.5200388461309214,0.01,0.01,0.5026022095212098,0.4022963,52.75168000000001
426,Bexhill,0.714378845580432,0.01,0.01,0.5767672857302383,0.4662071,50.849909999999994
427,Chelmsford,0.3918592922732522,0.01,0.33149519969311764,0.5457058086895485,0.4685497,51.73559
428,Mildenhall,0.4984752310572422,0.01,0.052371931354733885,0.20971078523039074,0.5156095,52.34757000000001
429,Medway,0.439720225312589,0.01,0.14667948727543142,0.5286083244560169,0.5417860999999999,51.404740000000004
430,Braintree,0.4821631310867296,0.01,0.2186574689021366,0.4450768670724531,0.5509269,51.88009
431,Gillingham,0.4859467863643415,0.01,0.01,0.5213898642612537,0.551438,51.38632
432,Hastings,0.7247652592551705,0.01,0.01,0.5819901222499522,0.573453,50.85426
433,Maldon,0.4429297907493367,0.01,0.2554916629270304,0.5058437132204363,0.6714479999999999,51.7318
434,Southend,0.4124545840074645,0.01,0.18986637584905397,0.4656678836418681,0.7077123000000001,51.54593
435,Bury St Edmunds,0.403724879317656,0.01,0.01,0.37004569860787134,0.7104931999999999,52.24292
436,Thetford,0.3982700105113831,0.01,0.01,0.38012412991959904,0.751657,52.412859999999995
437,Ashford,0.5653165199318061,0.01,0.11898194819793292,0.4248207439397914,0.8750190000000001,51.14647
438,Faversham,0.5796887822237636,0.01,0.1065412812199223,0.4301739983551116,0.889358,51.31599
439,Colchester,0.5245503394129439,0.01,0.18245328502554656,0.6940606377576342,0.891874,51.89593
440,New Romney,0.6417795429356218,0.01,0.10984703620852744,0.5828091045372688,0.939473,50.98512
441,Canterbury,0.5597670815004087,0.01,0.10575310455054653,0.43404936792325743,1.0789089,51.280229999999996
442,Ipswich,0.4855505222296165,0.01,0.01,0.6404807343771048,1.14822,52.05674000000001
443,Clacton,0.573803128468687,0.01,0.01,0.5799036297884334,1.153035,51.78953
444,Folkestone,0.6428038538138898,0.01,0.16937191499029494,0.4408358344175181,1.169456,51.0814
445,Sheringham,0.5331584960262887,0.01,0.01,0.4596183931939196,1.2109589,52.944419999999994
446,Harwich,0.4924831139511813,0.01,0.01,0.6416050590511404,1.260297,51.93473
447,Norwich,0.5095285636527219,0.01,0.01,0.4976545550381799,1.297355,52.63089
448,Cromer,0.5155659349352227,0.01,0.01,0.4953055096672646,1.301866,52.93145
449,Dover,0.5733607398848979,0.01,0.18391522562196927,0.35594799214601225,1.3134027,51.12788
450,Felixstowe,0.4785776078764801,0.01,0.01,0.6702650078344902,1.3512549999999999,51.961729999999996
451,Margate,0.5992406170819836,0.01,0.1483330840857298,0.3563784349010585,1.3868339,51.38965
452,Ramsgate,0.6081292915710816,0.01,0.15313905558153315,0.3066041916295031,1.4198950000000001,51.33555
453,Great Yarmouth,0.5143739515314272,0.01,0.01,0.5075149123405628,1.728047,52.59823000000001
454,Lowestoft,0.494459212989063,0.01,0.01,0.5350204591862057,1.7534490000000005,52.48114
455,Swaffham,0.4657347046754965,0.01,0.01,0.422762223887396,0.687481,52.64747
456,Dereham,0.5357385642651203,0.01,0.01,0.4161065076341966,0.9378270000000001,52.681619999999995
457,Ely,0.4764669066727769,0.01,0.055373346512124576,0.2586840482601051,0.262363,52.39954
458,March,0.462242010545124,0.01,0.01,0.6661807591479195,0.088622,52.551719999999996
459,St Neots,0.6052005341009621,0.01,0.4013753515501308,0.4553763635026197,-0.26510300000000003,52.23008
460,Banham,0.4344539155748166,0.01,0.01,0.4710340164435669,1.0402849,52.45125
461,Holt,0.5242483548124691,0.01,0.01,0.443800494352786,1.086747,52.90936
462,Hunstanton,0.6470203246764281,0.01,0.01,0.36093120759271996,0.49103199999999997,52.93891
463,Horncastle,0.5733389830693018,0.01,0.16175352861499204,0.3292489923285807,-0.11245,53.20731
464,Market Weighton,0.5731869754510031,0.01,0.2888212940884855,0.34052946175988885,-0.6677465,53.86484
465,Hawes,0.5861192266413686,0.01,0.01,0.1860117293573592,-2.1968695,54.30383000000001
466,Reeth,0.4761019723525105,0.01,0.01,0.3639084412643662,-1.9428115000000001,54.38946
467,Aysgarth,0.5816303604475662,0.01,0.01,0.3184230330023468,-1.9967433999999997,54.29159
468,Stanhope,0.4973763668241979,0.01,0.01,0.8441829630414129,-2.011302,54.74946
469,Keswick,0.6708504197534797,0.01,0.01,0.5404230669015833,-3.134706,54.60128
470,Oxenholme,0.6857201878954031,0.01,0.3653048774507561,0.31693462388243304,-2.7243327999999996,54.30134
