placename,where_is_x,where_is_x_at,where_to_is_x,where_x_to,longitude,latitude
Dingle,0.9921044,0.0046444422,0.00000000000,0.0032511095,-10.2640135,52.14094
Tralee,0.9935327,0.0035929578,0.00000000000,0.0028743662, -9.6999325,52.27131
Killarney,0.9935143,0.0033725841,0.00000000000,0.0031131545, -9.5044265,52.05994
Bantry,0.9935210,0.0033690879,0.00000000000,0.0031099273, -9.4539805,51.68035
Mayo,0.9934923,0.0061461334,0.00000000000,0.0003615373, -9.4289369,54.01526
Ballycastle,0.9939624,0.0057022104,0.00000000000,0.0003354241, -9.3724643,54.27967
Abbeyfeale,0.9934076,0.0038166467,0.00000000000,0.0027757431, -9.2970823,52.38618
Ennistymon,0.9947477,0.0049021515,0.00000000000,0.0003501537, -9.2934951,52.94037
Galway,0.9943601,0.0053081687,0.00000000000,0.0003317605, -9.0567905,53.27067
Claremorris,0.9933215,0.0063074576,0.00000000000,0.0003710269, -9.0017356,53.72388
Clare,0.9949685,0.0046960605,0.00000000000,0.0003354329, -8.9811351,52.90453
Adare,0.9972671,0.0022774432,0.00000000000,0.0004554886, -8.7925892,52.56363
Charleville,0.9947040,0.0024273332,0.00000000000,0.0028686666, -8.6810176,52.36206
Mallow,0.9945788,0.0027106236,0.00000000000,0.0027106236, -8.6539164,52.13898
Limerick,0.9975028,0.0019977802,0.00000000000,0.0004994451, -8.6267343,52.66384
Loughrea,0.9949059,0.0047545376,0.00000000000,0.0003396098, -8.5660931,53.19891
Sligo,0.9959280,0.0035629713,0.00000000000,0.0005089959, -8.4760888,54.27661
Cork,0.9934425,0.0035129263,0.00000000000,0.0030445361, -8.4756035,51.89851
Nenagh,0.9975441,0.0019647438,0.00000000000,0.0004911859, -8.1983400,52.86350
Roscommon,0.9925659,0.0067582789,0.00000000000,0.0006758279, -8.1890955,53.62759
Tipperary,0.9960714,0.0029464724,0.00000000000,0.0009821575, -8.1618514,52.47379
Donegal,0.9924723,0.0070258115,0.00000000000,0.0005018437, -8.1096143,54.65383
Leitrim,0.9945891,0.0048096605,0.00000000000,0.0006012076, -8.0020132,54.12469
Athlone,0.9954763,0.0045237497,0.00000000000,0.0000000000, -7.9406898,53.42393
Longford,0.9925558,0.0063807161,0.00000000000,0.0010634527, -7.7932573,53.72763
Offaly,0.9934448,0.0053633149,0.00000000000,0.0011918478, -7.7122229,53.23569
Fermanagh,0.9922600,0.0054180166,0.00000000000,0.0023220071, -7.6318728,54.34383
Enniskillen,0.9922600,0.0054180166,0.00000000000,0.0023220071, -7.6315336,54.34382
Doon,0.9949482,0.0028867269,0.00000000000,0.0021650452, -7.6096400,54.18593
Westmeath,0.9938713,0.0061287028,0.00000000000,0.0000000000, -7.4653217,53.53453
Strabane,0.9908400,0.0091599629,0.00000000000,0.0000000000, -7.4633103,54.82739
Balivanich,0.9966910,0.0033090171,0.00000000000,0.0000000000, -7.3743509,57.47227
Cavan,0.9935301,0.0057509825,0.00000000000,0.0007188728, -7.3633319,53.98972
Mullingar,0.9942469,0.0057530963,0.00000000000,0.0000000000, -7.3401868,53.52582
Laois,0.9949877,0.0033415170,0.00000000000,0.0016707585, -7.3323007,52.99430
Omagh,0.9892660,0.0095413073,0.00000000000,0.0011926634, -7.3099597,54.59771
Derry,0.9853979,0.0122843343,0.00092711957,0.0013906794, -7.3085748,54.99661
Derry,0.9853979,0.0122843343,0.00092711957,0.0013906794, -7.3085748,54.99661
Kilkenny,0.9945037,0.0042279325,0.00000000000,0.0012683798, -7.2447879,52.65415
Tyrone,0.9893300,0.0091457440,0.00000000000,0.0015242907, -7.1312320,54.49121
Waterford,0.9941736,0.0044818485,0.00000000000,0.0013445546, -7.1100702,52.25932
Western Isles,0.9961456,0.0038543522,0.00000000000,0.0000000000, -7.0194034,57.75989
Monaghan,0.9899889,0.0066740823,0.00000000000,0.0033370412, -6.9683132,54.24920
Carlow,0.9932138,0.0052781280,0.00000000000,0.0015080366, -6.9341359,52.83651
Kildare,0.9924899,0.0066265474,0.00000000000,0.0008835397, -6.8194708,53.21204
Dungannon,0.9833729,0.0142517815,0.00000000000,0.0023752969, -6.7669352,54.50827
Cookstown,0.9776699,0.0203883495,0.00000000000,0.0019417476, -6.7443895,54.64182
Coleraine,0.9723509,0.0225558439,0.00145521574,0.0036380393, -6.6646103,55.13258
Meath,0.9940047,0.0049052856,0.00000000000,0.0010900635, -6.6564169,53.60555
Armagh,0.9903537,0.0064308682,0.00000000000,0.0032154341, -6.6527920,54.35028
Armagh,0.9903537,0.0064308682,0.00000000000,0.0032154341, -6.6527920,54.35028
Magherafelt,0.9793578,0.0206422018,0.00000000000,0.0000000000, -6.6079805,54.75537
Dunvegan,0.9966910,0.0033090171,0.00000000000,0.0000000000, -6.5813982,57.43660
Louth,0.9929255,0.0047163632,0.00000000000,0.0023581816, -6.4889423,53.92523
Wexford,0.9937122,0.0047158483,0.00000000000,0.0015719494, -6.4633381,52.33692
Craigavon,0.9943311,0.0022675737,0.00000000000,0.0034013605, -6.4175653,54.44293
Stornoway,0.9920140,0.0074155381,0.00000000000,0.0005704260, -6.3848692,58.20943
Drogheda,0.9942683,0.0030862988,0.00000000000,0.0026453990, -6.3560985,53.71786
Rosslare,0.9937048,0.0047214147,0.00000000000,0.0015738049, -6.3414908,52.25131
Newry,0.9922426,0.0042313117,0.00000000000,0.0035260931, -6.3402300,54.17510
Scilly Isles,0.9904430,0.0031856796,0.00045509709,0.0059162621, -6.3274966,49.92773
Ballymena,0.9786277,0.0191226097,0.00000000000,0.0022497188, -6.2802213,54.86529
Banbridge,0.9952830,0.0018867925,0.00000000000,0.0028301887, -6.2704803,54.34873
Dublin,0.9946607,0.0041012184,0.00023214444,0.0010059592, -6.2603097,53.34981
Antrim,0.9882629,0.0105633803,0.00117370892,0.0000000000, -6.2072498,54.71953
Antrim,0.9882629,0.0105633803,0.00117370892,0.0000000000, -6.2072498,54.71953
Portree,0.9959992,0.0040008487,0.00000000000,0.0000000000, -6.1960231,57.41247
Islay,0.9804570,0.0123429469,0.00205715782,0.0051428945, -6.1770670,55.73625
Wicklow,0.9931065,0.0054163475,0.00000000000,0.0014771857, -6.0445890,52.98082
Kilkeel,0.9925299,0.0044820717,0.00000000000,0.0029880478, -6.0070040,54.06312
Mull,0.9919042,0.0071963037,0.00000000000,0.0008995380, -6.0008870,56.43920
Belfast,0.9954155,0.0045844522,0.00000000000,0.0000000000, -5.9301200,54.59728
Broadford,1.0000000,0.0000000000,0.00000000000,0.0000000000, -5.9096592,57.24139
Down,0.9951200,0.0048800325,0.00000000000,0.0000000000, -5.7156922,54.32875
Kyle of Lochalsh,1.0000000,0.0000000000,0.00000000000,0.0000000000, -5.7143293,57.28261
Campbeltown,0.9971040,0.0028960070,0.00000000000,0.0000000000, -5.6053740,55.42412
Penzance,0.9904080,0.0031973203,0.00045676005,0.0059378806, -5.5375920,50.11880
Oban,0.9912396,0.0077870364,0.00000000000,0.0009733795, -5.4710470,56.41516
Lochgilphead,0.9927493,0.0065256081,0.00000000000,0.0007250676, -5.4323449,56.03829
Helston,0.9901300,0.0034545155,0.00000000000,0.0064155289, -5.2749960,50.10159
Redruth,0.9904255,0.0031914894,0.00045592705,0.0059270517, -5.2266660,50.23302
Ullapool,0.9923894,0.0062675512,0.00000000000,0.0013430467, -5.1613130,57.89542
Ballachulish,0.9959115,0.0040884594,0.00000000000,0.0000000000, -5.1337200,56.67393
Fort William,1.0000000,0.0000000000,0.00000000000,0.0000000000, -5.1052179,56.81982
Achnasheen,0.9923310,0.0063156168,0.00000000000,0.0013533465, -5.0787658,57.57859
Newquay,0.9913197,0.0033756631,0.00048223758,0.0048223758, -5.0737190,50.41550
Falmouth,0.9912550,0.0032218472,0.00046026388,0.0050629027, -5.0662700,50.15257
Rothesay,0.9933588,0.0060374321,0.00000000000,0.0006037432, -5.0557930,55.83596
Truro,0.9912321,0.0032302723,0.00046146747,0.0050761421, -5.0510410,50.26320
Milford Haven,0.9897611,0.0070884747,0.00000000000,0.0031504332, -5.0426971,51.71431
Stranraer,0.9931857,0.0068143101,0.00000000000,0.0000000000, -5.0240550,54.90337
Fishguard,0.9881402,0.0075471698,0.00000000000,0.0043126685, -4.9759890,51.99393
Inchnadamph,0.9924937,0.0061816771,0.00000000000,0.0013246451, -4.9742950,58.15221
Haverfordwest,0.9897287,0.0071108770,0.00000000000,0.0031603898, -4.9713190,51.80047
Dunoon,0.9924880,0.0068290462,0.00000000000,0.0006829046, -4.9262140,55.95097
Pembroke,0.9914040,0.0070330815,0.00000000000,0.0015629070, -4.9086370,51.67404
Girvan,0.9966814,0.0033185841,0.00000000000,0.0000000000, -4.8542179,55.24016
Wadebridge,0.9909016,0.0036885246,0.00049180328,0.0049180328, -4.8364560,50.51665
Invergarry,1.0000000,0.0000000000,0.00000000000,0.0000000000, -4.8002610,57.07095
St Austell,0.9912228,0.0033758440,0.00045011253,0.0049512378, -4.7834252,50.34038
Greenock,0.9909649,0.0083400904,0.00000000000,0.0006950075, -4.7719830,55.95648
Helensburgh,0.9884423,0.0107872095,0.00000000000,0.0007705150, -4.7340140,56.00232
Bodmin,0.9910944,0.0036103979,0.00048138639,0.0048138639, -4.7188629,50.47150
Tenby,0.9913454,0.0070810386,0.00000000000,0.0015735641, -4.7035790,51.67274
Camelford,0.9962580,0.0026728439,0.00106913756,0.0000000000, -4.6823640,50.62206
Irvine,0.9945785,0.0021214740,0.00000000000,0.0033000707, -4.6696364,55.61157
Cardigan,0.9836431,0.0104089219,0.00000000000,0.0059479554, -4.6608640,52.08370
Holyhead,0.9924092,0.0054220134,0.00000000000,0.0021688053, -4.6330380,53.30944
Ayr,0.9948504,0.0020150758,0.00000000000,0.0031345623, -4.6291790,55.45856
Dumbarton,0.9908434,0.0081927711,0.00000000000,0.0009638554, -4.5645540,55.94529
Bude,0.9947183,0.0026408451,0.00000000000,0.0026408451, -4.5436780,50.82664
Isle of Man,0.9857448,0.0142551675,0.00000000000,0.0000000000, -4.5126331,54.27697
Kilmarnock,0.9943326,0.0022176591,0.00000000000,0.0034496920, -4.4987920,55.61472
Newton Stewart,0.9960221,0.0039779006,0.00000000000,0.0000000000, -4.4831640,54.96030
Liskeard,0.9929073,0.0040255591,0.00000000000,0.0030670927, -4.4647190,50.45552
Altnaharra,0.9924647,0.0062055071,0.00000000000,0.0013297515, -4.4426550,58.28023
Pwllheli,0.9962359,0.0000000000,0.00000000000,0.0037641154, -4.4176339,52.88882
Lairg,0.9926621,0.0060430074,0.00000000000,0.0012949302, -4.4024140,58.02206
Launceston,0.9954819,0.0025100402,0.00000000000,0.0020080321, -4.3604516,50.63683
Carmarthen,0.9940437,0.0049636003,0.00000000000,0.0009927201, -4.3121310,51.85762
Llangefni,0.9947043,0.0052956752,0.00000000000,0.0000000000, -4.3114020,53.25579
Caernarfon,0.9965431,0.0034568850,0.00000000000,0.0000000000, -4.2739110,53.13955
Cumnock,0.9927599,0.0031856357,0.00000000000,0.0040544454, -4.2658289,55.45355
Aberaeron,0.9914700,0.0039806653,0.00000000000,0.0045493318, -4.2581619,52.24279
Alness,0.9926600,0.0060447468,0.00000000000,0.0012953029, -4.2568250,57.69595
Glasgow,0.9950770,0.0040071212,0.00017173377,0.0007441797, -4.2518060,55.86424
Dalwhinnie,0.9928741,0.0071258907,0.00000000000,0.0000000000, -4.2427830,56.93660
Inverness,0.9925571,0.0061294346,0.00000000000,0.0013134503, -4.2247210,57.47777
Saltash,0.9924346,0.0042938931,0.00000000000,0.0032715376, -4.2164300,50.40921
Bideford,0.9929386,0.0027159153,0.00000000000,0.0043454644, -4.2066660,51.01668
Invergordon,0.9926409,0.0060604471,0.00000000000,0.0012986672, -4.1728820,57.68811
Llanelli,0.9928503,0.0039323165,0.00107244995,0.0021448999, -4.1602480,51.68089
Plymouth,0.9924684,0.0042746641,0.00000000000,0.0032568870, -4.1426565,50.37546
Tavistock,0.9926179,0.0041011620,0.00000000000,0.0032809296, -4.1416540,50.55112
Porthmadog,0.9956459,0.0000000000,0.00000000000,0.0043541364, -4.1333840,52.92784
Bangor,0.9933910,0.0066089693,0.00000000000,0.0000000000, -4.1292630,53.22739
Tywyn,0.9944763,0.0024549918,0.00000000000,0.0030687398, -4.0872490,52.58701
Aberystwyth,0.9931627,0.0024862737,0.00000000000,0.0043509790, -4.0829200,52.41530
Lampeter,0.9914229,0.0040026684,0.00000000000,0.0045744782, -4.0785090,52.11290
Barnstaple,0.9926884,0.0028121485,0.00000000000,0.0044994376, -4.0583380,51.07816
Tain,0.9931893,0.0056088382,0.00000000000,0.0012018939, -4.0552300,57.81150
Okehampton,0.9939920,0.0026702270,0.00000000000,0.0033377837, -4.0042630,50.73831
Llandeilo,0.9938049,0.0046463604,0.00000000000,0.0015487868, -3.9914300,51.88469
Motherwell,0.9937413,0.0033379694,0.00000000000,0.0029207232, -3.9810968,55.78321
Golspie,0.9930100,0.0057565072,0.00000000000,0.0012335373, -3.9760860,57.97341
Airdrie,0.9936207,0.0046394742,0.00000000000,0.0017398028, -3.9625660,55.86627
Swansea,0.9917846,0.0037654039,0.00102692834,0.0034230945, -3.9436460,51.62144
Stirling,0.9931507,0.0057077626,0.00000000000,0.0011415525, -3.9369029,56.11652
Tregaron,0.9942227,0.0025676688,0.00000000000,0.0032095860, -3.9343850,52.22000
Tregaron,0.9942227,0.0025676688,0.00000000000,0.0032095860, -3.9343850,52.22000
Castle Douglas,0.9877317,0.0122682661,0.00000000000,0.0000000000, -3.9314140,54.94042
Dolgellau,0.9971584,0.0007103955,0.00000000000,0.0021311864, -3.8844000,52.74215
Aberfeldy,0.9948142,0.0051858254,0.00000000000,0.0000000000, -3.8669690,56.62175
Machynlleth,0.9930085,0.0025423729,0.00000000000,0.0044491525, -3.8534850,52.59027
Brora,0.9933322,0.0056419462,0.00000000000,0.0010258084, -3.8525480,58.01216
Llandudno,0.9918600,0.0073260073,0.00000000000,0.0008140008, -3.8276090,53.32406
Llandudno,0.9918600,0.0073260073,0.00000000000,0.0008140008, -3.8276090,53.32406
Aviemore,0.9929731,0.0058557360,0.00000000000,0.0011711472, -3.8238120,57.19449
Dalbeattie,0.9876408,0.0123592420,0.00000000000,0.0000000000, -3.8225270,54.93422
Falkirk,0.9926092,0.0033594625,0.00000000000,0.0040313550, -3.7839131,56.00188
Kingsbridge,0.9921900,0.0035795639,0.00000000000,0.0042303938, -3.7774930,50.28395
Pitlochry,0.9950820,0.0049180328,0.00000000000,0.0000000000, -3.7297110,56.70436
Colwyn Bay,0.9921661,0.0070505288,0.00000000000,0.0007833921, -3.7276400,53.29318
Totnes,0.9957306,0.0007115750,0.00000000000,0.0035578748, -3.6857970,50.43374
Grantown-on-Spey,1.0000000,0.0000000000,0.00000000000,0.0000000000, -3.6096280,57.33041
Dumfries,0.9909663,0.0086035602,0.00000000000,0.0004301780, -3.6051200,55.07086
Whitehaven,0.9800157,0.0199843260,0.00000000000,0.0000000000, -3.5892330,54.54970
Dartmouth,0.9959276,0.0006787330,0.00000000000,0.0033936652, -3.5788070,50.35252
Bridgend,0.9870354,0.0034572169,0.00345721694,0.0060501296, -3.5769450,51.50429
Paignton,0.9945605,0.0022902949,0.00000000000,0.0031491555, -3.5642350,50.43508
Workington,0.9855552,0.0144447788,0.00000000000,0.0000000000, -3.5427520,54.64357
Llanidloes,0.9886040,0.0056980057,0.00000000000,0.0056980057, -3.5401950,52.44779
Exeter,0.9943036,0.0030157489,0.00000000000,0.0026806657, -3.5338990,50.71841
Torquay,0.9940557,0.0024317752,0.00000000000,0.0035125642, -3.5253150,50.46192
Thurso,0.9929179,0.0061377781,0.00000000000,0.0009442736, -3.5220800,58.59357
Livingston,0.9973196,0.0006700916,0.00000000000,0.0020102747, -3.5180680,55.90071
Rhyl,0.9945610,0.0046620047,0.00000000000,0.0007770008, -3.4916340,53.31914
Tiverton,0.9944643,0.0033214418,0.00000000000,0.0022142945, -3.4912070,50.90205
Tiverton,0.9944643,0.0033214418,0.00000000000,0.0022142945, -3.4912070,50.90205
Minehead,0.9962312,0.0025125628,0.00000000000,0.0012562814, -3.4811520,51.20428
Dunfermline,0.9992215,0.0007785130,0.00000000000,0.0000000000, -3.4521510,56.07174
Perth,1.0000000,0.0000000000,0.00000000000,0.0000000000, -3.4308381,56.39499
Prestatyn,0.9935815,0.0051347882,0.00000000000,0.0012836970, -3.4076130,53.33651
Builth Wells,0.9944238,0.0055762082,0.00000000000,0.0000000000, -3.4045920,52.15002
Braemar,0.9949580,0.0050420168,0.00000000000,0.0000000000, -3.3979439,57.00647
Brecon,0.9920189,0.0035471475,0.00000000000,0.0044339344, -3.3914630,51.94895
Merthyr Tydfil,0.9888133,0.0032901952,0.00131607809,0.0065803904, -3.3816460,51.74873
Llandrindod Wells,0.9867550,0.0066225166,0.00000000000,0.0066225166, -3.3777420,52.24170
Corwen,0.9924262,0.0045443070,0.00000000000,0.0030295380, -3.3692420,52.98005
Cockermouth,0.9792945,0.0207055215,0.00000000000,0.0000000000, -3.3679850,54.66326
Lockerbie,0.9921969,0.0073441018,0.00000000000,0.0004590064, -3.3490080,55.12224
Blairgowrie,0.9970312,0.0019792182,0.00000000000,0.0009896091, -3.3378318,56.58941
Elgin,0.9954128,0.0030581040,0.00000000000,0.0015290520, -3.3184850,57.64945
Newtown,0.9724771,0.0091743119,0.00000000000,0.0183486239, -3.3131060,52.51211
Ruthin,0.9940910,0.0047272011,0.00000000000,0.0011818003, -3.3103108,53.11487
Ruthin,0.9940910,0.0047272011,0.00000000000,0.0011818003, -3.3103108,53.11487
Sidmouth,0.9946363,0.0026818639,0.00000000000,0.0026818639, -3.2375600,50.67865
Barrow-in-Furness,0.9798256,0.0183403978,0.00000000000,0.0018340398, -3.2188940,54.10897
Peebles,0.9888912,0.0061715696,0.00000000000,0.0049372557, -3.1936420,55.65307
Edinburgh,0.9966239,0.0015674769,0.00012057514,0.0016880520, -3.1882670,55.95325
Cardiff,0.9908407,0.0036481955,0.00186290834,0.0036481955, -3.1790900,51.48158
Llangollen,0.9948827,0.0034115139,0.00000000000,0.0017057569, -3.1716600,52.96921
Kirkcaldy,0.9964122,0.0035878015,0.00000000000,0.0000000000, -3.1581370,56.11682
Welshpool,0.9840902,0.0111957888,0.00000000000,0.0047140163, -3.1464070,52.66035
Mold,0.9952494,0.0047505938,0.00000000000,0.0000000000, -3.1419030,53.16720
Mold,0.9952494,0.0047505938,0.00000000000,0.0000000000, -3.1419030,53.16720
Taunton,0.9892178,0.0057082452,0.00000000000,0.0050739958, -3.1068490,51.01534
Wick,0.9948720,0.0051280059,0.00000000000,0.0000000000, -3.0937160,58.43894
John o' Groats,0.9936955,0.0053345482,0.00000000000,0.0009699179, -3.0688997,58.63734
Dalkeith,0.9970695,0.0012559454,0.00013954949,0.0015350444, -3.0666060,55.89312
Oswestry,0.9938190,0.0044150110,0.00000000000,0.0017660044, -3.0564120,52.85715
Blackpool,0.9892309,0.0087372328,0.00000000000,0.0020319146, -3.0356748,53.81751
Birkenhead,0.9939026,0.0045364821,0.00000000000,0.0015609401, -3.0230090,53.38999
Cupar,0.9973350,0.0019035533,0.00000000000,0.0007614213, -3.0101370,56.32023
Southport,0.9863960,0.0097171237,0.00000000000,0.0038868495, -3.0101130,53.64571
Bridgwater,0.9898709,0.0053624628,0.00000000000,0.0047666336, -3.0036320,51.12789
Langholm,0.9922088,0.0073583972,0.00000000000,0.0004328469, -2.9989130,55.15306
Newport,0.9942575,0.0005742506,0.00287125301,0.0022970024, -2.9976640,51.58415
Axminster,0.9913731,0.0064701653,0.00000000000,0.0021567218, -2.9949370,50.78273
Wrexham,0.9974457,0.0025542784,0.00000000000,0.0000000000, -2.9924940,53.04304
Liverpool,0.9939468,0.0044982174,0.00000000000,0.0015549393, -2.9915726,53.40837
Weston-super-Mare,0.9912428,0.0029190530,0.00218928978,0.0036488163, -2.9772550,51.34741
Dundee,0.9971645,0.0018903592,0.00000000000,0.0009451796, -2.9707210,56.46202
Kirkwall,0.9933207,0.0057251081,0.00000000000,0.0009541847, -2.9622491,58.98467
Ambleside,0.9853229,0.0139432485,0.00000000000,0.0007338552, -2.9613330,54.42874
Orkney Islands,0.9933207,0.0057251081,0.00000000000,0.0009541847, -2.9605206,58.98094
Lyme Regis,0.9943995,0.0018668326,0.00000000000,0.0037336652, -2.9366390,50.72516
Carlisle,0.9906088,0.0087006274,0.00000000000,0.0006905260, -2.9329310,54.89247
Chester,0.9895049,0.0095824778,0.00000000000,0.0009126169, -2.8930750,53.19339
Forfar,0.9971613,0.0018924460,0.00000000000,0.0009462230, -2.8890620,56.64356
Morecambe,0.9869716,0.0096506466,0.00000000000,0.0033777263, -2.8649680,54.07417
Selkirk,0.9917146,0.0082853855,0.00000000000,0.0000000000, -2.8385240,55.55066
Galashiels,0.9935829,0.0038502674,0.00000000000,0.0025668449, -2.8144490,55.62373
Lancaster,0.9862520,0.0104295060,0.00000000000,0.0033184792, -2.8007399,54.04657
St Andrews,0.9974195,0.0018432047,0.00000000000,0.0007372819, -2.7967214,56.33978
Hawick,0.9893262,0.0093395597,0.00000000000,0.0013342228, -2.7809140,55.42706
Bridport,0.9905660,0.0056603774,0.00000000000,0.0037735849, -2.7583010,50.73358
Shrewsbury,0.9833169,0.0119164892,0.00000000000,0.0047665957, -2.7553268,52.70730
Penrith,0.9886762,0.0105884577,0.00000000000,0.0007353096, -2.7527080,54.66410
Kendal,0.9891304,0.0108695652,0.00000000000,0.0000000000, -2.7462900,54.32801
Street,0.9908618,0.0030460718,0.00000000000,0.0060921437, -2.7429190,51.12468
Glastonbury,0.9902611,0.0032463141,0.00000000000,0.0064926282, -2.7184540,51.14743
Hereford,0.9956772,0.0043227666,0.00000000000,0.0000000000, -2.7159740,52.05640
Ludlow,0.9954545,0.0000000000,0.00000000000,0.0045454545, -2.7139129,52.36775
Preston,0.9867950,0.0118506145,0.00000000000,0.0013543559, -2.7030900,53.76320
Whitchurch,0.9892929,0.0093687263,0.00000000000,0.0013383895, -2.6820450,52.96872
Wells,1.0000000,0.0000000000,0.00000000000,0.0000000000, -2.6445979,51.20935
Yeovil,0.9937984,0.0031007752,0.00000000000,0.0031007752, -2.6333080,50.94206
Wigan,0.9933547,0.0066452542,0.00000000000,0.0000000000, -2.6325074,53.54506
Warrington,0.9897311,0.0102689487,0.00000000000,0.0000000000, -2.5969501,53.39004
Arbroath,0.9973005,0.0017996401,0.00000000000,0.0008998200, -2.5915430,56.55911
Bristol,0.9870015,0.0054142317,0.00008594019,0.0074982812, -2.5879100,51.45451
Guernsey,0.9935735,0.0035053554,0.00000000000,0.0029211295, -2.5852780,49.46569
Ross-on-Wye,0.9924634,0.0066499187,0.00000000000,0.0008866558, -2.5824460,51.91445
Jedburgh,0.9945380,0.0054619936,0.00000000000,0.0000000000, -2.5549369,55.47772
Sedbergh,0.9919246,0.0080753701,0.00000000000,0.0000000000, -2.5281740,54.32363
Sedbergh,0.9919246,0.0080753701,0.00000000000,0.0000000000, -2.5281740,54.32363
Nantwich,0.9831280,0.0152651312,0.00000000000,0.0016068559, -2.5241020,53.06719
Banff,0.9918542,0.0081458495,0.00000000000,0.0000000000, -2.5240380,57.66651
Dunbar,0.9966012,0.0033987915,0.00000000000,0.0000000000, -2.5167370,56.00209
Cinderford,0.9932677,0.0056965303,0.00000000000,0.0010357328, -2.5009579,51.82530
Banchory,0.9947735,0.0044798407,0.00000000000,0.0007466401, -2.4909599,57.05386
Blackburn,0.9888451,0.0098425197,0.00000000000,0.0013123360, -2.4875290,53.74858
Market Drayton,0.9892050,0.0077106947,0.00000000000,0.0030842779, -2.4834850,52.90355
Telford,0.9836815,0.0124020888,0.00000000000,0.0039164491, -2.4672611,52.67759
Montrose,0.9973864,0.0017424132,0.00000000000,0.0008712066, -2.4661150,56.70692
Turriff,0.9895418,0.0104581673,0.00000000000,0.0000000000, -2.4623000,57.53893
Weymouth,0.9933993,0.0044004400,0.00000000000,0.0022002200, -2.4576210,50.61443
Crewe,0.9861348,0.0124057407,0.00000000000,0.0014594989, -2.4438209,53.10041
Fortuneswell,0.9939970,0.0040020010,0.00000000000,0.0020010005, -2.4422190,50.55919
Dorchester,0.9929653,0.0044766574,0.00000000000,0.0025580900, -2.4411810,50.71116
Alston,0.9891547,0.0101410491,0.00000000000,0.0007042395, -2.4386850,54.81217
Kelso,0.9929646,0.0070353723,0.00000000000,0.0000000000, -2.4322070,55.60003
Wincanton,0.9915983,0.0036007201,0.00000000000,0.0048009602, -2.4160070,51.05569
Clitheroe,0.9813834,0.0156771624,0.00000000000,0.0029394680, -2.3930830,53.87110
Sark,0.9943745,0.0034242387,0.00000000000,0.0022012963, -2.3666256,49.43007
Bath,0.9937842,0.0039958561,0.00044398402,0.0017759361, -2.3590167,51.38106
Kidderminster,0.9921554,0.0067239447,0.00000000000,0.0011206575, -2.2496839,52.38860
Manchester,0.9889309,0.0096959077,0.00000000000,0.0013732003, -2.2426305,53.48076
Burnley,0.9845122,0.0106812610,0.00053406305,0.0042725044, -2.2405035,53.78929
Gloucester,0.9914825,0.0076049483,0.00000000000,0.0009125938, -2.2381560,51.86424
Newcastle-under-Lyme,0.9937094,0.0062906270,0.00000000000,0.0000000000, -2.2273002,53.01321
Worcester,0.9931639,0.0047326906,0.00000000000,0.0021034181, -2.2215750,52.19364
Trowbridge,0.9934818,0.0044812602,0.00040738729,0.0016295492, -2.2088530,51.31966
Shaftesbury,0.9940789,0.0059210526,0.00000000000,0.0000000000, -2.1980830,51.00460
Alderney,0.9944327,0.0034464475,0.00000000000,0.0021208908, -2.1973557,49.71500
Stoke-on-Trent,0.9936508,0.0063492063,0.00000000000,0.0000000000, -2.1794040,53.00267
Colne,0.9817610,0.0154329751,0.00000000000,0.0028059955, -2.1769910,53.85564
Blandford Forum,0.9950769,0.0024615385,0.00000000000,0.0024615385, -2.1653530,50.85691
Rochdale,0.9897354,0.0079835766,0.00000000000,0.0022810219, -2.1561000,53.60971
Jersey,0.9939701,0.0040199081,0.00000000000,0.0020099541, -2.1312500,49.21444
Wolverhampton,0.9938058,0.0058681529,0.00000000000,0.0003260085, -2.1288200,52.58697
Stafford,0.9943992,0.0032671095,0.00000000000,0.0023336497, -2.1206600,52.80669
Macclesfield,0.9935719,0.0057853010,0.00000000000,0.0006428112, -2.1192870,53.25866
Hexham,0.9781364,0.0218636127,0.00000000000,0.0000000000, -2.1121439,54.97266
Aberdeen,0.9947891,0.0044665012,0.00000000000,0.0007444169, -2.0942780,57.14972
Dudley,0.9912931,0.0087068688,0.00000000000,0.0000000000, -2.0811120,52.51226
Cheltenham,0.9926305,0.0064483112,0.00000000000,0.0009211873, -2.0782533,51.89939
Bromsgrove,0.9900442,0.0099557522,0.00000000000,0.0000000000, -2.0619060,52.33559
Skipton,0.9870247,0.0119772432,0.00000000000,0.0009981036, -2.0162787,53.96285
Fraserburgh,0.9892927,0.0087605451,0.00000000000,0.0019467878, -2.0076310,57.69335
Berwick,0.9928642,0.0071357780,0.00000000000,0.0000000000, -2.0053950,55.77024
Poole,0.9933496,0.0033252051,0.00000000000,0.0033252051, -1.9872480,50.71505
Walsall,0.9907405,0.0070807937,0.00000000000,0.0021787057, -1.9829190,52.58621
Cirencester,0.9927913,0.0072086504,0.00000000000,0.0000000000, -1.9682430,51.71849
Evesham,1.0000000,0.0000000000,0.00000000000,0.0000000000, -1.9467700,52.09215
Buxton,0.9916435,0.0075208914,0.00000000000,0.0008356546, -1.9148300,53.25908
Keighley,0.9901950,0.0091007584,0.00000000000,0.0007042254, -1.9123580,53.86780
Birmingham,0.9907144,0.0085455929,0.00000000000,0.0007400307, -1.8904010,52.48624
Bournemouth,0.9935240,0.0032379924,0.00000000000,0.0032379924, -1.8807690,50.71916
Halifax,0.9924197,0.0075803152,0.00000000000,0.0000000000, -1.8575400,53.72702
Salisbury,0.9912207,0.0062709030,0.00000000000,0.0025083612, -1.7944720,51.06878
Ringwood,0.9931146,0.0036452005,0.00000000000,0.0032401782, -1.7888170,50.84495
Huddersfield,0.9891668,0.0108332219,0.00000000000,0.0000000000, -1.7850351,53.64579
Peterhead,0.9928990,0.0063535567,0.00000000000,0.0007474773, -1.7840660,57.50812
Swindon,0.9946513,0.0053486529,0.00000000000,0.0000000000, -1.7797176,51.55577
Bradford,0.9907902,0.0087992022,0.00000000000,0.0004106294, -1.7593980,53.79598
Ashbourne,0.9882643,0.0104317589,0.00086931324,0.0004346566, -1.7321790,53.01663
Marlborough,0.9941032,0.0058968059,0.00000000000,0.0000000000, -1.7270620,51.42007
Stratford-upon-Avon,0.9965956,0.0034044485,0.00000000000,0.0000000000, -1.7082980,52.19173
Alnwick,0.9913881,0.0070096733,0.00000000000,0.0016022111, -1.7062990,55.41274
Otley,0.9914167,0.0077526534,0.00000000000,0.0008306414, -1.6917860,53.90583
Bishop Auckland,0.9785401,0.0204844741,0.00000000000,0.0009754511, -1.6787880,54.66382
Burton upon Trent,0.9891626,0.0088669951,0.00197044335,0.0000000000, -1.6371359,52.81403
Newcastle,0.9884073,0.0105225611,0.00000000000,0.0010700910, -1.6177800,54.97825
Durham,0.9790042,0.0197960408,0.00000000000,0.0011997600, -1.5848520,54.77525
Ashington,0.9904414,0.0080880866,0.00000000000,0.0014705612, -1.5659829,55.18298
Darlington,0.9799386,0.0195192481,0.00000000000,0.0005422013, -1.5594580,54.52361
Leeds,0.9918791,0.0068072416,0.00000000000,0.0013136782, -1.5490774,53.80076
Harrogate,0.9945460,0.0036359964,0.00000000000,0.0018179982, -1.5418120,53.99212
Leamington Spa,0.9913601,0.0071240905,0.00000000000,0.0015157639, -1.5200789,52.28519
Coventry,0.9912656,0.0069518717,0.00000000000,0.0017825312, -1.5196930,52.40682
Blyth,0.9883340,0.0105680680,0.00000000000,0.0010979811, -1.5102770,55.12696
Wakefield,0.9883697,0.0104060396,0.00000000000,0.0012242400, -1.5059240,53.68330
Andover,0.9977714,0.0022285809,0.00000000000,0.0000000000, -1.4919233,51.21120
Witney,0.9946088,0.0044926994,0.00000000000,0.0008985399, -1.4850544,51.78594
Barnsley,0.9894962,0.0093367049,0.00000000000,0.0011670881, -1.4797260,53.55263
Derby,0.9887218,0.0112781955,0.00000000000,0.0000000000, -1.4746186,52.92253
Sheffield,0.9904339,0.0088504442,0.00000000000,0.0007156693, -1.4700850,53.38113
Nuneaton,0.9932933,0.0067066939,0.00000000000,0.0000000000, -1.4653820,52.52049
Northallerton,0.9883008,0.0108635097,0.00000000000,0.0008356546, -1.4299590,54.33796
South Shields,0.9884123,0.0100630209,0.00000000000,0.0015247001, -1.4274060,54.99942
Chesterfield,0.9869927,0.0101168252,0.00000000000,0.0028905215, -1.4216290,53.23505
Southampton,0.9976721,0.0012932707,0.00025865414,0.0007759624, -1.4043509,50.90970
Wetherby,0.9905161,0.0074221703,0.00000000000,0.0020617140, -1.3848160,53.92706
Sunderland,0.9878329,0.0105228543,0.00000000000,0.0016441960, -1.3838010,54.90687
Rotherham,0.9864030,0.0128049424,0.00000000000,0.0007920583, -1.3635009,53.43260
Castleford,0.9883062,0.0095676825,0.00000000000,0.0021261517, -1.3459680,53.72347
Thirsk,0.9945586,0.0036275695,0.00000000000,0.0018137848, -1.3413770,54.23385
Banbury,1.0000000,0.0000000000,0.00000000000,0.0000000000, -1.3397750,52.06290
Stockton,0.9861654,0.0109049479,0.00000000000,0.0029296875, -1.3289821,54.57046
Newbury,0.9973487,0.0017675652,0.00000000000,0.0008837826, -1.3231139,51.40141
Isle of Wight,0.9909184,0.0077978477,0.00000000000,0.0012837920, -1.3047340,50.69385
Isle of Wight,0.9909184,0.0077978477,0.00000000000,0.0012837920, -1.3047340,50.69385
Abingdon,0.9948978,0.0042965516,0.00000000000,0.0008056034, -1.2879529,51.67078
Shetland Islands,0.9917181,0.0082819446,0.00000000000,0.0000000000, -1.2659409,60.52965
Rugby,0.9952756,0.0023622047,0.00000000000,0.0023622047, -1.2650320,52.37088
Oxford,0.9942028,0.0049690584,0.00000000000,0.0008281764, -1.2577263,51.75202
Middlesbrough,0.9848517,0.0116402679,0.00000000000,0.0035080259, -1.2349560,54.57423
Hartlepool,0.9833738,0.0131426159,0.00000000000,0.0034835849, -1.2129260,54.69174
Loughborough,0.9887403,0.0084447572,0.00000000000,0.0028149191, -1.2061660,52.77210
Mansfield,0.9928755,0.0071244805,0.00000000000,0.0000000000, -1.1986740,53.14720
Nottingham,0.9908561,0.0074406096,0.00000000000,0.0017032721, -1.1581086,52.95478
Bicester,0.9972851,0.0019392372,0.00000000000,0.0007756949, -1.1535899,51.89960
Leicester,0.9892900,0.0080324869,0.00000000000,0.0026774956, -1.1397592,52.63688
Doncaster,0.9825835,0.0157837446,0.00000000000,0.0016328012, -1.1284620,53.52282
Worksop,0.9910164,0.0068698256,0.00000000000,0.0021137925, -1.1227450,53.30930
Basingstoke,0.9962640,0.0037359900,0.00000000000,0.0000000000, -1.0923964,51.26654
Portsmouth,0.9904728,0.0085416156,0.00000000000,0.0009855710, -1.0879769,50.81977
York,0.9910349,0.0081245768,0.00000000000,0.0008404735, -1.0872979,53.95997
Selby,1.0000000,0.0000000000,0.00000000000,0.0000000000, -1.0671890,53.78352
Helmsley,0.9946075,0.0035949670,0.00000000000,0.0017974835, -1.0562636,54.24651
Towcester,0.9944268,0.0046443223,0.00000000000,0.0009288645, -0.9896880,52.13511
Reading,0.9969959,0.0025749231,0.00000000000,0.0004291539, -0.9781303,51.45426
Retford,0.9865445,0.0111154446,0.00000000000,0.0023400936, -0.9455030,53.32136
Petersfield,0.9933160,0.0066839955,0.00000000000,0.0000000000, -0.9389900,51.00759
Northampton,0.9947570,0.0044363783,0.00000000000,0.0008066142, -0.9026560,52.24048
Melton Mowbray,0.9912397,0.0087602867,0.00000000000,0.0000000000, -0.8871260,52.76640
Aylesbury,0.9864219,0.0098063867,0.00000000000,0.0037716872, -0.8084000,51.81561
Newark-on-Trent,0.9957939,0.0042060988,0.00000000000,0.0000000000, -0.8065700,53.07004
Malton,0.9917977,0.0078457012,0.00000000000,0.0003566228, -0.7978970,54.13684
Chichester,0.9927048,0.0067340067,0.00000000000,0.0005611672, -0.7749360,50.83761
Gainsborough,0.9875592,0.0124407583,0.00000000000,0.0000000000, -0.7744650,53.40058
Milton Keynes,0.9969711,0.0020969245,0.00000000000,0.0009319664, -0.7594171,52.04062
Aldershot,0.9966559,0.0033441088,0.00000000000,0.0000000000, -0.7557509,51.24837
High Wycombe,0.9979417,0.0020583190,0.00000000000,0.0000000000, -0.7482290,51.62861
Midhurst,0.9939880,0.0060120240,0.00000000000,0.0000000000, -0.7372740,50.98690
Kettering,0.9917374,0.0082625660,0.00000000000,0.0000000000, -0.7302490,52.39632
Wellingborough,0.9929907,0.0070093458,0.00000000000,0.0000000000, -0.6939640,52.30242
Corby,0.9912892,0.0087108014,0.00000000000,0.0000000000, -0.6842333,52.49230
Bognor Regis,0.9927464,0.0059735457,0.00085336368,0.0004266818, -0.6730610,50.78300
Scunthorpe,0.9881430,0.0100328347,0.00000000000,0.0018241518, -0.6544130,53.58865
Grantham,0.9899809,0.0100190840,0.00000000000,0.0000000000, -0.6435820,52.91252
Whitby,0.9860632,0.0111494558,0.00000000000,0.0027873640, -0.6133470,54.48633
Slough,0.9969584,0.0030415681,0.00000000000,0.0000000000, -0.5950406,51.51054
Guildford,0.9948800,0.0040960291,0.00000000000,0.0010240073, -0.5704090,51.23622
Woking,0.9942013,0.0047754406,0.00000000000,0.0010233087, -0.5600349,51.31677
Lincoln,0.9885304,0.0114696437,0.00000000000,0.0000000000, -0.5405790,53.23069
Bedford,0.9939302,0.0030349014,0.00000000000,0.0030349014, -0.4667782,52.13864
Heathrow,0.9939759,0.0060240964,0.00000000000,0.0000000000, -0.4542955,51.47002
Driffield,0.9893559,0.0098253275,0.00000000000,0.0008187773, -0.4433770,54.00600
Beverley,0.9894822,0.0094390507,0.00000000000,0.0010787487, -0.4350930,53.84196
Luton,0.9951657,0.0048343237,0.00000000000,0.0000000000, -0.4200255,51.87867
Scarborough,0.9873912,0.0117081957,0.00000000000,0.0009006304, -0.3997520,54.28311
Worthing,0.9949075,0.0042437817,0.00084875634,0.0000000000, -0.3728820,50.81787
Dorking,0.9904480,0.0095519673,0.00000000000,0.0000000000, -0.3323780,51.23220
Hull,0.9905737,0.0083490439,0.00000000000,0.0010772960, -0.3274198,53.76762
Horsham,0.9940412,0.0042562583,0.00000000000,0.0017025033, -0.3258580,51.06288
Biggleswade,0.9983949,0.0000000000,0.00000000000,0.0016051364, -0.2642200,52.08694
Peterborough,0.9922092,0.0077908122,0.00000000000,0.0000000000, -0.2405299,52.56950
Welwyn Garden City,0.9972136,0.0013931889,0.00000000000,0.0013931889, -0.2086610,51.80317
Bridlington,0.9894464,0.0097998157,0.00000000000,0.0007538320, -0.1988020,54.08535
Stevenage,0.9922856,0.0055103165,0.00000000000,0.0022041266, -0.1966120,51.90376
Crawley,0.9959253,0.0020373514,0.00000000000,0.0020373514, -0.1872275,51.10914
Huntingdon,0.9967497,0.0032502709,0.00000000000,0.0000000000, -0.1825520,52.33146
Hove,0.9969305,0.0017265972,0.00000000000,0.0013429090, -0.1687490,50.82793
Spalding,0.9924242,0.0075757576,0.00000000000,0.0000000000, -0.1537024,52.79010
Brighton,0.9969341,0.0017245876,0.00000000000,0.0013413459, -0.1371630,50.82253
London,0.9945446,0.0042922483,0.00007456135,0.0010885957, -0.1277583,51.50735
Grimsby,0.9928128,0.0066548358,0.00000000000,0.0005323869, -0.0807840,53.56747
Boston,0.9953316,0.0046684223,0.00000000000,0.0000000000, -0.0265770,52.97894
Royston,0.9949917,0.0033388982,0.00000000000,0.0016694491, -0.0240660,52.04814
Louth,0.9966063,0.0033936652,0.00000000000,0.0000000000, -0.0077110,53.36596
Lewes,0.9964264,0.0013897238,0.00000000000,0.0021838516,  0.0087800,50.87387
Chatteris,0.9923306,0.0076693651,0.00000000000,0.0000000000,  0.0540120,52.45610
Uckfield,0.9974890,0.0008369913,0.00000000000,0.0016739826,  0.0959130,50.96641
Cambridge,0.9940843,0.0047021944,0.00000000000,0.0012134695,  0.1218170,52.20534
Bishop's Stortford,0.9989179,0.0010820559,0.00000000000,0.0000000000,  0.1536502,51.87216
Wisbech,0.9871306,0.0119161106,0.00000000000,0.0009532888,  0.1587970,52.66632
Sevenoaks,0.9956938,0.0028708134,0.00000000000,0.0014354067,  0.1908980,51.27241
Tunbridge Wells,0.9968267,0.0031733439,0.00000000000,0.0000000000,  0.2636950,51.13238
Eastbourne,0.9901823,0.0072565728,0.00000000000,0.0025611433,  0.2904720,50.76803
Brentwood,0.9900763,0.0077184600,0.00000000000,0.0022052743,  0.3071749,51.62047
Skegness,0.9916488,0.0077087794,0.00000000000,0.0006423983,  0.3378810,53.14640
Downham Market,0.9897959,0.0092764378,0.00000000000,0.0009276438,  0.3854720,52.60661
King's Lynn,0.9878721,0.0110253583,0.00000000000,0.0011025358,  0.4022963,52.75168
Bexhill,0.9907164,0.0083063392,0.00000000000,0.0009772164,  0.4662071,50.84991
Chelmsford,0.9900915,0.0083841463,0.00000000000,0.0015243902,  0.4685497,51.73559
Mildenhall,0.9931174,0.0068825911,0.00000000000,0.0000000000,  0.5156095,52.34757
Medway,0.9887355,0.0086140254,0.00000000000,0.0026504694,  0.5417861,51.40474
Braintree,0.9925956,0.0074043603,0.00000000000,0.0000000000,  0.5509269,51.88009
Gillingham,0.9937889,0.0039524948,0.00000000000,0.0022585684,  0.5514380,51.38632
Hastings,0.9897242,0.0092971837,0.00000000000,0.0009786509,  0.5734530,50.85426
Maldon,0.9907586,0.0077011937,0.00000000000,0.0015402387,  0.6714480,51.73181
Southend,0.9925389,0.0061872555,0.00000000000,0.0012738467,  0.7077123,51.54593
Bury St Edmunds,0.9922819,0.0073825503,0.00000000000,0.0003355705,  0.7104932,52.24292
Thetford,0.9940641,0.0047487139,0.00000000000,0.0011871785,  0.7516570,52.41286
Ashford,0.9917246,0.0082754470,0.00000000000,0.0000000000,  0.8750190,51.14647
Faversham,0.9978619,0.0014253813,0.00000000000,0.0007126906,  0.8893580,51.31599
Colchester,0.9951665,0.0037593985,0.00000000000,0.0010741139,  0.8918740,51.89593
New Romney,0.9876712,0.0111545988,0.00000000000,0.0011741683,  0.9394730,50.98512
Canterbury,0.9967656,0.0024257779,0.00000000000,0.0008085926,  1.0789089,51.28023
Ipswich,0.9952136,0.0043512945,0.00000000000,0.0004351295,  1.1482200,52.05674
Clacton,0.9954351,0.0035114414,0.00000000000,0.0010534324,  1.1530350,51.78953
Folkestone,0.9940403,0.0054179007,0.00000000000,0.0005417901,  1.1694560,51.08140
Sheringham,0.9947294,0.0052705552,0.00000000000,0.0000000000,  1.2109589,52.94442
Harwich,0.9968792,0.0027740854,0.00000000000,0.0003467607,  1.2602970,51.93473
Norwich,0.9927935,0.0069062156,0.00000000000,0.0003002702,  1.2973550,52.63089
Cromer,0.9922442,0.0074574923,0.00000000000,0.0002982997,  1.3018660,52.93145
Dover,0.9959879,0.0034389209,0.00000000000,0.0005731535,  1.3134027,51.12788
Felixstowe,0.9967024,0.0027480077,0.00000000000,0.0005496015,  1.3512550,51.96173
Margate,0.9967416,0.0021722799,0.00000000000,0.0010861399,  1.3868339,51.38965
Ramsgate,0.9967550,0.0021633510,0.00000000000,0.0010816755,  1.4198950,51.33555
Great Yarmouth,0.9934354,0.0057083056,0.00000000000,0.0008562458,  1.7280470,52.59823
Lowestoft,0.9981752,0.0000000000,0.00000000000,0.0018248175,  1.7534490,52.48114
Swaffham,0.9924834,0.0069384215,0.00000000000,0.0005782018,  0.6874810,52.64747
Dereham,0.9961696,0.0038303694,0.00000000000,0.0000000000,  0.9378270,52.68162
Ely,0.9956289,0.0043710539,0.00000000000,0.0000000000,  0.2623630,52.39954
March,0.9914040,0.0085959885,0.00000000000,0.0000000000,  0.0886220,52.55172
St Neots,1.0000000,0.0000000000,0.00000000000,0.0000000000, -0.2651030,52.23008
Banham,0.9972499,0.0027500859,0.00000000000,0.0000000000,  1.0402849,52.45125
Holt,0.9947294,0.0052705552,0.00000000000,0.0000000000,  1.0867470,52.90936
Cromer,0.9922442,0.0074574923,0.00000000000,0.0002982997,  1.3018660,52.93145
Hunstanton,0.9902941,0.0088235294,0.00000000000,0.0008823529,  0.4910320,52.93891
Horncastle,0.9904510,0.0095490183,0.00000000000,0.0000000000, -0.1124500,53.20731
Market Weighton,0.9856287,0.0125748503,0.00000000000,0.0017964072, -0.6677465,53.86484
Hawes,0.9916357,0.0083643123,0.00000000000,0.0000000000, -2.1968695,54.30383
Reeth,0.9849599,0.0140374332,0.00000000000,0.0010026738, -1.9428115,54.38946
Aysgarth,0.9838565,0.0161434978,0.00000000000,0.0000000000, -1.9967434,54.29159
Stanhope,0.9746738,0.0253261704,0.00000000000,0.0000000000, -2.0113020,54.74946
Keswick,0.9794960,0.0192687747,0.00000000000,0.0012351779, -3.1347060,54.60128
Oxenholme,0.9866667,0.0133333333,0.00000000000,0.0000000000, -2.7243328,54.30134
